{"type":"FeatureCollection","features":[
{"type":"Feature","geometry":{"type":"Point","coordinates":[-1.4938943,12.3757102]},"properties":{"name":"La Surface","shop":"supermarket"}},
{"type":"Feature","geometry":{"type":"Point","coordinates":[-1.4941386,12.3680986]},"properties":{"name":"Karnold","shop":"supermarket"}},
{"type":"Feature","geometry":{"type":"Point","coordinates":[-1.493821,12.3679393]},"properties":{"name":"MAIF","shop":"convenience"}},
{"type":"Feature","geometry":{"type":"Point","coordinates":[-1.4819808,12.3894796]},"properties":{"name":"Sonacof","shop":"supermarket"}},
{"type":"Feature","geometry":{"type":"Point","coordinates":[-1.5220393,12.3741052]},"properties":{"name":"Centre Commercial Wanazoe","shop":"supermarket"}},
{"type":"Feature","geometry":{"type":"Point","coordinates":[-4.2997181,11.1741972]},"properties":{"name":"Marina Market","shop":"supermarket"}},
{"type":"Feature","geometry":{"type":"Point","coordinates":[-3.2957501,12.5843134]},"properties":{"amenity":"bar","shop":"convenience"}},
{"type":"Feature","geometry":{"type":"Point","coordinates":[-1.5469875,12.3567459]},"properties":{"name":"Marina Market","shop":"supermarket"}},
{"type":"Feature","geometry":{"type":"Point","coordinates":[-3.2542648,12.59229]},"properties":{"amenity":"fuel","shop":"convenience"}},
{"type":"Feature","geometry":{"type":"Point","coordinates":[-3.2537692,12.5923285]},"properties":{"shop":"convenience"}},
{"type":"Feature","geometry":{"type":"Point","coordinates":[-1.5105184,12.338341]},"properties":{"shop":"convenience"}},
{"type":"Feature","geometry":{"type":"Point","coordinates":[-3.1832474,10.3290316]},"properties":{"name":"Epicerie","shop":"convenience"}},
{"type":"Feature","geometry":{"type":"Point","coordinates":[-3.1834245,10.3285567]},"properties":{"shop":"convenience"}},
{"type":"Feature","geometry":{"type":"Point","coordinates":[-3.1833349,10.33043]},"properties":{"shop":"convenience"}},
{"type":"Feature","geometry":{"type":"Point","coordinates":[-3.1839035,10.32967]},"properties":{"shop":"convenience"}},
{"type":"Feature","geometry":{"type":"Point","coordinates":[-1.785491,12.3290366]},"properties":{"amenity":"marketplace","name":"Taama"}},
{"type":"Feature","geometry":{"type":"Point","coordinates":[-1.7644529,12.3475594]},"properties":{"amenity":"marketplace","name":"Marché de Sané"}},
{"type":"Feature","geometry":{"type":"Point","coordinates":[-1.5398395,12.3784446]},"properties":{"designation":"BOULANGERIE","name":"BOULANGERIE","shop":"bakery","source":"OIBF"}},
{"type":"Feature","geometry":{"type":"Point","coordinates":[-1.4940895,12.3596662]},"properties":{"name":"Boulangerie Wend-Konta","shop":"bakery"}},
{"type":"Feature","geometry":{"type":"Point","coordinates":[-1.4937713,12.3775083]},"properties":{"name":"Shopette","shop":"supermarket"}},
{"type":"Feature","geometry":{"type":"Point","coordinates":[0.3592005,12.0619173]},"properties":{"amenity":"marketplace","name":"Marché de Fada","source":"GPS"}},
{"type":"Feature","geometry":{"type":"Point","coordinates":[-1.5035627,12.3688503]},"properties":{"name":"Bingo Market","shop":"supermarket"}},
{"type":"Feature","geometry":{"type":"Point","coordinates":[-1.4884651,12.376211]},"properties":{"name":"Boulangerie 2000","shop":"bakery"}},
{"type":"Feature","geometry":{"type":"Point","coordinates":[-4.7624459,10.6418199]},"properties":{"shop":"supermarket"}},
{"type":"Feature","geometry":{"type":"Point","coordinates":[-1.515055,12.3665491]},"properties":{"name":"Pâtisserie Koulouba","shop":"bakery"}},
{"type":"Feature","geometry":{"type":"Point","coordinates":[-1.4903472,12.3563373]},"properties":{"date":"2013-07-20","name":"Mini Alimentation Faso Shop","shop":"convenience","source":"survey"}},
{"type":"Feature","geometry":{"type":"Point","coordinates":[-1.4961304,12.3597339]},"properties":{"date":"2013_07_20","shop":"supermarket","source":"survey"}},
{"type":"Feature","geometry":{"type":"Point","coordinates":[-1.5028174,12.3472236]},"properties":{"name":"Le fournil","opening_hours":"24/7","shop":"bakery"}},
{"type":"Feature","geometry":{"type":"Point","coordinates":[-1.4956617,12.382518]},"properties":{"name":"Amigo Market","shop":"convenience"}},
{"type":"Feature","geometry":{"type":"Point","coordinates":[-1.4946941,12.3803477]},"properties":{"shop":"butcher"}},
{"type":"Feature","geometry":{"type":"Point","coordinates":[-2.7268992,12.6961959]},"properties":{"amenity":"marketplace","name":"marché de Kera"}},
{"type":"Feature","geometry":{"type":"Point","coordinates":[-1.5740395,12.3402821]},"properties":{"name":"Epicerie","shop":"convenience","source":"survey"}},
{"type":"Feature","geometry":{"type":"Point","coordinates":[-2.350126,12.2531577]},"properties":{"name":"Alimentation Kiswend-Sida","shop":"convenience","source":"survey"}},
{"type":"Feature","geometry":{"type":"Point","coordinates":[-2.1273373,12.6208174]},"properties":{"amenity":"marketplace","name":"marché"}},
{"type":"Feature","geometry":{"type":"Point","coordinates":[-2.2300897,12.6428086]},"properties":{"amenity":"marketplace","name":"marché"}},
{"type":"Feature","geometry":{"type":"Point","coordinates":[-2.2935797,12.6583093]},"properties":{"amenity":"marketplace","name":"marché"}},
{"type":"Feature","geometry":{"type":"Point","coordinates":[-2.1083564,12.5565604]},"properties":{"amenity":"marketplace","name":"marché"}},
{"type":"Feature","geometry":{"type":"Point","coordinates":[-1.4909863,12.3820134]},"properties":{"name":"AC MARKET","shop":"convenience"}},
{"type":"Feature","geometry":{"type":"Point","coordinates":[-2.38985,12.2528816]},"properties":{"name":"Grenier du Peuple","shop":"convenience","source":"survey"}},
{"type":"Feature","geometry":{"type":"Point","coordinates":[-2.3892022,12.2552352]},"properties":{"shop":"convenience"}},
{"type":"Feature","geometry":{"type":"Point","coordinates":[-2.3901177,12.2461113]},"properties":{"name":"wend songdo","shop":"supermarket"}},
{"type":"Feature","geometry":{"type":"Point","coordinates":[-2.3896815,12.2532628]},"properties":{"name":"Wend Lamita","shop":"supermarket"}},
{"type":"Feature","geometry":{"type":"Point","coordinates":[-2.3602164,12.2522768]},"properties":{"name":"Coram Distribution","shop":"supermarket"}},
{"type":"Feature","geometry":{"type":"Point","coordinates":[-2.3744684,12.2516772]},"properties":{"shop":"convenience"}},
{"type":"Feature","geometry":{"type":"Point","coordinates":[-2.3771763,12.2505738]},"properties":{"shop":"convenience"}},
{"type":"Feature","geometry":{"type":"Point","coordinates":[-4.2784198,11.17872]},"properties":{"Observation":"Aménagé, grand","amenity":"marketplace","name":"Marche de St Etienne","opening_hours":"24/7","operator":"Bobo-Dioulasso"}},
{"type":"Feature","geometry":{"type":"Point","coordinates":[-1.5111299,12.3663742]},"properties":{"name":"Compagnie Générale de Commerce","shop":"supermarket"}},
{"type":"Feature","geometry":{"type":"Point","coordinates":[-1.5173282,12.3605566]},"properties":{"name":"La Calèche","shop":"bakery"}},
{"type":"Feature","geometry":{"type":"Point","coordinates":[-1.4940047,12.3643817]},"properties":{"name":"Alimentation La Source","shop":"convenience"}},
{"type":"Feature","geometry":{"type":"Point","coordinates":[-1.4941113,12.3601635]},"properties":{"name":"Boulangerie Wend Konta","shop":"bakery"}},
{"type":"Feature","geometry":{"type":"Point","coordinates":[-1.5026333,12.3472487]},"properties":{"shop":"bakery"}},
{"type":"Feature","geometry":{"type":"Point","coordinates":[-1.5289418,12.3160973]},"properties":{"name":"La Baguette du Faso","shop":"bakery"}},
{"type":"Feature","geometry":{"type":"Point","coordinates":[-1.4961211,12.3574089]},"properties":{"name":"Boutique Pengd Wende","shop":"convenience"}},
{"type":"Feature","geometry":{"type":"Point","coordinates":[-2.468946,12.3180941]},"properties":{"amenity":"marketplace"}},
{"type":"Feature","geometry":{"type":"Point","coordinates":[-1.4860887,12.3748115]},"properties":{"shop":"convenience"}},
{"type":"Feature","geometry":{"type":"Point","coordinates":[-3.4929905,12.8295138]},"properties":{"amenity":"marketplace","name":"Marché"}},
{"type":"Feature","geometry":{"type":"Point","coordinates":[-1.0852375,13.0840016]},"properties":{"name":"Alimentation Zam","shop":"supermarket"}},
{"type":"Feature","geometry":{"type":"Point","coordinates":[-1.0858356,13.0836306]},"properties":{"name":"Alementation Koom","shop":"supermarket"}},
{"type":"Feature","geometry":{"type":"Point","coordinates":[-1.0841807,13.0865593]},"properties":{"name":"TV5","shop":"supermarket"}},
{"type":"Feature","geometry":{"type":"Point","coordinates":[-1.0878714,13.0870139]},"properties":{"name":"Alementation Wend Panga","shop":"convenience"}},
{"type":"Feature","geometry":{"type":"Point","coordinates":[-1.0859364,13.0825954]},"properties":{"name":"Boulangerie Wend Konta","shop":"bakery"}},
{"type":"Feature","geometry":{"type":"Point","coordinates":[-1.0860196,13.0813988]},"properties":{"name":"Boulangerie Koom","shop":"bakery"}},
{"type":"Feature","geometry":{"type":"Point","coordinates":[-1.5366722,12.3348245]},"properties":{"name":"Boulangerie Wend Konta","shop":"bakery"}},
{"type":"Feature","geometry":{"type":"Point","coordinates":[-1.539634,12.3375052]},"properties":{"name":"mini alimentation teel-taaba et freres","note":"ajout d'onfo sur la ville de ouagadougou","shop":"supermarket","source":"survey"}},
{"type":"Feature","geometry":{"type":"Point","coordinates":[-1.5401658,12.3349514]},"properties":{"name":"Wend-Panga","shop":"supermarket","source":"survey"}},
{"type":"Feature","geometry":{"type":"Point","coordinates":[-1.5359035,12.3367482]},"properties":{"shop":"convenience","source":"bing;survey"}},
{"type":"Feature","geometry":{"type":"Point","coordinates":[-1.53519,12.3371117]},"properties":{"name":"Wend Kouni","shop":"convenience","source":"bing,survey"}},
{"type":"Feature","geometry":{"type":"Point","coordinates":[-1.5345442,12.3379405]},"properties":{"name":"Boutique Ouedraogo","shop":"convenience"}},
{"type":"Feature","geometry":{"type":"Point","coordinates":[-1.5603422,12.376813]},"properties":{"name":"wend-konta","shop":"bakery","source":"knowledge.bing"}},
{"type":"Feature","geometry":{"type":"Point","coordinates":[-1.545243,12.3335078]},"properties":{"name":"Boulangerie Fawzia","shop":"bakery"}},
{"type":"Feature","geometry":{"type":"Point","coordinates":[-1.5452479,12.3297993]},"properties":{"name":"Boutique Wende Panga","shop":"convenience"}},
{"type":"Feature","geometry":{"type":"Point","coordinates":[-1.5741861,12.4029411]},"properties":{"name":"Wend Penga","shop":"bakery"}},
{"type":"Feature","geometry":{"type":"Point","coordinates":[-1.5661986,12.3998429]},"properties":{"name":"GRACIA MARKET","shop":"convenience"}},
{"type":"Feature","geometry":{"type":"Point","coordinates":[-1.5665454,12.3982602]},"properties":{"name":"MINI PRIX","shop":"convenience","source":"survey"}},
{"type":"Feature","geometry":{"type":"Point","coordinates":[-4.2997718,11.1735835]},"properties":{"name":"Bingo Market","shop":"supermarket"}},
{"type":"Feature","geometry":{"type":"Point","coordinates":[-1.4983718,12.3539853]},"properties":{"name":"La Gabonnaise","shop":"convenience","source":"survey;bing"}},
{"type":"Feature","geometry":{"type":"Point","coordinates":[-4.3331268,11.177412]},"properties":{"name":"Boulangerie MATENE YEDAN","shop":"bakery","source":"survey"}},
{"type":"Feature","geometry":{"type":"Point","coordinates":[-4.3335605,11.1776725]},"properties":{"name":"Boulangerie RELWENDE","shop":"bakery","source":"survey"}},
{"type":"Feature","geometry":{"type":"Point","coordinates":[-4.3097593,11.2145618]},"properties":{"name":"Boulangerie APIOU","shop":"bakery","source":"survey"}},
{"type":"Feature","geometry":{"type":"Point","coordinates":[-4.3049024,11.2066104]},"properties":{"name":"Boulangerie WEND KONTA","shop":"bakery"}},
{"type":"Feature","geometry":{"type":"Point","coordinates":[-4.3065224,11.1875136]},"properties":{"shop":"bakery"}},
{"type":"Feature","geometry":{"type":"Point","coordinates":[-1.5308601,12.3504499]},"properties":{"amenity":"marketplace","name":"Marché de Nabraaga","source":"bing"}},
{"type":"Feature","geometry":{"type":"Point","coordinates":[-1.5550351,12.3365829]},"properties":{"amenity":"marketplace","name":"Marché de Cissin","source":"bing"}},
{"type":"Feature","geometry":{"type":"Point","coordinates":[-1.5442997,12.3345303]},"properties":{"amenity":"marketplace","source":"bing"}},
{"type":"Feature","geometry":{"type":"Point","coordinates":[-1.5049588,12.345574]},"properties":{"amenity":"marketplace","name":"Tolsin Yaré","source":"bing"}},
{"type":"Feature","geometry":{"type":"Point","coordinates":[-1.5155842,12.3920401]},"properties":{"amenity":"marketplace"}},
{"type":"Feature","geometry":{"type":"Point","coordinates":[-1.5134739,12.4018525]},"properties":{"amenity":"marketplace"}},
{"type":"Feature","geometry":{"type":"Point","coordinates":[-1.5460263,12.3564975]},"properties":{"amenity":"marketplace","name":"Marché de Gounghin"}},
{"type":"Feature","geometry":{"type":"Point","coordinates":[-1.4939559,12.3734656]},"properties":{"name":"Au four mixte","shop":"bakery","source":"survey;bing"}},
{"type":"Feature","geometry":{"type":"Point","coordinates":[-1.5390411,12.3562765]},"properties":{"name":"Super Ramon III","shop":"supermarket"}},
{"type":"Feature","geometry":{"type":"Point","coordinates":[-1.5471305,12.3571403]},"properties":{"name":"Rayon d'Or","shop":"supermarket","source":"survey;bing"}},
{"type":"Feature","geometry":{"type":"Point","coordinates":[-0.3516978,12.1805014]},"properties":{"amenity":"marketplace","organic":"no"}},
{"type":"Feature","geometry":{"type":"Point","coordinates":[-1.5484048,12.3475786]},"properties":{"name":"Bonlangerie Wend Konta","shop":"bakery"}},
{"type":"Feature","geometry":{"type":"Point","coordinates":[-1.5502434,12.3425097]},"properties":{"amenity":"marketplace","name":"Marché de bois"}},
{"type":"Feature","geometry":{"type":"Point","coordinates":[-4.3133399,11.1830531]},"properties":{"shop":"bakery","source":"bing;survey"}},
{"type":"Feature","geometry":{"type":"Point","coordinates":[-4.2779044,11.1555874]},"properties":{"Observation":"Non aménagé, petit et tentaculaire","amenity":"marketplace","name":"Marche des Bissas","source":"bing,knowledge"}},
{"type":"Feature","geometry":{"type":"Point","coordinates":[-3.0718751,13.0692394]},"properties":{"name":"Boulangérie Wend-Konta","shop":"bakery"}},
{"type":"Feature","geometry":{"type":"Point","coordinates":[-0.4330079,12.2531199]},"properties":{"amenity":"marketplace","name":"Marché de céréales (groumdaaga)","source":"bing;survey"}},
{"type":"Feature","geometry":{"type":"Point","coordinates":[-0.4320891,12.2531323]},"properties":{"amenity":"marketplace","name":"Marché de volailles","source":"bing; survey"}},
{"type":"Feature","geometry":{"type":"Point","coordinates":[-1.4776062,12.3757847]},"properties":{"name":"le levant","shop":"supermarket"}},
{"type":"Feature","geometry":{"type":"Point","coordinates":[-1.4868187,12.3539744]},"properties":{"name":"Le Réveil","shop":"convenience"}},
{"type":"Feature","geometry":{"type":"Point","coordinates":[-1.4749895,12.3707821]},"properties":{"name":"Wend Konta","opening_hours":"24/7","shop":"bakery"}},
{"type":"Feature","geometry":{"type":"Point","coordinates":[-1.5245694,12.3692597]},"properties":{"project:PDEVII":"yes","shop":"convenience","source":"survey","survey:date":"2015-03-26"}},
{"type":"Feature","geometry":{"type":"Point","coordinates":[-1.5253473,12.3678549]},"properties":{"project:PDEVII":"yes","shop":"convenience","source":"survey","survey:date":"2015-03-26"}},
{"type":"Feature","geometry":{"type":"Point","coordinates":[-0.9741273,12.1132925]},"properties":{"amenity":"marketplace"}},
{"type":"Feature","geometry":{"type":"Point","coordinates":[-1.5487855,12.3617103]},"properties":{"barrier":"gate","bicycle":"yes","foot":"yes"}},
{"type":"Feature","geometry":{"type":"Point","coordinates":[-1.5492193,12.3620049]},"properties":{"barrier":"gate","bicycle":"yes","foot":"yes"}},
{"type":"Feature","geometry":{"type":"Point","coordinates":[-1.5483746,12.3620997]},"properties":{"barrier":"gate","bicycle":"yes","foot":"yes"}},
{"type":"Feature","geometry":{"type":"Point","coordinates":[-1.5492449,12.3622856]},"properties":{"barrier":"gate","bicycle":"yes","foot":"yes"}},
{"type":"Feature","geometry":{"type":"Point","coordinates":[-1.5483894,12.3623493]},"properties":{"barrier":"gate","bicycle":"yes","foot":"yes"}},
{"type":"Feature","geometry":{"type":"Point","coordinates":[-1.5492829,12.3627012]},"properties":{"barrier":"gate","bicycle":"yes","foot":"yes"}},
{"type":"Feature","geometry":{"type":"Point","coordinates":[-1.5484111,12.3627178]},"properties":{"barrier":"gate","bicycle":"yes","foot":"yes"}},
{"type":"Feature","geometry":{"type":"Point","coordinates":[-1.5491304,12.3628792]},"properties":{"barrier":"gate","bicycle":"yes","foot":"yes"}},
{"type":"Feature","geometry":{"type":"Point","coordinates":[-1.5488625,12.3628946]},"properties":{"barrier":"gate","bicycle":"yes","foot":"yes"}},
{"type":"Feature","geometry":{"type":"Point","coordinates":[-1.5711797,12.3403849]},"properties":{"name":"Kos-Wende","shop":"bakery","source":"survey"}},
{"type":"Feature","geometry":{"type":"Point","coordinates":[-1.5446088,12.3620622]},"properties":{"name":"Boucherie","shop":"butcher","source":"bing"}},
{"type":"Feature","geometry":{"type":"Point","coordinates":[-1.4616215,12.395211]},"properties":{"name":"Arc En Ciel Alimentation","shop":"convenience","source":"survey,"}},
{"type":"Feature","geometry":{"type":"Point","coordinates":[-1.5219021,12.3325066]},"properties":{"name":"Marina Market","shop":"supermarket","source":"surrvey"}},
{"type":"Feature","geometry":{"type":"Point","coordinates":[-1.520302,12.3322377]},"properties":{"name":"Mini Market","shop":"convenience","source":"survey"}},
{"type":"Feature","geometry":{"type":"Point","coordinates":[0.3608528,12.0599709]},"properties":{"name":"Patisserie du Gourma","shop":"bakery","source":"survey"}},
{"type":"Feature","geometry":{"type":"Point","coordinates":[-1.5560381,12.3249974]},"properties":{"amenity":"marketplace","source":"bing"}},
{"type":"Feature","geometry":{"type":"Point","coordinates":[-2.1976477,12.7010395]},"properties":{"shop":"butcher"}},
{"type":"Feature","geometry":{"type":"Point","coordinates":[1.7898527,12.0714849]},"properties":{"name":"Mini Patisserie","shop":"bakery","source":"survey"}},
{"type":"Feature","geometry":{"type":"Point","coordinates":[1.7885116,12.0731715]},"properties":{"name":"Alimentation Le Palais","shop":"convenience","source":"survey"}},
{"type":"Feature","geometry":{"type":"Point","coordinates":[1.7883767,12.0735079]},"properties":{"name":"Bual-Hau","shop":"bakery","source":"survey"}},
{"type":"Feature","geometry":{"type":"Point","coordinates":[1.7579122,11.7142846]},"properties":{"name":"Le Seneve de Mahadaga","shop":"convenience"}},
{"type":"Feature","geometry":{"type":"Point","coordinates":[-4.2974411,11.1746803]},"properties":{"name":"La Bonne Miche","shop":"bakery","source":"survey"}},
{"type":"Feature","geometry":{"type":"Point","coordinates":[-1.5228254,12.3603277]},"properties":{"amenity":"marketplace","name":"OSCAR-YAAR"}},
{"type":"Feature","geometry":{"type":"Point","coordinates":[-4.7531063,10.6381324]},"properties":{"name":"Boulangerie Wend Konta","shop":"bakery","source":"survey"}},
{"type":"Feature","geometry":{"type":"Point","coordinates":[-4.7733798,10.6443019]},"properties":{"name":"Alimentation","shop":"convenience","source":"survey"}},
{"type":"Feature","geometry":{"type":"Point","coordinates":[-4.7734393,10.6441393]},"properties":{"name":"Boulangerie Wend Konta Banfora secteur 8","shop":"bakery","source":"survey"}},
{"type":"Feature","geometry":{"type":"Point","coordinates":[-4.7621473,10.6436647]},"properties":{"name":"Supermarché La Paix","shop":"convenience","source":"survey"}},
{"type":"Feature","geometry":{"type":"Point","coordinates":[-1.5509837,12.3511959]},"properties":{"name":"Tofu pour l'Afrique - Orange Bleu Afrique","shop":"convenience","source":"survey"}},
{"type":"Feature","geometry":{"type":"Point","coordinates":[-1.5458762,12.3513923]},"properties":{"name":"Alimentation Le bon Goût","shop":"convenience","source":"survey"}},
{"type":"Feature","geometry":{"type":"Point","coordinates":[-3.068315,13.0729133]},"properties":{"amenity":"marketplace","name":"Marché central de Tougan"}},
{"type":"Feature","geometry":{"type":"Point","coordinates":[-1.5474354,12.3564976]},"properties":{"name":"Au four Mixte","shop":"bakery","source":"survey"}},
{"type":"Feature","geometry":{"type":"Point","coordinates":[-1.5453849,12.2768399]},"properties":{"amenity":"marketplace","name":"Bassamtoaga Yaar"}},
{"type":"Feature","geometry":{"type":"Point","coordinates":[-2.0896964,11.7322605]},"properties":{"amenity":"marketplace","name":"Marché de Dalô"}},
{"type":"Feature","geometry":{"type":"Point","coordinates":[-1.5566439,12.3775342]},"properties":{"name":"Alimentation le Bon Exemple","shop":"supermarket"}},
{"type":"Feature","geometry":{"type":"Point","coordinates":[-3.4602095,12.4631685]},"properties":{"amenity":"marketplace","name":"Marché Central de Dédougou"}},
{"type":"Feature","geometry":{"type":"Point","coordinates":[-1.5501494,12.3314106]},"properties":{"name":"Le Bon Samaritin","shop":"supermarket"}},
{"type":"Feature","geometry":{"type":"Point","coordinates":[-0.6066327,12.3772334]},"properties":{"amenity":"marketplace","name":"Marché de Kanré"}},
{"type":"Feature","geometry":{"type":"Point","coordinates":[-4.2513196,11.1692365]},"properties":{"name":"Complexe La Pyramide","shop":"bakery"}},
{"type":"Feature","geometry":{"type":"Point","coordinates":[-2.575178,12.2827224]},"properties":{"amenity":"marketplace","name":"Marché de Kyon"}},
{"type":"Feature","geometry":{"type":"Point","coordinates":[-1.5209524,12.3665934]},"properties":{"name":"Marina Market","name:fr":"Marina Market","shop":"supermarket"}},
{"type":"Feature","geometry":{"type":"Point","coordinates":[-1.5185509,12.3650098]},"properties":{"name":"Home Market","name:fr":"Home Market","shop":"supermarket"}},
{"type":"Feature","geometry":{"type":"Point","coordinates":[-1.5214676,12.3684905]},"properties":{"name":"SCIMAS","name:fr":"SCIMAS","shop":"supermarket"}},
{"type":"Feature","geometry":{"type":"Point","coordinates":[-1.5288737,12.3145912]},"properties":{"name":"Générale des Viandes","name:fr":"Générale des Viandes","shop":"butcher"}},
{"type":"Feature","geometry":{"type":"Point","coordinates":[-1.517024,12.3653137]},"properties":{"name":"Marché centre","name:fr":"Marché centre","shop":"convenience"}},
{"type":"Feature","geometry":{"type":"Point","coordinates":[-1.5072884,12.3664871]},"properties":{"name":"Marché laetitia","name:fr":"Marché laetitia","shop":"convenience"}},
{"type":"Feature","geometry":{"type":"Point","coordinates":[-1.5287863,12.3120444]},"properties":{"name":"Général des Viandes","name:fr":"Général des Viandes","shop":"butcher"}},
{"type":"Feature","geometry":{"type":"Point","coordinates":[-1.6096178,12.3968684]},"properties":{"shop":"supermarket","source":"servey;bing"}},
{"type":"Feature","geometry":{"type":"Point","coordinates":[-1.9951431,11.8037059]},"properties":{"amenity":"marketplace","name":"Marché de Bougnounou"}},
{"type":"Feature","geometry":{"type":"Point","coordinates":[-1.8960911,11.7188789]},"properties":{"amenity":"marketplace","name":"Marché de Kou","operator":"Public"}},
{"type":"Feature","geometry":{"type":"Point","coordinates":[-4.3034814,11.1717603]},"properties":{"name":"BOULANGERIE BARA","name:fr":"BOULANGERIE BARA","shop":"bakery"}},
{"type":"Feature","geometry":{"type":"Point","coordinates":[-4.3029768,11.1732056]},"properties":{"name":"A-G_B","name:fr":"A-G_B","shop":"supermarket"}},
{"type":"Feature","geometry":{"type":"Point","coordinates":[-1.511777,12.3679627]},"properties":{"name":"ACT","name:fr":"ACT","shop":"supermarket"}},
{"type":"Feature","geometry":{"type":"Point","coordinates":[-2.1673096,14.0979419]},"properties":{"amenity":"marketplace","name":"Marché de Tibou"}},
{"type":"Feature","geometry":{"type":"Point","coordinates":[-2.2916333,14.1145942]},"properties":{"amenity":"marketplace","name":"Marché de Segue-Foulgo"}},
{"type":"Feature","geometry":{"type":"Point","coordinates":[-1.5435097,12.2060876]},"properties":{"amenity":"marketplace","name":"Marché de Bassiyam"}},
{"type":"Feature","geometry":{"type":"Point","coordinates":[-1.5247813,12.182547]},"properties":{"amenity":"marketplace","name":"Marché de Ouindigui"}},
{"type":"Feature","geometry":{"type":"Point","coordinates":[-1.5844244,12.2497629]},"properties":{"amenity":"marketplace","name":"Marché de Zinguedessé"}},
{"type":"Feature","geometry":{"type":"Point","coordinates":[-1.5099988,12.3684272]},"properties":{"name":"ACT","shop":"supermarket"}},
{"type":"Feature","geometry":{"type":"Point","coordinates":[-2.2367107,12.2184988]},"properties":{"amenity":"marketplace","name":"Marché de Ramongo"}},
{"type":"Feature","geometry":{"type":"Point","coordinates":[-1.4867834,12.237642]},"properties":{"amenity":"marketplace","name":"Marché de Possamtinga"}},
{"type":"Feature","geometry":{"type":"Point","coordinates":[-1.4890136,12.2406761]},"properties":{"amenity":"marketplace","name":"Marché de Sabtoana"}},
{"type":"Feature","geometry":{"type":"Point","coordinates":[-1.6954712,13.3721375]},"properties":{"flickr":"https://www.flickr.com/photos/150827403@N06/albums/72157685798748646","shop":"convenience"}},
{"type":"Feature","geometry":{"type":"Point","coordinates":[-1.6796703,13.3828686]},"properties":{"flickr":"https://www.flickr.com/photos/150827403@N06/albums/72157683046289844","shop":"convenience"}},
{"type":"Feature","geometry":{"type":"Point","coordinates":[-1.6794623,13.3825583]},"properties":{"flickr":"https://www.flickr.com/photos/150827403@N06/albums/72157685798718766","shop":"convenience"}},
{"type":"Feature","geometry":{"type":"Point","coordinates":[-1.5747337,13.1753068]},"properties":{"flickr":"https://www.flickr.com/photos/150827403@N06/albums/72157683506009751","shop":"convenience"}},
{"type":"Feature","geometry":{"type":"Point","coordinates":[-4.7476162,10.629059]},"properties":{"shop":"convenience"}},
{"type":"Feature","geometry":{"type":"Point","coordinates":[-4.7476531,10.6287183]},"properties":{"shop":"convenience"}},
{"type":"Feature","geometry":{"type":"Point","coordinates":[-1.2644094,12.4878372]},"properties":{"amenity":"marketplace","name":"Marché de Boudtenga"}},
{"type":"Feature","geometry":{"type":"Point","coordinates":[-1.570943,12.2923248]},"properties":{"amenity":"marketplace","name":"Marché de Bonheur ville"}},
{"type":"Feature","geometry":{"type":"Point","coordinates":[-1.6307133,12.2507989]},"properties":{"amenity":"marketplace","name":"Marché de Tang-Séga"}},
{"type":"Feature","geometry":{"type":"Point","coordinates":[-1.6171789,12.2953334]},"properties":{"amenity":"marketplace","name":"Marché de Boassa"}},
{"type":"Feature","geometry":{"type":"Point","coordinates":[-1.6501379,12.2438437]},"properties":{"amenity":"marketplace","name":"Marché de Louksi"}},
{"type":"Feature","geometry":{"type":"Point","coordinates":[-1.5322924,12.2560254]},"properties":{"amenity":"marketplace","name":"Marché (tchapalodrôme)","remark":"Apparemment un tchapalodrôme (vente de bièe de mil traditionnelle)"}},
{"type":"Feature","geometry":{"type":"Point","coordinates":[-1.6085342,12.3072048]},"properties":{"amenity":"marketplace","name":"Marché"}},
{"type":"Feature","geometry":{"type":"Point","coordinates":[-1.5482649,12.2978152]},"properties":{"amenity":"marketplace","name":"Marché"}},
{"type":"Feature","geometry":{"type":"Point","coordinates":[-1.5480369,12.2772002]},"properties":{"amenity":"marketplace","name":"Marché (Tchapalodrôme)"}},
{"type":"Feature","geometry":{"type":"Point","coordinates":[-1.5440203,12.2896805]},"properties":{"amenity":"marketplace","name":"Marché (Tchapalodrôme)"}},
{"type":"Feature","geometry":{"type":"Point","coordinates":[-1.5967999,12.2645729]},"properties":{"amenity":"marketplace","name":"Marché de Tiguindalgué"}},
{"type":"Feature","geometry":{"type":"Point","coordinates":[-1.5385634,12.2912294]},"properties":{"amenity":"marketplace","name":"Marché (Tchapalodrôme)"}},
{"type":"Feature","geometry":{"type":"Point","coordinates":[-1.5346634,12.2912372]},"properties":{"amenity":"marketplace","name":"Marché de Nagrin"}},
{"type":"Feature","geometry":{"type":"Point","coordinates":[-1.5306777,12.2854401]},"properties":{"amenity":"marketplace","name":"Toul Neeré","remark":"Vente de pièces détachées de voitures et camions"}},
{"type":"Feature","geometry":{"type":"Point","coordinates":[-1.5354413,12.274388]},"properties":{"amenity":"marketplace","name":"Marché (Tchapalodrôme)"}},
{"type":"Feature","geometry":{"type":"Point","coordinates":[-2.710796,12.0895006]},"properties":{"amenity":"marketplace","name":"Marché de Guigui"}},
{"type":"Feature","geometry":{"type":"Point","coordinates":[-2.691063,12.1770327]},"properties":{"amenity":"marketplace","name":"Marché de Tiogo"}},
{"type":"Feature","geometry":{"type":"Point","coordinates":[-2.5200641,12.048402]},"properties":{"amenity":"marketplace","name":"Marché"}},
{"type":"Feature","geometry":{"type":"Point","coordinates":[-2.5942969,12.1221226]},"properties":{"amenity":"marketplace","name":"Marché de Batondo"}},
{"type":"Feature","geometry":{"type":"Point","coordinates":[-2.5253695,12.2019156]},"properties":{"amenity":"marketplace","name":"Marché de Koukouldi"}},
{"type":"Feature","geometry":{"type":"Point","coordinates":[-2.6046637,12.1959094]},"properties":{"amenity":"marketplace","name":"Marché de Ténado"}},
{"type":"Feature","geometry":{"type":"Point","coordinates":[-2.5809476,12.2257292]},"properties":{"amenity":"marketplace","name":"Marché de Tialgo"}},
{"type":"Feature","geometry":{"type":"Point","coordinates":[-1.4681134,12.3650844]},"properties":{"shop":"convenience"}},
{"type":"Feature","geometry":{"type":"Point","coordinates":[-1.4671721,12.3655257]},"properties":{"shop":"convenience"}},
{"type":"Feature","geometry":{"type":"Point","coordinates":[-1.4675862,12.3652315]},"properties":{"shop":"convenience"}},
{"type":"Feature","geometry":{"type":"Point","coordinates":[-1.4251488,12.4220418]},"properties":{"amenity":"marketplace","name":"Marché"}},
{"type":"Feature","geometry":{"type":"Point","coordinates":[0.3746143,12.0457492]},"properties":{"description":"Atiekke, gari, tapioca","name":"Wendonga","shop":"convenience"}},
{"type":"Feature","geometry":{"type":"Point","coordinates":[-2.6738727,12.3625218]},"properties":{"amenity":"marketplace","name":"Marché de Poa"}},
{"type":"Feature","geometry":{"type":"Point","coordinates":[-1.4418295,12.4018165]},"properties":{"amenity":"marketplace","name":"Marché de Nioko 2"}},
{"type":"Feature","geometry":{"type":"Point","coordinates":[-1.4270639,12.3932659]},"properties":{"amenity":"marketplace","name":"Marché"}},
{"type":"Feature","geometry":{"type":"Point","coordinates":[0.3717933,12.0601955]},"properties":{"name":"Boulangerie Wend Konta","shop":"bakery"}},
{"type":"Feature","geometry":{"type":"Point","coordinates":[0.3871922,12.0614017]},"properties":{"name":"Laiterie du Gourma","shop":"dairy"}},
{"type":"Feature","geometry":{"type":"Point","coordinates":[0.3507328,12.0668639]},"properties":{"shop":"convenience"}},
{"type":"Feature","geometry":{"type":"Point","coordinates":[0.3650915,12.0593132]},"properties":{"name":"Arachide","shop":"convenience"}},
{"type":"Feature","geometry":{"type":"Point","coordinates":[0.3700523,12.0421438]},"properties":{"name":"Shalom fada","shop":"bakery"}},
{"type":"Feature","geometry":{"type":"Point","coordinates":[-1.4700273,11.4735807]},"properties":{"amenity":"marketplace","name":"Marché de Tiaré"}},
{"type":"Feature","geometry":{"type":"Point","coordinates":[-1.5916604,11.4516507]},"properties":{"amenity":"marketplace","name":"Marché de Faro"}},
{"type":"Feature","geometry":{"type":"Point","coordinates":[-1.4912578,12.3804634]},"properties":{"name":"SODEPAL","shop":"convenience"}},
{"type":"Feature","geometry":{"type":"Point","coordinates":[0.3758804,12.0606876]},"properties":{"name":"Song-taaba","phone":"70451440","shop":"bakery"}},
{"type":"Feature","geometry":{"type":"Point","coordinates":[-4.3004246,11.175293]},"properties":{"amenity":"marketplace","name":"Marché"}},
{"type":"Feature","geometry":{"type":"Point","coordinates":[-2.756128,12.4574801]},"properties":{"amenity":"marketplace","name":"Marché de Farba"}},
{"type":"Feature","geometry":{"type":"Point","coordinates":[-4.6693678,12.0483207]},"properties":{"amenity":"marketplace","source":"Bing"}},
{"type":"Feature","geometry":{"type":"Point","coordinates":[-2.9126698,9.8786686]},"properties":{"amenity":"marketplace","name":"Marché de Batié"}},
{"type":"Feature","geometry":{"type":"Point","coordinates":[-2.936697,9.8069317]},"properties":{"amenity":"marketplace","name":"Marché du site aurifère"}},
{"type":"Feature","geometry":{"type":"Point","coordinates":[-2.4239874,12.1622161]},"properties":{"amenity":"marketplace","name":"Marché de Bangozougou"}},
{"type":"Feature","geometry":{"type":"Point","coordinates":[-1.4766761,12.3293649]},"properties":{"shop":"convenience"}},
{"type":"Feature","geometry":{"type":"Point","coordinates":[-1.5716337,12.3404617]},"properties":{"name":"Wend Konta","shop":"bakery"}},
{"type":"Feature","geometry":{"type":"Point","coordinates":[-4.9142388,10.2813947]},"properties":{"amenity":"marketplace","source":"Bing"}},
{"type":"Feature","geometry":{"type":"Point","coordinates":[-5.3095977,11.0804739]},"properties":{"amenity":"marketplace","source":"Bing"}},
{"type":"Feature","geometry":{"type":"Point","coordinates":[-1.5729485,12.3422137]},"properties":{"name":"Alimentatio' le managere","shop":"supermarket"}},
{"type":"Feature","geometry":{"type":"Point","coordinates":[-1.4955089,12.3602676]},"properties":{"name":"Na-Bons-Wend","shop":"convenience","source":"survey"}},
{"type":"Feature","geometry":{"type":"Point","coordinates":[-1.4306219,13.2105065]},"properties":{"amenity":"marketplace","name":"Marché de Souryala"}},
{"type":"Feature","geometry":{"type":"Point","coordinates":[-1.4309655,13.2107143]},"properties":{"shop":"convenience"}},
{"type":"Feature","geometry":{"type":"Point","coordinates":[-1.4882149,12.3753467]},"properties":{"name":"Ephata alimentation","shop":"supermarket"}},
{"type":"Feature","geometry":{"type":"Point","coordinates":[-2.1045524,11.0983118]},"properties":{"amenity":"marketplace","name":"Grand Marchée de Léo","source":"https://www.openstreetmap.org/note/1343644"}},
{"type":"Feature","geometry":{"type":"Point","coordinates":[-2.0990787,11.1012297]},"properties":{"contact:phone":"+226 68313731","name":"Nouvelle boulangerie Grâce Divine","shop":"bakery","source":"https://www.openstreetmap.org/note/1342357"}},
{"type":"Feature","geometry":{"type":"Point","coordinates":[-2.4178641,13.5757979]},"properties":{"shop":"butcher"}},
{"type":"Feature","geometry":{"type":"Point","coordinates":[-2.2602063,12.4870072]},"properties":{"amenity":"marketplace","name":"Marché de Rana"}},
{"type":"Feature","geometry":{"type":"Point","coordinates":[-0.741899,13.8695385]},"properties":{"amenity":"marketplace","name":"Marché de Zinibéogo"}},
{"type":"Feature","geometry":{"type":"Point","coordinates":[-0.8620566,13.8555311]},"properties":{"amenity":"marketplace","name":"Marché de Bollé"}},
{"type":"Feature","geometry":{"type":"Point","coordinates":[-0.9330922,13.8545389]},"properties":{"amenity":"marketplace","name":"Marché de Foubé"}},
{"type":"Feature","geometry":{"type":"Point","coordinates":[-0.1188701,12.2416432]},"properties":{"amenity":"marketplace","name":"Marché de Sampaongo"}},
{"type":"Feature","geometry":{"type":"Point","coordinates":[-0.1365244,12.1659603]},"properties":{"amenity":"marketplace","name":"Yaar de Kabèga"}},
{"type":"Feature","geometry":{"type":"Point","coordinates":[-0.0650597,12.1445117]},"properties":{"amenity":"marketplace","name":"Marché de Gounghin"}},
{"type":"Feature","geometry":{"type":"Point","coordinates":[-0.2648118,12.0020106]},"properties":{"amenity":"marketplace","name":"Marché de Tensobentenga"}},
{"type":"Feature","geometry":{"type":"Point","coordinates":[-0.2053955,11.927929]},"properties":{"amenity":"marketplace","name":"Marché de Silgtéogo"}},
{"type":"Feature","geometry":{"type":"Point","coordinates":[-0.2830267,11.9522919]},"properties":{"amenity":"marketplace","name":"Marché de Tougmetenga"}},
{"type":"Feature","geometry":{"type":"Point","coordinates":[-0.2038801,11.9839546]},"properties":{"amenity":"marketplace","name":"Marché de Pectenga"}},
{"type":"Feature","geometry":{"type":"Point","coordinates":[0.1552275,12.6544132]},"properties":{"amenity":"marketplace","name":"Marché de Tiapaga"}},
{"type":"Feature","geometry":{"type":"Point","coordinates":[0.3861952,12.7902388]},"properties":{"amenity":"marketplace","name":"Marché de Diapoadougou"}},
{"type":"Feature","geometry":{"type":"Point","coordinates":[0.3334066,12.7407379]},"properties":{"amenity":"marketplace","name":"Marché de Sabra"}},
{"type":"Feature","geometry":{"type":"Point","coordinates":[0.2153814,12.8608568]},"properties":{"amenity":"marketplace","name":"Yaar d'Hartery"}},
{"type":"Feature","geometry":{"type":"Point","coordinates":[0.2819645,12.8444346]},"properties":{"amenity":"marketplace","name":"Marché de Boungou"}},
{"type":"Feature","geometry":{"type":"Point","coordinates":[0.1096433,12.7277195]},"properties":{"amenity":"marketplace","name":"Marché de Gora"}},
{"type":"Feature","geometry":{"type":"Point","coordinates":[-4.3315417,11.1766733]},"properties":{"name":"HAMZA MARKET","shop":"supermarket"}},
{"type":"Feature","geometry":{"type":"Point","coordinates":[-3.0862248,12.2628087]},"properties":{"amenity":"marketplace","name":"Marché de Tchériba"}},
{"type":"Feature","geometry":{"type":"Point","coordinates":[-2.4566621,12.2273912]},"properties":{"amenity":"marketplace","name":"Marché de Goundi"}},
{"type":"Feature","geometry":{"type":"Point","coordinates":[-2.1152946,13.2060757]},"properties":{"amenity":"marketplace","name":"Marché de Tougo"}},
{"type":"Feature","geometry":{"type":"Point","coordinates":[-2.359145,13.2308019]},"properties":{"name":"Marché à bétail de Gourcy","shop":"butcher"}},
{"type":"Feature","geometry":{"type":"Point","coordinates":[-2.3560551,13.2059908]},"properties":{"amenity":"marketplace","name":"Marché de Gourcy"}},
{"type":"Feature","geometry":{"type":"Point","coordinates":[-2.5626174,13.0279519]},"properties":{"amenity":"marketplace","name":"Marché de Boussou"}},
{"type":"Feature","geometry":{"type":"Point","coordinates":[-2.6943286,13.1147671]},"properties":{"amenity":"marketplace","name":"Marché de Pallé"}},
{"type":"Feature","geometry":{"type":"Point","coordinates":[-2.6004258,13.1034427]},"properties":{"amenity":"marketplace","name":"Marché de Bangassé"}},
{"type":"Feature","geometry":{"type":"Point","coordinates":[-2.4945429,13.0496246]},"properties":{"amenity":"marketplace","name":"Marché de Tamounouma"}},
{"type":"Feature","geometry":{"type":"Point","coordinates":[-2.3499195,13.1129176]},"properties":{"amenity":"marketplace","name":"Marché de Niességa"}},
{"type":"Feature","geometry":{"type":"Point","coordinates":[-2.3896109,13.3618811]},"properties":{"amenity":"marketplace","name":"Marché de Bougounam"}},
{"type":"Feature","geometry":{"type":"Point","coordinates":[-2.4994151,13.3293933]},"properties":{"amenity":"marketplace","name":"Marché de Lago"}},
{"type":"Feature","geometry":{"type":"Point","coordinates":[-2.2842859,13.2625028]},"properties":{"amenity":"marketplace","name":"Marché de Minima"}},
{"type":"Feature","geometry":{"type":"Point","coordinates":[-2.2340937,13.1602591]},"properties":{"amenity":"marketplace","name":"Marché de Ridimbo"}},
{"type":"Feature","geometry":{"type":"Point","coordinates":[-2.167308,13.1681217]},"properties":{"amenity":"marketplace","name":"Marché de Rikiba"}},
{"type":"Feature","geometry":{"type":"Point","coordinates":[-2.1925195,13.2303019]},"properties":{"amenity":"marketplace","name":"Marché de Kindinbo"}},
{"type":"Feature","geometry":{"type":"Point","coordinates":[-2.1425754,13.2756759]},"properties":{"amenity":"marketplace","name":"Marché de Roba"}},
{"type":"Feature","geometry":{"type":"Point","coordinates":[-1.634417,12.1808162]},"properties":{"name":"marché de Komsilga","name:fr":"marché de Komsilga","shop":"supermarket"}},
{"type":"Feature","geometry":{"type":"Point","coordinates":[-1.9191156,12.0882451]},"properties":{"amenity":"marketplace","name":"Marché de Doundouni"}},
{"type":"Feature","geometry":{"type":"Point","coordinates":[-1.5671196,12.0981095]},"properties":{"amenity":"marketplace","name":"marché de sambusin","name:fr":"marché de sambusin"}},
{"type":"Feature","geometry":{"type":"Point","coordinates":[-2.3959476,13.109762]},"properties":{"amenity":"marketplace","fixme":"emplacement approximatif","name":"Marché de Kogola"}},
{"type":"Feature","geometry":{"type":"Point","coordinates":[-1.9551748,12.9348403]},"properties":{"amenity":"marketplace","name":"Marché de Boulkon"}},
{"type":"Feature","geometry":{"type":"Point","coordinates":[-2.0572758,12.7246427]},"properties":{"amenity":"marketplace","name":"Marché de Kaba"}},
{"type":"Feature","geometry":{"type":"Point","coordinates":[-1.3785535,11.36899]},"properties":{"amenity":"marketplace","name":"Marché de Guiaro"}},
{"type":"Feature","geometry":{"type":"Point","coordinates":[-1.4403355,11.3899851]},"properties":{"amenity":"marketplace","name":"Marché de Boala"}},
{"type":"Feature","geometry":{"type":"Point","coordinates":[-1.4524537,11.297955]},"properties":{"amenity":"marketplace","name":"Marché de Koumbili"}},
{"type":"Feature","geometry":{"type":"Point","coordinates":[-1.4295423,11.4328356]},"properties":{"amenity":"marketplace","name":"Marché de Koro"}},
{"type":"Feature","geometry":{"type":"Point","coordinates":[-1.5674347,11.3726859]},"properties":{"amenity":"marketplace","name":"Marché de Poré"}},
{"type":"Feature","geometry":{"type":"Point","coordinates":[-0.8063203,13.6486194]},"properties":{"amenity":"marketplace","name":"Marché de Pensa"}},
{"type":"Feature","geometry":{"type":"Point","coordinates":[-0.7475638,13.0228039]},"properties":{"amenity":"marketplace","name":"Marché d'Issaogo"}},
{"type":"Feature","geometry":{"type":"Point","coordinates":[-0.6855847,13.046037]},"properties":{"amenity":"marketplace","name":"Marché de Tébéré"}},
{"type":"Feature","geometry":{"type":"Point","coordinates":[-0.8167595,12.9922626]},"properties":{"amenity":"marketplace","name":"Marché de Kaoghin-Sanrgo"}},
{"type":"Feature","geometry":{"type":"Point","coordinates":[-0.8234274,13.0403354]},"properties":{"amenity":"marketplace","name":"Marché"}},
{"type":"Feature","geometry":{"type":"Point","coordinates":[-0.9573582,13.0670602]},"properties":{"amenity":"marketplace","name":"Marché de Komsilga"}},
{"type":"Feature","geometry":{"type":"Point","coordinates":[-0.9156713,13.092946]},"properties":{"amenity":"marketplace","name":"Marché de Toéghin"}},
{"type":"Feature","geometry":{"type":"Point","coordinates":[-0.8507887,13.0944521]},"properties":{"amenity":"marketplace","name":"Marché de Poulallé"}},
{"type":"Feature","geometry":{"type":"Point","coordinates":[-0.8124599,13.0813685]},"properties":{"amenity":"marketplace","name":"Marché de Tibtenga"}},
{"type":"Feature","geometry":{"type":"Point","coordinates":[-0.8286604,13.1638307]},"properties":{"amenity":"marketplace","name":"Marché de Pissila"}},
{"type":"Feature","geometry":{"type":"Point","coordinates":[-0.7335225,13.2403215]},"properties":{"amenity":"marketplace","name":"Marché de Ouanobian"}},
{"type":"Feature","geometry":{"type":"Point","coordinates":[-0.93834,13.1908554]},"properties":{"amenity":"marketplace","name":"Marché de Noaka"}},
{"type":"Feature","geometry":{"type":"Point","coordinates":[-0.9389354,13.273124]},"properties":{"amenity":"marketplace","name":"Marché de Roffenéga"}},
{"type":"Feature","geometry":{"type":"Point","coordinates":[-0.9450871,13.3385815]},"properties":{"amenity":"marketplace","name":"Marché de Dibilou"}},
{"type":"Feature","geometry":{"type":"Point","coordinates":[-0.7833874,13.3705135]},"properties":{"amenity":"marketplace","name":"Marché de Ouintokoulga"}},
{"type":"Feature","geometry":{"type":"Point","coordinates":[-0.7186067,13.3283872]},"properties":{"amenity":"marketplace","name":"Marché de Guibga"}},
{"type":"Feature","geometry":{"type":"Point","coordinates":[-0.9158322,13.1680538]},"properties":{"amenity":"marketplace","name":"Marché de Koalma"}},
{"type":"Feature","geometry":{"type":"Point","coordinates":[-0.8390607,13.3017641]},"properties":{"amenity":"marketplace","name":"Marché de Talwéoghin"}},
{"type":"Feature","geometry":{"type":"Point","coordinates":[-0.7316771,13.1366724]},"properties":{"amenity":"marketplace","name":"Marché de Tambdogo"}},
{"type":"Feature","geometry":{"type":"Point","coordinates":[-1.0519879,13.412099]},"properties":{"amenity":"marketplace","name":"Marché de Barsalogho"}},
{"type":"Feature","geometry":{"type":"Point","coordinates":[-1.0331373,13.2429963]},"properties":{"amenity":"marketplace","name":"Marché de Gabou"}},
{"type":"Feature","geometry":{"type":"Point","coordinates":[-1.0916135,13.2501696]},"properties":{"amenity":"marketplace","name":"Marché de Basma"}},
{"type":"Feature","geometry":{"type":"Point","coordinates":[-1.1409366,13.3322473]},"properties":{"amenity":"marketplace","name":"Marché de Sanaba"}},
{"type":"Feature","geometry":{"type":"Point","coordinates":[-1.2288487,13.4267536]},"properties":{"amenity":"marketplace","name":"Marché de Zongo"}},
{"type":"Feature","geometry":{"type":"Point","coordinates":[-1.1577138,13.4778004]},"properties":{"amenity":"marketplace","name":"Marché de Nagraogo"}},
{"type":"Feature","geometry":{"type":"Point","coordinates":[-0.8844316,13.4703613]},"properties":{"amenity":"marketplace","name":"Marché de Yantéga"}},
{"type":"Feature","geometry":{"type":"Point","coordinates":[-0.9555826,13.6953487]},"properties":{"amenity":"marketplace","name":"Marché de Guiendbila"}},
{"type":"Feature","geometry":{"type":"Point","coordinates":[-0.8566225,13.456471]},"properties":{"amenity":"marketplace","name":"Marché de Goénega"}},
{"type":"Feature","geometry":{"type":"Point","coordinates":[-0.7812591,13.4477074]},"properties":{"amenity":"marketplace","name":"Marché de Tankienga"}},
{"type":"Feature","geometry":{"type":"Point","coordinates":[-1.1761728,13.7145798]},"properties":{"amenity":"marketplace","name":"Marché de Dablo"}},
{"type":"Feature","geometry":{"type":"Point","coordinates":[-1.004844,13.7215696]},"properties":{"amenity":"marketplace","name":"Marché de Sagho"}},
{"type":"Feature","geometry":{"type":"Point","coordinates":[-1.0786021,13.7142671]},"properties":{"amenity":"marketplace","name":"Marché de Daké"}},
{"type":"Feature","geometry":{"type":"Point","coordinates":[-0.7485884,13.7533708]},"properties":{"amenity":"marketplace","name":"Marché d'Ankouna"}},
{"type":"Feature","geometry":{"type":"Point","coordinates":[-0.1489954,11.9708027]},"properties":{"amenity":"marketplace","name":"Marché de Téyogodin"}},
{"type":"Feature","geometry":{"type":"Point","coordinates":[-0.1807004,12.0165357]},"properties":{"amenity":"marketplace","name":"Yaar de Lézotenga"}},
{"type":"Feature","geometry":{"type":"Point","coordinates":[-0.1591945,12.0582044]},"properties":{"amenity":"marketplace","name":"Marché de Lézotenga"}},
{"type":"Feature","geometry":{"type":"Point","coordinates":[-0.1380888,12.101551]},"properties":{"amenity":"marketplace","name":"Yaar de Oueffin"}},
{"type":"Feature","geometry":{"type":"Point","coordinates":[-0.1321283,12.0783747]},"properties":{"amenity":"marketplace","name":"Marché de Pilorghin"}},
{"type":"Feature","geometry":{"type":"Point","coordinates":[-0.3265724,12.0080881]},"properties":{"amenity":"marketplace","name":"Marché de Koulwoko"}},
{"type":"Feature","geometry":{"type":"Point","coordinates":[-0.2853495,12.0102748]},"properties":{"amenity":"marketplace","name":"Marché de Gonsin"}},
{"type":"Feature","geometry":{"type":"Point","coordinates":[-0.2904055,12.0035166]},"properties":{"amenity":"marketplace","name":"Yaar de Dakonsin"}},
{"type":"Feature","geometry":{"type":"Point","coordinates":[-0.3049859,11.9164357]},"properties":{"amenity":"marketplace","name":"Yaar de Soumdi"}},
{"type":"Feature","geometry":{"type":"Point","coordinates":[-1.0661419,13.4227372]},"properties":{"amenity":"marketplace","name":"Marché à bétail de Barsalogho","shop":"butcher"}},
{"type":"Feature","geometry":{"type":"Point","coordinates":[-1.3612345,11.7828456]},"properties":{"amenity":"marketplace","name":"Marché de Binstigré"}},
{"type":"Feature","geometry":{"type":"Point","coordinates":[-1.3110477,11.7796002]},"properties":{"amenity":"marketplace","name":"Marché de Tambouè"}},
{"type":"Feature","geometry":{"type":"Point","coordinates":[-1.3380803,11.722649]},"properties":{"amenity":"marketplace","name":"Marché de Tamsé"}},
{"type":"Feature","geometry":{"type":"Point","coordinates":[-1.2276176,11.9356653]},"properties":{"amenity":"marketplace","name":"Marché de Bonsrima"}},
{"type":"Feature","geometry":{"type":"Point","coordinates":[-1.2875569,11.905388]},"properties":{"amenity":"marketplace","name":"Marché de Dagouma"}},
{"type":"Feature","geometry":{"type":"Point","coordinates":[-1.259682,11.9015811]},"properties":{"amenity":"marketplace","name":"Marché de Damzoussi"}},
{"type":"Feature","geometry":{"type":"Point","coordinates":[-1.2566713,11.8676803]},"properties":{"amenity":"marketplace","name":"Marché de Masgo"}},
{"type":"Feature","geometry":{"type":"Point","coordinates":[-1.3671166,11.8094373]},"properties":{"amenity":"marketplace","name":"Marché de Nagnesna"}},
{"type":"Feature","geometry":{"type":"Point","coordinates":[-1.2829784,11.8574077]},"properties":{"amenity":"marketplace","name":"Marché de Pawamtoré"}},
{"type":"Feature","geometry":{"type":"Point","coordinates":[-1.2216456,11.9087224]},"properties":{"amenity":"marketplace","name":"Marché de Sincéné"}},
{"type":"Feature","geometry":{"type":"Point","coordinates":[-1.320308,11.8723014]},"properties":{"amenity":"marketplace","name":"Marché de Toudou"}},
{"type":"Feature","geometry":{"type":"Point","coordinates":[-1.261687,11.8305109]},"properties":{"amenity":"marketplace","name":"Marché de Toécé"}},
{"type":"Feature","geometry":{"type":"Point","coordinates":[-1.2039819,11.8718696]},"properties":{"amenity":"marketplace","name":"Marché de Zangogho"}},
{"type":"Feature","geometry":{"type":"Point","coordinates":[-1.3953602,11.2992333]},"properties":{"amenity":"marketplace","name":"Marché de Boassan"}},
{"type":"Feature","geometry":{"type":"Point","coordinates":[-1.164178,12.0041698]},"properties":{"amenity":"marketplace","name":"Marché de Gaongo"}},
{"type":"Feature","geometry":{"type":"Point","coordinates":[-1.1975795,11.9628929]},"properties":{"amenity":"marketplace","name":"Marché de Douaba"}},
{"type":"Feature","geometry":{"type":"Point","coordinates":[-1.0953726,12.1706379]},"properties":{"amenity":"marketplace","name":"Marché de Nafbanga"}},
{"type":"Feature","geometry":{"type":"Point","coordinates":[-1.0416734,12.1263014]},"properties":{"amenity":"marketplace","name":"Marché de Nellaboumbou"}},
{"type":"Feature","geometry":{"type":"Point","coordinates":[-0.9944129,12.0431373]},"properties":{"amenity":"marketplace","name":"Marché de Wardogo"}},
{"type":"Feature","geometry":{"type":"Point","coordinates":[-1.1272895,12.0542174]},"properties":{"amenity":"marketplace","name":"Marché de Tanwoko"}},
{"type":"Feature","geometry":{"type":"Point","coordinates":[-0.9981881,11.2022604]},"properties":{"amenity":"marketplace","name":"Marché de Fanian"}},
{"type":"Feature","geometry":{"type":"Point","coordinates":[-1.0762404,11.2037799]},"properties":{"amenity":"marketplace","name":"Marché de Pounkouyan"}},
{"type":"Feature","geometry":{"type":"Point","coordinates":[-0.9648442,11.0953665]},"properties":{"amenity":"marketplace","name":"Marché de Tiébélé"}},
{"type":"Feature","geometry":{"type":"Point","coordinates":[-0.8830087,11.0784392]},"properties":{"amenity":"marketplace","name":"Marché de Douabié (Guénon)"}},
{"type":"Feature","geometry":{"type":"Point","coordinates":[-0.9274086,11.0385214]},"properties":{"amenity":"marketplace","name":"Marché de Compougoubié"}},
{"type":"Feature","geometry":{"type":"Point","coordinates":[-1.0272297,11.0586494]},"properties":{"amenity":"marketplace","name":"Marché de Kaya"}},
{"type":"Feature","geometry":{"type":"Point","coordinates":[-0.9723169,11.0232651]},"properties":{"amenity":"marketplace","name":"Marché de Tangassogo"}},
{"type":"Feature","geometry":{"type":"Point","coordinates":[-0.9210491,11.1042049]},"properties":{"amenity":"marketplace","name":"Marché de Lô-Moulnia"}},
{"type":"Feature","geometry":{"type":"Point","coordinates":[-0.7819659,11.0821835]},"properties":{"amenity":"marketplace","name":"Marché de Bonga"}},
{"type":"Feature","geometry":{"type":"Point","coordinates":[-0.7862252,11.0418805]},"properties":{"amenity":"marketplace","name":"Marché de Ziou"}},
{"type":"Feature","geometry":{"type":"Point","coordinates":[-0.862298,11.0054095]},"properties":{"amenity":"marketplace","name":"Marché de Guelwongo 1"}},
{"type":"Feature","geometry":{"type":"Point","coordinates":[-1.0762391,11.5438018]},"properties":{"amenity":"marketplace","name":"Marché de Kaleinga"}},
{"type":"Feature","geometry":{"type":"Point","coordinates":[-1.0863751,11.5666982]},"properties":{"amenity":"marketplace","name":"Marché de Ouétinga"}},
{"type":"Feature","geometry":{"type":"Point","coordinates":[-1.1189975,11.5950619]},"properties":{"amenity":"marketplace","name":"Marché de Sougou"}},
{"type":"Feature","geometry":{"type":"Point","coordinates":[-1.1515903,11.6028917]},"properties":{"amenity":"marketplace","name":"Marché de Dissomey"}},
{"type":"Feature","geometry":{"type":"Point","coordinates":[-1.1653957,11.6403572]},"properties":{"amenity":"marketplace","name":"Marché de Yakin"}},
{"type":"Feature","geometry":{"type":"Point","coordinates":[-1.1644126,11.6787882]},"properties":{"amenity":"marketplace","name":"Marché de Bilbalogo"}},
{"type":"Feature","geometry":{"type":"Point","coordinates":[-1.1527893,11.7228262]},"properties":{"amenity":"marketplace","name":"Marché de Passébtenga"}},
{"type":"Feature","geometry":{"type":"Point","coordinates":[-1.1893988,11.7344945]},"properties":{"amenity":"marketplace","name":"Marché d'Imasgo"}},
{"type":"Feature","geometry":{"type":"Point","coordinates":[-1.173555,11.7603477]},"properties":{"amenity":"marketplace","name":"Marché de Saonghin"}},
{"type":"Feature","geometry":{"type":"Point","coordinates":[-1.2000042,11.8004792]},"properties":{"amenity":"marketplace","name":"Marché de Guéré"}},
{"type":"Feature","geometry":{"type":"Point","coordinates":[-1.2307665,11.6554176]},"properties":{"amenity":"marketplace","name":"Marché de Bion"}},
{"type":"Feature","geometry":{"type":"Point","coordinates":[-1.2003985,11.555266]},"properties":{"amenity":"marketplace","name":"Marché de Nobéré"}},
{"type":"Feature","geometry":{"type":"Point","coordinates":[-1.2234306,11.6191509]},"properties":{"amenity":"marketplace","name":"Marché de Pissi 2"}},
{"type":"Feature","geometry":{"type":"Point","coordinates":[-1.2252277,11.623759]},"properties":{"amenity":"marketplace","name":"Marché de Pissi"}},
{"type":"Feature","geometry":{"type":"Point","coordinates":[-1.2367076,11.724704]},"properties":{"amenity":"marketplace","name":"Marché de Nobili"}},
{"type":"Feature","geometry":{"type":"Point","coordinates":[-1.2752831,11.7721903]},"properties":{"amenity":"marketplace","name":"Marché de Tampouy"}},
{"type":"Feature","geometry":{"type":"Point","coordinates":[-1.2771848,11.6778189]},"properties":{"amenity":"marketplace","name":"Marché de Kougricinsé"}},
{"type":"Feature","geometry":{"type":"Point","coordinates":[-1.2611854,11.6359884]},"properties":{"amenity":"marketplace","name":"Marché de Dakiécma"}},
{"type":"Feature","geometry":{"type":"Point","coordinates":[0.2308148,11.6209505]},"properties":{"amenity":"marketplace","name":"Yaar de Vohogdin"}},
{"type":"Feature","geometry":{"type":"Point","coordinates":[0.2087322,11.6209347]},"properties":{"amenity":"marketplace","name":"Yaar de Coéwinga"}},
{"type":"Feature","geometry":{"type":"Point","coordinates":[0.1701754,11.6279783]},"properties":{"amenity":"marketplace","name":"Marché de Zonghin"}},
{"type":"Feature","geometry":{"type":"Point","coordinates":[0.1389974,11.7061174]},"properties":{"amenity":"marketplace","name":"Marché de Komin-Yanga"}},
{"type":"Feature","geometry":{"type":"Point","coordinates":[0.1604873,11.6766658]},"properties":{"amenity":"marketplace","name":"Yaar de Lamiougou"}},
{"type":"Feature","geometry":{"type":"Point","coordinates":[0.0870457,11.7530975]},"properties":{"amenity":"marketplace","name":"Marché de Sakango"}},
{"type":"Feature","geometry":{"type":"Point","coordinates":[0.0708452,11.7923137]},"properties":{"amenity":"marketplace","name":"Marché de Kourgou-Kandaga"}},
{"type":"Feature","geometry":{"type":"Point","coordinates":[0.071733,11.6592818]},"properties":{"amenity":"marketplace","name":"Yaar de Kiougou-Douré"}},
{"type":"Feature","geometry":{"type":"Point","coordinates":[0.0627382,11.6917637]},"properties":{"amenity":"marketplace","name":"Yaar de Kisbouga"}},
{"type":"Feature","geometry":{"type":"Point","coordinates":[0.0585714,11.7063748]},"properties":{"amenity":"marketplace","name":"Marché de Sougoudi"}},
{"type":"Feature","geometry":{"type":"Point","coordinates":[0.1078489,11.5683537]},"properties":{"amenity":"marketplace","name":"Marché de Boussirabogo"}},
{"type":"Feature","geometry":{"type":"Point","coordinates":[0.1159747,11.5407665]},"properties":{"amenity":"marketplace","name":"Marché de Salembaoré"}},
{"type":"Feature","geometry":{"type":"Point","coordinates":[0.1414409,11.5010339]},"properties":{"amenity":"marketplace","name":"Marché de Yondé"}},
{"type":"Feature","geometry":{"type":"Point","coordinates":[0.124653,11.4573827]},"properties":{"amenity":"marketplace","name":"Yaar de Baoghin"}},
{"type":"Feature","geometry":{"type":"Point","coordinates":[0.2420989,11.3887441]},"properties":{"amenity":"marketplace","name":"Yaar de Yactibo"}},
{"type":"Feature","geometry":{"type":"Point","coordinates":[-0.1773262,12.4822474]},"properties":{"amenity":"marketplace","name":"Marché de Yassoumbaga"}},
{"type":"Feature","geometry":{"type":"Point","coordinates":[-0.0977773,12.4618356]},"properties":{"amenity":"marketplace","name":"Marché de Bilanga-Yanga"}},
{"type":"Feature","geometry":{"type":"Point","coordinates":[-0.0943199,12.2981533]},"properties":{"amenity":"marketplace","name":"Marché de Moaka"}},
{"type":"Feature","geometry":{"type":"Point","coordinates":[-0.0793988,12.3401171]},"properties":{"amenity":"marketplace","name":"Marché de Silguin"}},
{"type":"Feature","geometry":{"type":"Point","coordinates":[0.0401124,12.4192181]},"properties":{"amenity":"marketplace","name":"Marché de Tampédou"}},
{"type":"Feature","geometry":{"type":"Point","coordinates":[-0.0665295,12.5239093]},"properties":{"amenity":"marketplace","name":"Marché de Bilamperga"}},
{"type":"Feature","geometry":{"type":"Point","coordinates":[-0.0272164,12.5482133]},"properties":{"amenity":"marketplace","name":"Marché de Bilanga"}},
{"type":"Feature","geometry":{"type":"Point","coordinates":[0.0876063,12.6103225]},"properties":{"amenity":"marketplace","name":"Marché de Tobou"}},
{"type":"Feature","geometry":{"type":"Point","coordinates":[0.1530844,12.4193831]},"properties":{"amenity":"marketplace","name":"Marché de Botou"}},
{"type":"Feature","geometry":{"type":"Point","coordinates":[0.2568403,12.3485411]},"properties":{"amenity":"marketplace","name":"Marché de Diamdoari"}},
{"type":"Feature","geometry":{"type":"Point","coordinates":[0.2020186,12.7883974]},"properties":{"amenity":"marketplace","name":"Marché de Dipienga"}},
{"type":"Feature","geometry":{"type":"Point","coordinates":[0.1013553,12.5582157]},"properties":{"amenity":"marketplace","name":"Marché de Kabaré"}},
{"type":"Feature","geometry":{"type":"Point","coordinates":[-0.11563,12.5650042]},"properties":{"amenity":"marketplace","name":"Marché de Naniangou"}},
{"type":"Feature","geometry":{"type":"Point","coordinates":[0.1731795,12.426906]},"properties":{"amenity":"marketplace","name":"Marché d'Ougarou"}},
{"type":"Feature","geometry":{"type":"Point","coordinates":[0.0461501,12.5117754]},"properties":{"amenity":"marketplace","name":"Yaar de Sékouantou"}},
{"type":"Feature","geometry":{"type":"Point","coordinates":[-0.0037041,11.8908951]},"properties":{"amenity":"marketplace","name":"Marché de Sabtenga"}},
{"type":"Feature","geometry":{"type":"Point","coordinates":[-0.0866541,11.9606389]},"properties":{"amenity":"marketplace","name":"Marché de Séiga"}},
{"type":"Feature","geometry":{"type":"Point","coordinates":[-0.0280586,12.0142493]},"properties":{"amenity":"marketplace","name":"Marché de Diabo"}},
{"type":"Feature","geometry":{"type":"Point","coordinates":[-0.0069067,12.0766778]},"properties":{"amenity":"marketplace","name":"Yaar de Tangaye"}},
{"type":"Feature","geometry":{"type":"Point","coordinates":[-0.0947464,11.9276456]},"properties":{"amenity":"marketplace","name":"Yaar de Boulgatenga"}},
{"type":"Feature","geometry":{"type":"Point","coordinates":[0.1250419,12.014008]},"properties":{"amenity":"marketplace","name":"Marché de Fonghin"}},
{"type":"Feature","geometry":{"type":"Point","coordinates":[0.1679787,12.0387723]},"properties":{"amenity":"marketplace","name":"Marché de Louargou"}},
{"type":"Feature","geometry":{"type":"Point","coordinates":[0.1098016,12.1067392]},"properties":{"amenity":"marketplace","name":"Marché de Tilonti"}},
{"type":"Feature","geometry":{"type":"Point","coordinates":[0.184367,12.1163611]},"properties":{"amenity":"marketplace","name":"Marché de Diapangou"}},
{"type":"Feature","geometry":{"type":"Point","coordinates":[0.1922473,12.215718]},"properties":{"amenity":"marketplace","name":"Marché de Balga"}},
{"type":"Feature","geometry":{"type":"Point","coordinates":[0.1747271,12.2503193]},"properties":{"amenity":"marketplace","name":"Yaar de Doaligou"}},
{"type":"Feature","geometry":{"type":"Point","coordinates":[0.3986795,11.9285917]},"properties":{"amenity":"marketplace","name":"Marché de Kikidéni"}},
{"type":"Feature","geometry":{"type":"Point","coordinates":[0.5072285,11.874127]},"properties":{"amenity":"marketplace","name":"Marché de Boungou"}},
{"type":"Feature","geometry":{"type":"Point","coordinates":[0.4437742,11.7933823]},"properties":{"amenity":"marketplace","name":"Marché de Nagaré"}},
{"type":"Feature","geometry":{"type":"Point","coordinates":[0.5059317,11.7026558]},"properties":{"amenity":"marketplace","name":"Marché de Natiaboani"}},
{"type":"Feature","geometry":{"type":"Point","coordinates":[0.3223023,12.1436018]},"properties":{"amenity":"marketplace","name":"Marché de Komandougou"}},
{"type":"Feature","geometry":{"type":"Point","coordinates":[0.6087273,12.0235887]},"properties":{"amenity":"marketplace","name":"Marché de Namoungou"}},
{"type":"Feature","geometry":{"type":"Point","coordinates":[0.7809319,12.0553374]},"properties":{"amenity":"marketplace","name":"Marché de Tanwalbougou"}},
{"type":"Feature","geometry":{"type":"Point","coordinates":[0.5254877,11.9549212]},"properties":{"amenity":"marketplace","name":"Marché de Kodjonti"}},
{"type":"Feature","geometry":{"type":"Point","coordinates":[0.2978486,11.9436376]},"properties":{"amenity":"marketplace","name":"Marché de Kouaré"}},
{"type":"Feature","geometry":{"type":"Point","coordinates":[0.2900434,12.1731942]},"properties":{"amenity":"marketplace","name":"Yaar de Komangou"}},
{"type":"Feature","geometry":{"type":"Point","coordinates":[0.1297049,12.3162011]},"properties":{"amenity":"marketplace","name":"Marché de Nagbangou"}},
{"type":"Feature","geometry":{"type":"Point","coordinates":[0.0613743,12.3097678]},"properties":{"amenity":"marketplace","name":"Marché de Dianga"}},
{"type":"Feature","geometry":{"type":"Point","coordinates":[-0.0211492,12.2036458]},"properties":{"amenity":"marketplace","name":"Marché de Kalkouri"}},
{"type":"Feature","geometry":{"type":"Point","coordinates":[0.0619537,12.1664139]},"properties":{"amenity":"marketplace","name":"Marché de Tibga"}},
{"type":"Feature","geometry":{"type":"Point","coordinates":[-0.0157714,12.1653153]},"properties":{"amenity":"marketplace","name":"Marché de Modré"}},
{"type":"Feature","geometry":{"type":"Point","coordinates":[0.1154235,12.2448554]},"properties":{"amenity":"marketplace","name":"Yaar de Guilyendé"}},
{"type":"Feature","geometry":{"type":"Point","coordinates":[0.2484745,12.2656682]},"properties":{"amenity":"marketplace","name":"Marché de Nayouri"}},
{"type":"Feature","geometry":{"type":"Point","coordinates":[0.332036,12.192766]},"properties":{"amenity":"marketplace","name":"Marché de Tandyari"}},
{"type":"Feature","geometry":{"type":"Point","coordinates":[0.3343025,12.2984101]},"properties":{"amenity":"marketplace","name":"Marché de Yamba"}},
{"type":"Feature","geometry":{"type":"Point","coordinates":[-4.6850118,11.0772389]},"properties":{"amenity":"marketplace","name":"Marché de Badara"}},
{"type":"Feature","geometry":{"type":"Point","coordinates":[-3.9370993,10.8796653]},"properties":{"amenity":"marketplace","name":"Marché de Karangasso-Vigué"}},
{"type":"Feature","geometry":{"type":"Point","coordinates":[-4.0460989,11.0129421]},"properties":{"amenity":"marketplace","name":"Marché de Soumousso"}},
{"type":"Feature","geometry":{"type":"Point","coordinates":[-4.0982611,10.9662257]},"properties":{"amenity":"marketplace","name":"Marché de Yéguéré"}},
{"type":"Feature","geometry":{"type":"Point","coordinates":[-4.0586141,10.9158727]},"properties":{"amenity":"marketplace","name":"Marché de Wara"}},
{"type":"Feature","geometry":{"type":"Point","coordinates":[-3.9857063,10.9451446]},"properties":{"amenity":"marketplace","name":"Yaar de Klesso"}},
{"type":"Feature","geometry":{"type":"Point","coordinates":[-3.9343715,10.9296017]},"properties":{"amenity":"marketplace","name":"Marché de Kourémaganfaso"}},
{"type":"Feature","geometry":{"type":"Point","coordinates":[-4.0073302,11.0572253]},"properties":{"amenity":"marketplace","name":"Marché de Larama"}},
{"type":"Feature","geometry":{"type":"Point","coordinates":[-3.9351761,11.0908235]},"properties":{"amenity":"marketplace","name":"Marché de Déguélé"}},
{"type":"Feature","geometry":{"type":"Point","coordinates":[-3.8357627,11.1230494]},"properties":{"amenity":"marketplace","name":"Marché de Poya-Obaga"}},
{"type":"Feature","geometry":{"type":"Point","coordinates":[-3.791855,11.0729614]},"properties":{"amenity":"marketplace","name":"Marché de Poya"}},
{"type":"Feature","geometry":{"type":"Point","coordinates":[-3.8204151,11.0051831]},"properties":{"amenity":"marketplace","name":"Yaar de Ouéré"}},
{"type":"Feature","geometry":{"type":"Point","coordinates":[-3.779376,10.9274369]},"properties":{"amenity":"marketplace","name":"Marché de Dan"}},
{"type":"Feature","geometry":{"type":"Point","coordinates":[-3.8916358,10.7735438]},"properties":{"amenity":"marketplace","name":"Marché de Diosso"}},
{"type":"Feature","geometry":{"type":"Point","coordinates":[-3.8819611,10.8225785]},"properties":{"amenity":"marketplace","name":"Marché"}},
{"type":"Feature","geometry":{"type":"Point","coordinates":[-3.6962986,11.2356512]},"properties":{"amenity":"marketplace","name":"Marché de Koumbia"}},
{"type":"Feature","geometry":{"type":"Point","coordinates":[-3.5077152,11.310785]},"properties":{"amenity":"marketplace","name":"Marché de Bonsé"}},
{"type":"Feature","geometry":{"type":"Point","coordinates":[-3.5550642,11.1849143]},"properties":{"amenity":"marketplace","name":"Marché de Gombélédougou"}},
{"type":"Feature","geometry":{"type":"Point","coordinates":[-3.8254684,11.2042153]},"properties":{"amenity":"marketplace","name":"Marché de Makoniadougou"}},
{"type":"Feature","geometry":{"type":"Point","coordinates":[-1.9659586,13.6791938]},"properties":{"amenity":"marketplace","name":"Marché de Ouindigui"}},
{"type":"Feature","geometry":{"type":"Point","coordinates":[-1.8411783,13.7540964]},"properties":{"amenity":"marketplace","name":"Marché de Hitté Tanvoussé"}},
{"type":"Feature","geometry":{"type":"Point","coordinates":[-1.8528231,13.7493508]},"properties":{"amenity":"marketplace","name":"Marché de Hitté"}},
{"type":"Feature","geometry":{"type":"Point","coordinates":[-1.8281038,13.7155712]},"properties":{"amenity":"marketplace","name":"Marché de Kobo"}},
{"type":"Feature","geometry":{"type":"Point","coordinates":[-1.8851598,13.6766737]},"properties":{"amenity":"marketplace","name":"Marché de Rounga"}},
{"type":"Feature","geometry":{"type":"Point","coordinates":[-1.0946887,11.1864993]},"properties":{"name":"Mini Market de banon","payment:cfa":"yes","shop":"supermarket"}},
{"type":"Feature","geometry":{"type":"Point","coordinates":[-2.0478344,12.8529622]},"properties":{"amenity":"marketplace","name":"Marché de Mia"}},
{"type":"Feature","geometry":{"type":"Point","coordinates":[-2.0637989,12.7698437]},"properties":{"amenity":"marketplace","name":"Marché de Bingo"}},
{"type":"Feature","geometry":{"type":"Point","coordinates":[-1.9999355,12.7256631]},"properties":{"amenity":"marketplace","name":"Marché de Koro"}},
{"type":"Feature","geometry":{"type":"Point","coordinates":[-2.0068999,12.7819405]},"properties":{"amenity":"marketplace","name":"Marché de Boura"}},
{"type":"Feature","geometry":{"type":"Point","coordinates":[-2.0622312,12.7904336]},"properties":{"amenity":"marketplace","name":"Yaar de Fallou"}},
{"type":"Feature","geometry":{"type":"Point","coordinates":[-2.1051881,12.865123]},"properties":{"amenity":"marketplace","name":"Marché de Zongbèga"}},
{"type":"Feature","geometry":{"type":"Point","coordinates":[-2.6038483,12.9153981]},"properties":{"amenity":"marketplace","name":"Marché de Bagaré"}},
{"type":"Feature","geometry":{"type":"Point","coordinates":[-2.6954524,12.8292064]},"properties":{"amenity":"marketplace","name":"Marché de Kénéma"}},
{"type":"Feature","geometry":{"type":"Point","coordinates":[-2.6706487,12.8361969]},"properties":{"amenity":"marketplace","name":"Marché de Kiendembaye"}},
{"type":"Feature","geometry":{"type":"Point","coordinates":[-2.6252657,12.7890408]},"properties":{"amenity":"marketplace","name":"Marché de Zougo"}},
{"type":"Feature","geometry":{"type":"Point","coordinates":[-2.5987789,12.8562937]},"properties":{"amenity":"marketplace","name":"Marché de Souri"}},
{"type":"Feature","geometry":{"type":"Point","coordinates":[-2.532759,12.9000645]},"properties":{"amenity":"marketplace","name":"Marché de Bibiou"}},
{"type":"Feature","geometry":{"type":"Point","coordinates":[-2.7219003,12.8547274]},"properties":{"amenity":"marketplace","name":"Marché de Gorpouly"}},
{"type":"Feature","geometry":{"type":"Point","coordinates":[-2.5725254,12.8823231]},"properties":{"amenity":"marketplace","name":"Yaar de Korro"}},
{"type":"Feature","geometry":{"type":"Point","coordinates":[-2.1830365,13.0423841]},"properties":{"amenity":"marketplace","name":"Marché de Kouni"}},
{"type":"Feature","geometry":{"type":"Point","coordinates":[-2.2085711,13.0146349]},"properties":{"amenity":"marketplace","name":"Marché de Zembélé"}},
{"type":"Feature","geometry":{"type":"Point","coordinates":[-2.1526015,12.9808033]},"properties":{"amenity":"marketplace","name":"Marché de Pougyango"}},
{"type":"Feature","geometry":{"type":"Point","coordinates":[-1.9964111,12.9637119]},"properties":{"amenity":"marketplace","name":"Marché de Kapon"}},
{"type":"Feature","geometry":{"type":"Point","coordinates":[-1.9357637,13.0381562]},"properties":{"amenity":"marketplace","name":"Marché de Kirsi"}},
{"type":"Feature","geometry":{"type":"Point","coordinates":[-1.9963668,13.0105907]},"properties":{"amenity":"marketplace","name":"Yaar de Tampouy"}},
{"type":"Feature","geometry":{"type":"Point","coordinates":[-2.4084353,13.5488849]},"properties":{"name":"Boulangerie Wend Konta","opening_hours":"Mo-Sa 08:00-18:00","shop":"bakery"}},
{"type":"Feature","geometry":{"type":"Point","coordinates":[-1.9168487,13.0001802]},"properties":{"amenity":"marketplace","name":"Marché de Koussago"}},
{"type":"Feature","geometry":{"type":"Point","coordinates":[-2.4583492,12.8996775]},"properties":{"amenity":"marketplace","name":"Marché de Lâ-Todin"}},
{"type":"Feature","geometry":{"type":"Point","coordinates":[-2.4662121,12.900756]},"properties":{"name":"Marché à bétail de Lâ-Todin","shop":"butcher"}},
{"type":"Feature","geometry":{"type":"Point","coordinates":[-2.5113255,12.8790717]},"properties":{"amenity":"marketplace","name":"Yaar de Gogho"}},
{"type":"Feature","geometry":{"type":"Point","coordinates":[-2.5181651,12.845763]},"properties":{"amenity":"marketplace","name":"Yaar de Kalamtogo"}},
{"type":"Feature","geometry":{"type":"Point","coordinates":[-2.452286,12.8441194]},"properties":{"amenity":"marketplace","name":"Marché de Baribsi"}},
{"type":"Feature","geometry":{"type":"Point","coordinates":[-2.4713378,12.7831162]},"properties":{"amenity":"marketplace","name":"Marché de Kingria"}},
{"type":"Feature","geometry":{"type":"Point","coordinates":[-2.3978372,12.81741]},"properties":{"amenity":"marketplace","name":"Marché de Kollo"}},
{"type":"Feature","geometry":{"type":"Point","coordinates":[-2.4147874,12.8003324]},"properties":{"amenity":"marketplace","name":"Marché de Minissia"}},
{"type":"Feature","geometry":{"type":"Point","coordinates":[-2.4173972,12.8794848]},"properties":{"amenity":"marketplace","name":"Marché de Loungo"}},
{"type":"Feature","geometry":{"type":"Point","coordinates":[-2.3753254,12.8330312]},"properties":{"amenity":"marketplace","name":"Marché de Bissiga"}},
{"type":"Feature","geometry":{"type":"Point","coordinates":[-2.3828986,12.6683775]},"properties":{"amenity":"marketplace","name":"Marché de Samba"}},
{"type":"Feature","geometry":{"type":"Point","coordinates":[-2.42535,12.6484463]},"properties":{"amenity":"marketplace","name":"Marché de Thébo"}},
{"type":"Feature","geometry":{"type":"Point","coordinates":[-2.3808709,12.737915]},"properties":{"amenity":"marketplace","name":"Marché de Toessin"}},
{"type":"Feature","geometry":{"type":"Point","coordinates":[-2.3402649,12.7623413]},"properties":{"amenity":"marketplace","name":"Yaar de Basbédo"}},
{"type":"Feature","geometry":{"type":"Point","coordinates":[-2.5210699,12.7230415]},"properties":{"amenity":"marketplace","name":"Marché de Bastioua"}},
{"type":"Feature","geometry":{"type":"Point","coordinates":[-2.3204836,12.7288471]},"properties":{"amenity":"marketplace","name":"Marché de Bouré"}},
{"type":"Feature","geometry":{"type":"Point","coordinates":[-2.3179302,12.7214128]},"properties":{"amenity":"marketplace","name":"Marché de Koussana"}},
{"type":"Feature","geometry":{"type":"Point","coordinates":[-2.2956759,12.7319997]},"properties":{"amenity":"marketplace","name":"Marché de Pella"}},
{"type":"Feature","geometry":{"type":"Point","coordinates":[-1.9432765,13.2398985]},"properties":{"amenity":"marketplace","name":"Marché de Rondo"}},
{"type":"Feature","geometry":{"type":"Point","coordinates":[-1.9120717,13.1814697]},"properties":{"amenity":"marketplace","name":"Marché de Goungré"}},
{"type":"Feature","geometry":{"type":"Point","coordinates":[-1.9826514,13.1755597]},"properties":{"amenity":"marketplace","name":"Marché de Kalsaka"}},
{"type":"Feature","geometry":{"type":"Point","coordinates":[-1.9773104,13.1851584]},"properties":{"name":"Marché à bétail de Kalsaka","shop":"butcher"}},
{"type":"Feature","geometry":{"type":"Point","coordinates":[-2.0588207,13.2404781]},"properties":{"amenity":"marketplace","name":"Marché de Barma-Mossi"}},
{"type":"Feature","geometry":{"type":"Point","coordinates":[-2.07445,13.1798923]},"properties":{"amenity":"marketplace","name":"Marché de Rima-Mossi"}},
{"type":"Feature","geometry":{"type":"Point","coordinates":[-2.0412388,13.1142917]},"properties":{"amenity":"marketplace","name":"Yaar de Béma-Silmi-Mossi"}},
{"type":"Feature","geometry":{"type":"Point","coordinates":[-2.0345923,13.090741]},"properties":{"amenity":"marketplace","name":"Marché de Béma-Mossi"}},
{"type":"Feature","geometry":{"type":"Point","coordinates":[-1.9564247,13.0909213]},"properties":{"amenity":"marketplace","name":"Marché de Rondoma Silmi-Mossi"}},
{"type":"Feature","geometry":{"type":"Point","coordinates":[-1.8963084,13.3721601]},"properties":{"amenity":"marketplace","name":"Marché de Kossouka"}},
{"type":"Feature","geometry":{"type":"Point","coordinates":[-1.9405487,13.332062]},"properties":{"amenity":"marketplace","name":"Marché de Bissiguin"}},
{"type":"Feature","geometry":{"type":"Point","coordinates":[-1.9562691,13.3549956]},"properties":{"amenity":"marketplace","name":"Marché de Kiébléga"}},
{"type":"Feature","geometry":{"type":"Point","coordinates":[-1.9127101,13.5079379]},"properties":{"amenity":"marketplace","name":"Marché de Téonsogo"}},
{"type":"Feature","geometry":{"type":"Point","coordinates":[-2.0025802,13.3267194]},"properties":{"amenity":"marketplace","name":"Marché de Gambo"}},
{"type":"Feature","geometry":{"type":"Point","coordinates":[-2.0731008,13.3041838]},"properties":{"amenity":"marketplace","name":"Yaar de Koukabako-Yarcé"}},
{"type":"Feature","geometry":{"type":"Point","coordinates":[-1.8833748,13.4586857]},"properties":{"amenity":"marketplace","name":"Marché de Zomkalga-Marancé"}},
{"type":"Feature","geometry":{"type":"Point","coordinates":[-2.4764889,13.1653403]},"properties":{"amenity":"marketplace","name":"Marché de Tarba"}},
{"type":"Feature","geometry":{"type":"Point","coordinates":[-2.5650796,13.1064077]},"properties":{"amenity":"marketplace","name":"Yaar de Kourbo"}},
{"type":"Feature","geometry":{"type":"Point","coordinates":[-2.4339545,13.1698794]},"properties":{"amenity":"marketplace","name":"Yaar de Kasséba-Samo"}},
{"type":"Feature","geometry":{"type":"Point","coordinates":[-2.2484422,13.2148246]},"properties":{"amenity":"marketplace","name":"Yaar de Kibilo"}},
{"type":"Feature","geometry":{"type":"Point","coordinates":[0.5153918,12.2877556]},"properties":{"amenity":"marketplace","name":"Marché de Bogolé"}},
{"type":"Feature","geometry":{"type":"Point","coordinates":[-0.0681335,11.9396384]},"properties":{"amenity":"marketplace","name":"Marché de Zonatenga"}},
{"type":"Feature","geometry":{"type":"Point","coordinates":[-0.1432219,12.5927532]},"properties":{"amenity":"marketplace","name":"Marché de Moadéga"}},
{"type":"Feature","geometry":{"type":"Point","coordinates":[-0.1626867,12.4811998]},"properties":{"amenity":"marketplace","name":"Marché de Tiguili"}},
{"type":"Feature","geometry":{"type":"Point","coordinates":[-1.4721841,11.3731566]},"properties":{"amenity":"marketplace","name":"Marché de Nakola"}},
{"type":"Feature","geometry":{"type":"Point","coordinates":[-1.5927587,12.2092036]},"properties":{"amenity":"marketplace","name":"Marché de Vagogho"}},
{"type":"Feature","geometry":{"type":"Point","coordinates":[-0.944564,13.4188185]},"properties":{"amenity":"marketplace","name":"Marché de Paira"}},
{"type":"Feature","geometry":{"type":"Point","coordinates":[-0.9569907,13.0379968]},"properties":{"amenity":"marketplace","name":"Yaar de Lébda"}},
{"type":"Feature","geometry":{"type":"Point","coordinates":[-1.163502,13.2588791]},"properties":{"amenity":"marketplace","name":"Marché de Toyendé"}},
{"type":"Feature","geometry":{"type":"Point","coordinates":[-1.2462898,13.3758708]},"properties":{"amenity":"marketplace","name":"Marché de Toecé"}},
{"type":"Feature","geometry":{"type":"Point","coordinates":[-1.1066151,13.2578662]},"properties":{"amenity":"marketplace","name":"Marché de Tamassogo"}},
{"type":"Feature","geometry":{"type":"Point","coordinates":[-1.30225,12.5091778]},"properties":{"amenity":"marketplace","name":"Marché de Samandin-Bilbalgo"}},
{"type":"Feature","geometry":{"type":"Point","coordinates":[-1.3184559,12.4766941]},"properties":{"amenity":"marketplace","name":"Marché"}},
{"type":"Feature","geometry":{"type":"Point","coordinates":[-1.3736545,11.7693242]},"properties":{"amenity":"marketplace","name":"Marché de Koumasgho"}},
{"type":"Feature","geometry":{"type":"Point","coordinates":[-2.0870456,13.0691451]},"properties":{"amenity":"marketplace","name":"Yaar de Gouansé"}},
{"type":"Feature","geometry":{"type":"Point","coordinates":[-1.8938354,13.1326186]},"properties":{"amenity":"marketplace","name":"Marché Gombré Silmi-Mossi"}},
{"type":"Feature","geometry":{"type":"Point","coordinates":[-2.0077072,13.6192596]},"properties":{"amenity":"marketplace","name":"Yaar de Koumna-Koudgo"}},
{"type":"Feature","geometry":{"type":"Point","coordinates":[-0.0066385,11.120257]},"properties":{"description":"Boulangerie pâtisserie","name":"Boulangerie pâtisserie Naaba Boulga","shop":"bakery","source":"Note 1370564"}},
{"type":"Feature","geometry":{"type":"Point","coordinates":[0.0003447,11.1190884]},"properties":{"name":"Boulangerie Wend Konta","operator":"Boulangeries Wend Konta","shop":"bakery","source":"Note 1370549"}},
{"type":"Feature","geometry":{"type":"Point","coordinates":[-0.7638891,13.2410656]},"properties":{"amenity":"marketplace","name":"Marché de Firka"}},
{"type":"Feature","geometry":{"type":"Point","coordinates":[-0.8915341,13.2447861]},"properties":{"amenity":"marketplace","name":"Marché d'Ipala"}},
{"type":"Feature","geometry":{"type":"Point","coordinates":[-0.8494918,13.1602082]},"properties":{"name":"Marché à bétail de Pissila","shop":"butcher"}},
{"type":"Feature","geometry":{"type":"Point","coordinates":[-4.9231209,10.2719755]},"properties":{"name":"Boulangerie Ney","shop":"bakery","source":"Note 1370631"}},
{"type":"Feature","geometry":{"type":"Point","coordinates":[-4.9143326,10.2834618]},"properties":{"name":"Boulangerie Wend Konta","operator":"Boulangeries Wend Konta","shop":"bakery","source":"Note 1370639"}},
{"type":"Feature","geometry":{"type":"Point","coordinates":[-1.1163823,13.2898846]},"properties":{"amenity":"marketplace","name":"Marché de Zimsa"}},
{"type":"Feature","geometry":{"type":"Point","coordinates":[-1.0849401,13.2758338]},"properties":{"amenity":"marketplace","name":"Yaar de Kamsé"}},
{"type":"Feature","geometry":{"type":"Point","coordinates":[-2.6312645,13.0979972]},"properties":{"amenity":"marketplace","name":"Yaar de Posso"}},
{"type":"Feature","geometry":{"type":"Point","coordinates":[-2.0784518,12.9201196]},"properties":{"amenity":"marketplace","name":"Yaar de Namassa"}},
{"type":"Feature","geometry":{"type":"Point","coordinates":[-1.3014051,12.4682652]},"properties":{"amenity":"marketplace","name":"Marché de Badnogo 1"}},
{"type":"Feature","geometry":{"type":"Point","coordinates":[-1.1388914,11.1688934]},"properties":{"amenity":"marketplace","name":"Marché Zabré Daaga","source":"Note 1355214"}},
{"type":"Feature","geometry":{"type":"Point","coordinates":[-1.4376868,12.4466435]},"properties":{"amenity":"marketplace","name":"Marché"}},
{"type":"Feature","geometry":{"type":"Point","coordinates":[-1.3592872,12.4396712]},"properties":{"amenity":"marketplace","name":"Marché du Péage RN4"}},
{"type":"Feature","geometry":{"type":"Point","coordinates":[-1.4341544,12.3952608]},"properties":{"amenity":"marketplace","name":"Marché à dolo"}},
{"type":"Feature","geometry":{"type":"Point","coordinates":[-1.4372979,12.3803007]},"properties":{"amenity":"marketplace","name":"Marcké"}},
{"type":"Feature","geometry":{"type":"Point","coordinates":[-1.3594361,12.4256133]},"properties":{"amenity":"marketplace","name":"Marché"}},
{"type":"Feature","geometry":{"type":"Point","coordinates":[-1.4171344,12.3716249]},"properties":{"amenity":"marketplace","name":"Marché de Saaba"}},
{"type":"Feature","geometry":{"type":"Point","coordinates":[-1.9657749,13.7446233]},"properties":{"amenity":"marketplace","name":"Yaar de Toolo"}},
{"type":"Feature","geometry":{"type":"Point","coordinates":[-2.0764361,13.6023983]},"properties":{"amenity":"marketplace","name":"Yaar de Koumna"}},
{"type":"Feature","geometry":{"type":"Point","coordinates":[-3.4188429,11.2214313]},"properties":{"amenity":"marketplace","name":"Marché de Man"}},
{"type":"Feature","geometry":{"type":"Point","coordinates":[0.261097,12.2394387]},"properties":{"amenity":"marketplace","name":"Marché de Kondouagou"}},
{"type":"Feature","geometry":{"type":"Point","coordinates":[0.2962875,12.2808511]},"properties":{"amenity":"marketplace","name":"Yaar de Koulga"}},
{"type":"Feature","geometry":{"type":"Point","coordinates":[-0.0575696,12.2335304]},"properties":{"amenity":"marketplace","name":"Marché de Bandaokanré"}},
{"type":"Feature","geometry":{"type":"Point","coordinates":[-0.0510143,12.0558555]},"properties":{"amenity":"marketplace","name":"Marché de Zanré"}},
{"type":"Feature","geometry":{"type":"Point","coordinates":[-0.0079782,11.9444563]},"properties":{"amenity":"marketplace","name":"Yaar de Lorgho"}},
{"type":"Feature","geometry":{"type":"Point","coordinates":[-0.0618263,11.8952756]},"properties":{"amenity":"marketplace","name":"Marché de Yanwéga"}},
{"type":"Feature","geometry":{"type":"Point","coordinates":[0.0481001,11.9945793]},"properties":{"amenity":"marketplace","name":"Yaar de Zinknabbin"}},
{"type":"Feature","geometry":{"type":"Point","coordinates":[-1.065124,11.1075001]},"properties":{"amenity":"marketplace","name":"Marché de Songo 2"}},
{"type":"Feature","geometry":{"type":"Point","coordinates":[-1.347928,11.7636275]},"properties":{"amenity":"marketplace","name":"Marché de Dayasmnoré"}},
{"type":"Feature","geometry":{"type":"Point","coordinates":[-0.8282796,13.512277600000001]},"properties":{"amenity":"marketplace","name":"Marché de Faka-Boulli"}},
{"type":"Feature","geometry":{"type":"Point","coordinates":[-1.4217076,12.3557765]},"properties":{"amenity":"marketplace","name":"Marché"}},
{"type":"Feature","geometry":{"type":"Point","coordinates":[-1.36518,12.3459209]},"properties":{"amenity":"marketplace","name":"Marché de Tanguen"}},
{"type":"Feature","geometry":{"type":"Point","coordinates":[-1.4726404,12.4176925]},"properties":{"name":"Alimentation Faso Market Kossodo","shop":"food"}},
{"type":"Feature","geometry":{"type":"Point","coordinates":[-1.4725112,12.4024113]},"properties":{"name":"Boulangerie Wend Konta Café pyramide Wayalghin","pastry_shop":"yes","shop":"bakery"}},
{"type":"Feature","geometry":{"type":"Point","coordinates":[-1.4723671,12.4179574]},"properties":{"name":"Boulangerie Top Pain Kossodo","pastry_shop":"no","shop":"bakery"}},
{"type":"Feature","geometry":{"type":"Point","coordinates":[-1.4350475,12.3684325]},"properties":{"amenity":"marketplace","name":"Marché"}},
{"type":"Feature","geometry":{"type":"Point","coordinates":[-1.4421004,12.3444313]},"properties":{"amenity":"marketplace","name":"Marché"}},
{"type":"Feature","geometry":{"type":"Point","coordinates":[-1.4284976,12.34078]},"properties":{"amenity":"marketplace","name":"Marché (en cours d'installation)"}},
{"type":"Feature","geometry":{"type":"Point","coordinates":[-1.4597661,12.4102863]},"properties":{"name":"Delices market (DM)","shop":"supermarket"}},
{"type":"Feature","geometry":{"type":"Point","coordinates":[-1.4613124,12.4113364]},"properties":{"name":"Boulangerie le Fournil","pastry_shop":"no","shop":"bakery"}},
{"type":"Feature","geometry":{"type":"Point","coordinates":[-1.2742558,12.4233279]},"properties":{"amenity":"marketplace","name":"Marché de Komkaga"}},
{"type":"Feature","geometry":{"type":"Point","coordinates":[-1.1891882,12.2524843]},"properties":{"amenity":"marketplace","name":"Marché de Péélé"}},
{"type":"Feature","geometry":{"type":"Point","coordinates":[-0.7772344,11.4303907]},"properties":{"amenity":"marketplace","source":"Bing"}},
{"type":"Feature","geometry":{"type":"Point","coordinates":[-4.3775663,10.8869667]},"properties":{"amenity":"marketplace","source":"Bing"}},
{"type":"Feature","geometry":{"type":"Point","coordinates":[-1.2450881,12.3693547]},"properties":{"amenity":"marketplace","name":"Marché de Koala"}},
{"type":"Feature","geometry":{"type":"Point","coordinates":[-1.3949029,12.33397]},"properties":{"amenity":"marketplace","name":"Marché de Mogden"}},
{"type":"Feature","geometry":{"type":"Point","coordinates":[-1.5336697,12.3379659]},"properties":{"name":"Maison des femmes - centre multifonctionnel des femmes de Cissin (ICCV Nazemse)","name:en":"Women's house - Centre multifonctionnel des femmes de Cissin (ICCV Nazemse)","name:fr":"Maison des femmes - Centre multifonctionnel des femmes de Cissin (ICCV Nazemse)","shop":"convenience"}},
{"type":"Feature","geometry":{"type":"Point","coordinates":[-1.3724595,12.320234]},"properties":{"amenity":"marketplace","name":"Marché de Séloguen"}},
{"type":"Feature","geometry":{"type":"Point","coordinates":[-1.3868657,12.3020423]},"properties":{"amenity":"marketplace","name":"Marché de Tanlarghin"}},
{"type":"Feature","geometry":{"type":"Point","coordinates":[-3.4860188,12.8229703]},"properties":{"name":"Marché à bétail de Sono","shop":"butcher"}},
{"type":"Feature","geometry":{"type":"Point","coordinates":[-3.471449,12.5994439]},"properties":{"amenity":"marketplace","name":"Marché de Soukuy","remark":"Semi-aménagé"}},
{"type":"Feature","geometry":{"type":"Point","coordinates":[-3.436068,12.5085572]},"properties":{"amenity":"marketplace","name":"Marché de Passakongo","remark":"partiellement aménagé"}},
{"type":"Feature","geometry":{"type":"Point","coordinates":[-3.3706167,12.3712935]},"properties":{"amenity":"marketplace","name":"Marché d'Oulani","remark":"partiellement aménagé"}},
{"type":"Feature","geometry":{"type":"Point","coordinates":[-3.4316504,12.354942]},"properties":{"amenity":"marketplace","fixme":"emplacement approximatif","name":"Marché de Fakouna"}},
{"type":"Feature","geometry":{"type":"Point","coordinates":[-3.4815395,12.2638846]},"properties":{"amenity":"marketplace","name":"Marché de Zéoula"}},
{"type":"Feature","geometry":{"type":"Point","coordinates":[-3.550601,12.3033762]},"properties":{"amenity":"marketplace","name":"Marché de Kari","remark":"partiellement aménagé"}},
{"type":"Feature","geometry":{"type":"Point","coordinates":[-3.6792076,12.3512084]},"properties":{"amenity":"marketplace","name":"Marché de Toroba"}},
{"type":"Feature","geometry":{"type":"Point","coordinates":[-3.5287812,12.3872327]},"properties":{"amenity":"marketplace","fixme":"emplacement exact","name":"Marché de Kamandéna"}},
{"type":"Feature","geometry":{"type":"Point","coordinates":[-3.4513056,12.453727]},"properties":{"amenity":"marketplace","name":"Marché du Secteur 6 (Flakin)"}},
{"type":"Feature","geometry":{"type":"Point","coordinates":[-3.4297889,12.4381599]},"properties":{"amenity":"marketplace","name":"Marché à bétail de Dédougou"}},
{"type":"Feature","geometry":{"type":"Point","coordinates":[-2.9236802,12.6666293]},"properties":{"amenity":"marketplace","name":"Marché de Zouma"}},
{"type":"Feature","geometry":{"type":"Point","coordinates":[-1.4142551,12.3074761]},"properties":{"amenity":"marketplace","name":"Marché"}},
{"type":"Feature","geometry":{"type":"Point","coordinates":[-1.4722866,12.3269405]},"properties":{"shop":"supermarket"}},
{"type":"Feature","geometry":{"type":"Point","coordinates":[-1.3298473,12.309811]},"properties":{"amenity":"marketplace","name":"Marché"}},
{"type":"Feature","geometry":{"type":"Point","coordinates":[-1.3247109,12.3028966]},"properties":{"amenity":"marketplace","name":"Marché de Tensobentenga"}},
{"type":"Feature","geometry":{"type":"Point","coordinates":[-1.4193901,12.3677278]},"properties":{"amenity":"marketplace","name":"Marché à bétail de Saaba (site prévu)"}},
{"type":"Feature","geometry":{"type":"Point","coordinates":[-1.1456251,11.1705777]},"properties":{"shop":"convenience"}},
{"type":"Feature","geometry":{"type":"Point","coordinates":[-1.2560664,12.3183368]},"properties":{"amenity":"marketplace","name":"Marché de Wapassi"}},
{"type":"Feature","geometry":{"type":"Point","coordinates":[-4.6780938,9.9568244]},"properties":{"amenity":"marketplace","name":"Marché"}},
{"type":"Feature","geometry":{"type":"Point","coordinates":[-4.7642968,10.6390039]},"properties":{"name":"Pâtisserie Bethléem","shop":"bakery"}},
{"type":"Feature","geometry":{"type":"Point","coordinates":[-1.3325483,12.2407677]},"properties":{"amenity":"marketplace","name":"Marché de Tanvi"}},
{"type":"Feature","geometry":{"type":"Point","coordinates":[-1.527139,12.3061385]},"properties":{"addr:street":"Avenue Pascal Zagré","name":"Centre commercial de Ouaga 2000","shop":"supermarket"}},
{"type":"Feature","geometry":{"type":"Point","coordinates":[-1.4734169,12.374237]},"properties":{"name":"Alimentation Boutirama Plus","shop":"supermarket"}},
{"type":"Feature","geometry":{"type":"Point","coordinates":[-1.4751147,12.3715385]},"properties":{"name":"Alimentation L'ÉCLOSION","shop":"supermarket"}},
{"type":"Feature","geometry":{"type":"Point","coordinates":[-1.5185359,12.3118148]},"properties":{"name":"Bien Être","shop":"convenience"}},
{"type":"Feature","geometry":{"type":"Point","coordinates":[-1.5354279,12.3361094]},"properties":{"amenity":"marketplace","name":"tablier"}},
{"type":"Feature","geometry":{"type":"Point","coordinates":[-5.4109762,10.5277327]},"properties":{"amenity":"marketplace","name":"Marché"}},
{"type":"Feature","geometry":{"type":"Point","coordinates":[-4.3420865,11.1688965]},"properties":{"Observation":"Non aménagé, très petit","amenity":"marketplace","name":"Marché Zone noire"}},
{"type":"Feature","geometry":{"type":"Point","coordinates":[-4.3428654,11.1757837]},"properties":{"name":"Boulangerie belle ville","shop":"bakery"}},
{"type":"Feature","geometry":{"type":"Point","coordinates":[-4.3509309,11.1808063]},"properties":{"name":"Boulangerie Wende-kôta","shop":"bakery"}},
{"type":"Feature","geometry":{"type":"Point","coordinates":[-2.272721,12.4505689]},"properties":{"name":"Marché de Pinou","shop":"supermarket"}},
{"type":"Feature","geometry":{"type":"Point","coordinates":[-0.163002,14.9656338]},"properties":{"amenity":"marketplace"}},
{"type":"Feature","geometry":{"type":"Point","coordinates":[-1.6098813,12.3087074]},"properties":{"name":"Wend panga","shop":"bakery","source":"survey"}},
{"type":"Feature","geometry":{"type":"Point","coordinates":[-1.6098483,12.3087818]},"properties":{"shop":"butcher","source":"survey"}},
{"type":"Feature","geometry":{"type":"Point","coordinates":[-1.611436,12.3071426]},"properties":{"description":"d'épices et d'huiles végétales","shop":"convenience","source":"survey"}},
{"type":"Feature","geometry":{"type":"Point","coordinates":[-1.4866496,12.3140565]},"properties":{"addr:street":"Avenue Ousmane Sembène","name":"William Market","opening_hours":"Mo-Su 07:30-09:30","shop":"convenience"}},
{"type":"Feature","geometry":{"type":"Point","coordinates":[-1.4891398,12.3116575]},"properties":{"addr:street":"Avenue Ousmane Sembène","name":"Le Privilège","phone":"+226 70234634","shop":"supermarket"}},
{"type":"Feature","geometry":{"type":"Point","coordinates":[-3.9389929,13.4371055]},"properties":{"amenity":"marketplace","name":"Marché de Kombori"}},
{"type":"Feature","geometry":{"type":"Point","coordinates":[-5.4383531,10.4649105]},"properties":{"amenity":"marketplace","name":"Marché villageois"}},
{"type":"Feature","geometry":{"type":"Point","coordinates":[-5.4081675,10.4401583]},"properties":{"amenity":"marketplace","name":"Marché villageois"}},
{"type":"Feature","geometry":{"type":"Point","coordinates":[-5.3709975,10.4762889]},"properties":{"amenity":"marketplace","name":"Marché villageois"}},
{"type":"Feature","geometry":{"type":"Point","coordinates":[-5.3711826,10.3329079]},"properties":{"amenity":"marketplace","name":"Marché villageois"}},
{"type":"Feature","geometry":{"type":"Point","coordinates":[-5.4178584,10.3895743]},"properties":{"amenity":"marketplace","name":"Marché villageois"}},
{"type":"Feature","geometry":{"type":"Point","coordinates":[-5.3305256,10.4008895]},"properties":{"amenity":"marketplace","name":"Marché villageois"}},
{"type":"Feature","geometry":{"type":"Point","coordinates":[-1.4910972,12.3050216]},"properties":{"addr:housenumber":"338","addr:street":"Rue 15.458","email":"keuchamalade@gmail.com","internet_access":"wlan","name":"Pengdwendé et compagnies","name:en":"Pengdwendé and companies","opening_hours":"Mo-Su 06:00-23:00","operator":"Onatel","phone":"71647305","shop":"supermarket"}},
{"type":"Feature","geometry":{"type":"Point","coordinates":[-1.7620745,12.1167165]},"properties":{"name":"Marché du village","shop":"supermarket"}},
{"type":"Feature","geometry":{"type":"Point","coordinates":[-2.6579582,13.8045355]},"properties":{"amenity":"marketplace","name":"Marché de Thiou"}},
{"type":"Feature","geometry":{"type":"Point","coordinates":[-2.4209256,13.5808855]},"properties":{"amenity":"marketplace","name":"Grand Marché"}},
{"type":"Feature","geometry":{"type":"Point","coordinates":[-0.7195731,14.600895]},"properties":{"amenity":"marketplace","name":"Marché de Déou"}},
{"type":"Feature","geometry":{"type":"Point","coordinates":[-1.5906787,12.1947034]},"properties":{"amenity":"marketplace","name":"Marché de Goby"}},
{"type":"Feature","geometry":{"type":"Point","coordinates":[-1.5602839,12.142587]},"properties":{"amenity":"marketplace","name":"Marché"}},
{"type":"Feature","geometry":{"type":"Point","coordinates":[-1.6370729,12.1195028]},"properties":{"amenity":"marketplace","name":"Marché de Kalzi"}},
{"type":"Feature","geometry":{"type":"Point","coordinates":[-1.4897311,12.1338183]},"properties":{"amenity":"marketplace","name":"Marché de Koanda"}},
{"type":"Feature","geometry":{"type":"Point","coordinates":[-1.4854288,12.0718936]},"properties":{"amenity":"marketplace","name":"Marché de Pissi"}},
{"type":"Feature","geometry":{"type":"Point","coordinates":[-3.4608124,12.4634332]},"properties":{"name":"Doubassin","shop":"convenience"}},
{"type":"Feature","geometry":{"type":"Point","coordinates":[-2.5436863,13.3557642]},"properties":{"amenity":"marketplace","name":"Marché de Réga"}},
{"type":"Feature","geometry":{"type":"Point","coordinates":[-2.5244616,13.3961767]},"properties":{"amenity":"marketplace","name":"Marché de Boh"}},
{"type":"Feature","geometry":{"type":"Point","coordinates":[-2.5089343,13.4245686]},"properties":{"amenity":"marketplace","name":"Marché de Ninga"}},
{"type":"Feature","geometry":{"type":"Point","coordinates":[-1.65161,12.333335]},"properties":{"name":"Marché de Zogodhin","shop":"supermarket"}},
{"type":"Feature","geometry":{"type":"Point","coordinates":[-3.712019,12.6334445]},"properties":{"amenity":"marketplace","name":"Marché de Bourasso"}},
{"type":"Feature","geometry":{"type":"Point","coordinates":[-4.0009265,12.7037046]},"properties":{"amenity":"marketplace","name":"NMarché de Kéména"}},
{"type":"Feature","geometry":{"type":"Point","coordinates":[-4.3281055,11.1454601]},"properties":{"name":"poisoneri wen konta","phone":"+22677647122","shop":"butcher"}},
{"type":"Feature","geometry":{"type":"Point","coordinates":[-4.0018022,10.4660684]},"properties":{"amenity":"marketplace","name":"Marché de Kouéré"}},
{"type":"Feature","geometry":{"type":"Point","coordinates":[0.0078548,11.116875]},"properties":{"amenity":"marketplace","source":"Maxar Premium Imagery"}},
{"type":"Feature","geometry":{"type":"Point","coordinates":[-3.8506477,12.7445365]},"properties":{"name":"Marché à bétail","shop":"butcher"}},
{"type":"Feature","geometry":{"type":"Point","coordinates":[-3.8540661,12.7340849]},"properties":{"amenity":"marketplace","name":"Marché de Nouna"}},
{"type":"Feature","geometry":{"type":"Point","coordinates":[-2.5927855,13.3972712]},"properties":{"amenity":"marketplace","name":"Marché de Zogoré"}},
{"type":"Feature","geometry":{"type":"Point","coordinates":[-2.5953444,13.4559911]},"properties":{"amenity":"marketplace"}},
{"type":"Feature","geometry":{"type":"Point","coordinates":[-1.4868631,12.373472]},