{"type":"FeatureCollection","features":[
{"type":"Feature","geometry":{"type":"Point","coordinates":[-3.9543201,5.350873]},"properties":{"name":"Ofalé Market","shop":"supermarket"}},
{"type":"Feature","geometry":{"type":"Point","coordinates":[-3.9902166,5.3642023]},"properties":{"addr:city":"Cocody","addr:country":"CI","addr:state":"Abidjan","addr:street":"Rue des jardins","addr:suburb":"Deux Plateaux","name":"Cash Center 2 Plateaux","phone":"+225-22.41.39.06","shop":"supermarket","source":"connaissance des lieux"}},
{"type":"Feature","geometry":{"type":"Point","coordinates":[-4.0703977,5.3254173]},"properties":{"amenity":"marketplace","name":"Marché de Kouté"}},
{"type":"Feature","geometry":{"type":"Point","coordinates":[-4.0754037,5.3394]},"properties":{"addr:city":"Yopougon","addr:country":"CI","addr:state":"Abidjan","addr:street":"Rue P20","name":"Pâtisserie Sicogi","shop":"bakery"}},
{"type":"Feature","geometry":{"type":"Point","coordinates":[-4.0750294,5.3562619]},"properties":{"amenity":"marketplace","name":"Marché Siporex 1"}},
{"type":"Feature","geometry":{"type":"Point","coordinates":[-3.9854255,5.4035448]},"properties":{"name":"Cash Ivoire-Angré","opening_hours":"Mo-Su 08:30-19:30","shop":"supermarket"}},
{"type":"Feature","geometry":{"type":"Point","coordinates":[-3.9776642,5.3997044]},"properties":{"name":"Cash Ivoire-8e Tranche","shop":"supermarket"}},
{"type":"Feature","geometry":{"type":"Point","coordinates":[-3.9656346,5.3577959]},"properties":{"name":"Supermarché CDCI","shop":"supermarket"}},
{"type":"Feature","geometry":{"type":"Point","coordinates":[-3.9590136,5.3617255]},"properties":{"addr:city":"Cocody","addr:country":"CI","addr:state":"Abidjan","addr:street":"Rue I143","name":"Cash Ivoire","shop":"supermarket"}},
{"type":"Feature","geometry":{"type":"Point","coordinates":[-4.0580023,5.339323]},"properties":{"amenity":"marketplace","name":"Marché Nouveau Sicogi","source":"SAFER GMES & Spot Image"}},
{"type":"Feature","geometry":{"type":"Point","coordinates":[-6.6303260999999999,4.7482806]},"properties":{"shop":"supermarket"}},
{"type":"Feature","geometry":{"type":"Point","coordinates":[-3.9247906,5.3579222]},"properties":{"name":"AB Center","shop":"supermarket"}},
{"type":"Feature","geometry":{"type":"Point","coordinates":[-3.8903571,5.3579082]},"properties":{"alt_name":"Agence Côte d'Ivoire Telecom","name":"Agence Orange - Côte d'Ivoire Télécom","operator":"Groupe Orange","shop":"convenience","website":"https://www.orange.ci/"}},
{"type":"Feature","geometry":{"type":"Point","coordinates":[-3.9511557,5.3291649]},"properties":{"name":"Chelsea Market","shop":"supermarket"}},
{"type":"Feature","geometry":{"type":"Point","coordinates":[-3.9512201,5.3288404]},"properties":{"name":"Boutique Mauritanienne - Chez Abdala","shop":"convenience"}},
{"type":"Feature","geometry":{"type":"Point","coordinates":[-3.9505469,5.3273181]},"properties":{"name":"Boutique des ivoiriens","shop":"convenience"}},
{"type":"Feature","geometry":{"type":"Point","coordinates":[-4.03412,5.348516]},"properties":{"addr:city":"Attécoubé","addr:country":"CI","addr:state":"Abidjan","amenity":"marketplace","name":"Site central du marché d'attécoubé(en construction)"}},
{"type":"Feature","geometry":{"type":"Point","coordinates":[-4.0262597,5.3691469]},"properties":{"shop":"bakery"}},
{"type":"Feature","geometry":{"type":"Point","coordinates":[-4.0231626,5.3672721]},"properties":{"name":"King Cash","operator":"CDCI","shop":"supermarket"}},
{"type":"Feature","geometry":{"type":"Point","coordinates":[-4.0181796,5.3635778]},"properties":{"name":"Boulangerie Bon Pain","opening_hours":"06:00-22:00","shop":"bakery"}},
{"type":"Feature","geometry":{"type":"Point","coordinates":[-4.0231057,5.3672709]},"properties":{"name":"Boulangerie","opening_hours":"06:00-23:00","shop":"bakery"}},
{"type":"Feature","geometry":{"type":"Point","coordinates":[-4.0161176,5.3536435000000008]},"properties":{"name":"Cash Ivoire","operator":"Cash Ivoire","shop":"supermarket"}},
{"type":"Feature","geometry":{"type":"Point","coordinates":[-4.0159821,5.3553032]},"properties":{"name":"Boulangerie Top Qualité","shop":"bakery"}},
{"type":"Feature","geometry":{"type":"Point","coordinates":[-4.0172419,5.3505559]},"properties":{"name":"Boulangerie","shop":"bakery"}},
{"type":"Feature","geometry":{"type":"Point","coordinates":[-4.0172616,5.3529965]},"properties":{"name":"Cash Ivoire","operator":"Cash Ivoire","shop":"supermarket"}},
{"type":"Feature","geometry":{"type":"Point","coordinates":[-4.0346278,5.3473972]},"properties":{"addr:city":"Attécoubé","addr:country":"CI","addr:state":"Abidjan","name":"Boulangerie G-Z","shop":"bakery"}},
{"type":"Feature","geometry":{"type":"Point","coordinates":[-4.0225301,5.3691897]},"properties":{"amenity":"marketplace"}},
{"type":"Feature","geometry":{"type":"Point","coordinates":[-3.987609,5.2999184]},"properties":{"brand":"Leader Price","brand:wikidata":"Q2181426","name":"Leader Price","shop":"supermarket"}},
{"type":"Feature","geometry":{"type":"Point","coordinates":[-3.9826244,5.2905329]},"properties":{"name":"Supermarché Prestige","shop":"supermarket"}},
{"type":"Feature","geometry":{"type":"Point","coordinates":[-4.0148402,5.4209226]},"properties":{"name":"king cash","shop":"supermarket"}},
{"type":"Feature","geometry":{"type":"Point","coordinates":[-4.0154592,5.425625]},"properties":{"amenity":"marketplace","name":"Grand Marché d’Abobo"}},
{"type":"Feature","geometry":{"type":"Point","coordinates":[-4.0725527,5.3464945]},"properties":{"addr:city":"Yopougon","addr:country":"CI","addr:state":"Abidjan","addr:street":"Rue P152 / Princesse","name":"King Cash","operator":"King Cash","shop":"supermarket"}},
{"type":"Feature","geometry":{"type":"Point","coordinates":[-3.7353714,5.2176501]},"properties":{"amenity":"marketplace","name":"Petit Marché de Grand-Bassam"}},
{"type":"Feature","geometry":{"type":"Point","coordinates":[-4.0619937,5.3386523]},"properties":{"name":"Bonprix","shop":"supermarket"}},
{"type":"Feature","geometry":{"type":"Point","coordinates":[-4.0638321,5.3526316]},"properties":{"name":"King Cash","shop":"supermarket"}},
{"type":"Feature","geometry":{"type":"Point","coordinates":[-4.0591544,5.3468215]},"properties":{"name":"Superette","shop":"supermarket"}},
{"type":"Feature","geometry":{"type":"Point","coordinates":[-4.0588755,5.3468215]},"properties":{"name":"Top PAIN","shop":"bakery"}},
{"type":"Feature","geometry":{"type":"Point","coordinates":[-4.0171937,5.3520435]},"properties":{"name":"Proxy Market","operator":"Proxy Market","shop":"supermarket"}},
{"type":"Feature","geometry":{"type":"Point","coordinates":[-3.9746862,5.3080519]},"properties":{"name":"MINI PRIX","shop":"supermarket"}},
{"type":"Feature","geometry":{"type":"Point","coordinates":[-3.9760967,5.3047708]},"properties":{"name":"Boulangerie GZ La Paix","shop":"bakery"}},
{"type":"Feature","geometry":{"type":"Point","coordinates":[-4.0171908,5.3514378]},"properties":{"name":"Boulangerie","shop":"bakery"}},
{"type":"Feature","geometry":{"type":"Point","coordinates":[-4.0774946,5.3255493]},"properties":{"addr:city":"Yopougon","addr:country":"CI","addr:state":"Abidjan","addr:street":"Rue O13","name":"Top Pain","shop":"bakery"}},
{"type":"Feature","geometry":{"type":"Point","coordinates":[-4.0797406,5.3424218]},"properties":{"addr:city":"Yopougon","addr:country":"CI","addr:state":"Abidjan","addr:street":"Avenue Marie-Thérèse-Houphouët-Boigny","name":"L’Emmanuel","shop":"supermarket"}},
{"type":"Feature","geometry":{"type":"Point","coordinates":[-4.0213986,5.3668592]},"properties":{"opening_hours":"06:00 - 23:00","shop":"bakery"}},
{"type":"Feature","geometry":{"type":"Point","coordinates":[-4.0056122,5.4005985]},"properties":{"amenity":"marketplace","name":"Marché"}},
{"type":"Feature","geometry":{"type":"Point","coordinates":[-4.076664,5.3272207]},"properties":{"addr:city":"Yopougon","addr:country":"CI","addr:state":"Abidjan","addr:street":"Rue O13","name":"Eden Superette","shop":"supermarket"}},
{"type":"Feature","geometry":{"type":"Point","coordinates":[-4.073517,5.3324184]},"properties":{"name":"Boulangerie","shop":"bakery"}},
{"type":"Feature","geometry":{"type":"Point","coordinates":[-4.0732024,5.3372352]},"properties":{"addr:city":"Yopougon","addr:country":"CI","addr:state":"Abidjan","addr:street":"Rue O13","name":"Top'Pain","shop":"bakery"}},
{"type":"Feature","geometry":{"type":"Point","coordinates":[-4.0731046,5.3418416]},"properties":{"addr:city":"Yopougon","addr:country":"CI","addr:state":"Abidjan","addr:street":"Rue O13","name":"Boulangerie Vrai Pain","shop":"bakery"}},
{"type":"Feature","geometry":{"type":"Point","coordinates":[-4.0738839,5.3529708]},"properties":{"addr:city":"Yopougon","addr:country":"CI","addr:state":"Abidjan","addr:street":"Rue O13","name":"King Cash","operator":"King Cash","shop":"supermarket"}},
{"type":"Feature","geometry":{"type":"Point","coordinates":[-3.9638111,5.3030995]},"properties":{"name":"King Cash","shop":"supermarket"}},
{"type":"Feature","geometry":{"type":"Point","coordinates":[-3.970434,5.2887877]},"properties":{"amenity":"marketplace","name":"Le Djassa Koumassi"}},
{"type":"Feature","geometry":{"type":"Point","coordinates":[-3.9574164,5.3014998]},"properties":{"name":"King Cash","shop":"supermarket"}},
{"type":"Feature","geometry":{"type":"Point","coordinates":[-4.0773024,5.3260388]},"properties":{"addr:city":"Yopougon","addr:country":"CI","addr:state":"Abidjan","addr:street":"Rue O13","name":"King Cash","shop":"supermarket"}},
{"type":"Feature","geometry":{"type":"Point","coordinates":[-4.0164732,5.3540575]},"properties":{"name":"Boulagerie Top pain","shop":"bakery"}},
{"type":"Feature","geometry":{"type":"Point","coordinates":[-3.9565968,5.2980382]},"properties":{"name":"Boulangerie Blé d'Or","shop":"bakery"}},
{"type":"Feature","geometry":{"type":"Point","coordinates":[-3.9762516,5.3057314]},"properties":{"name":"Mini Prix","shop":"supermarket"}},
{"type":"Feature","geometry":{"type":"Point","coordinates":[-3.9763094,5.3051511]},"properties":{"name":"Rahisam","shop":"supermarket"}},
{"type":"Feature","geometry":{"type":"Point","coordinates":[-3.9759624,5.3033278]},"properties":{"addr:city":"Marcory","addr:country":"CI","addr:state":"Abidjan","addr:street":"Rue F 109","name":"Nouvelle Superette","shop":"supermarket"}},
{"type":"Feature","geometry":{"type":"Point","coordinates":[-3.9900586,5.3580122]},"properties":{"addr:city":"Cocody","addr:country":"CI","addr:state":"Abidjan","addr:street":"Rue des Jardins","addr:suburb":"Deux Plateaux","is_in":"Deux Plateaux;Cocody;Abidjan;Côte d'Ivoire","name":"Casino 2 plateaux","name:en":"Casino Market","shop":"supermarket","short_name":"Casino","source":"InnovAfrica.org"}},
{"type":"Feature","geometry":{"type":"Point","coordinates":[-5.0228342,7.6978575]},"properties":{"access":"permissive","barrier":"gate","bicycle":"yes","foot":"yes","motorcar":"yes","motorcycle":"yes"}},
{"type":"Feature","geometry":{"type":"Point","coordinates":[-3.967218,5.275858]},"properties":{"addr:city":"Biétry","addr:country":"CI","addr:state":"Abidjan","addr:street":"Boulevard de Marseille","name":"American","shop":"supermarket"}},
{"type":"Feature","geometry":{"type":"Point","coordinates":[-4.0122114,5.4349874]},"properties":{"name":"Cash Ivoire","shop":"supermarket"}},
{"type":"Feature","geometry":{"type":"Point","coordinates":[-3.9603448,5.3668977]},"properties":{"addr:city":"Cocody","addr:country":"CI","addr:state":"Abidjan","addr:street":"Rue I123","name":"King Cash","shop":"supermarket"}},
{"type":"Feature","geometry":{"type":"Point","coordinates":[-5.4377755,7.844657]},"properties":{"amenity":"marketplace"}},
{"type":"Feature","geometry":{"type":"Point","coordinates":[-5.4767263,7.8629164]},"properties":{"amenity":"marketplace"}},
{"type":"Feature","geometry":{"type":"Point","coordinates":[-5.5807842,7.8733255]},"properties":{"amenity":"marketplace","name":"Marché hebdomadaire"}},
{"type":"Feature","geometry":{"type":"Point","coordinates":[-5.5714694,7.8459357]},"properties":{"amenity":"marketplace","name":"Marché hebdomadaire (Lundi)"}},
{"type":"Feature","geometry":{"type":"Point","coordinates":[-5.5618166,7.8410357]},"properties":{"amenity":"marketplace","name":"Marché hebdomadaire"}},
{"type":"Feature","geometry":{"type":"Point","coordinates":[-5.7115138,7.7989323]},"properties":{"amenity":"marketplace","name":"Marché hebdomadaire"}},
{"type":"Feature","geometry":{"type":"Point","coordinates":[-5.7468648,7.8318172]},"properties":{"amenity":"marketplace","opening_hours":"Fr"}},
{"type":"Feature","geometry":{"type":"Point","coordinates":[-5.6735114,7.8827824]},"properties":{"amenity":"marketplace","name":"Marché hebdomadaire"}},
{"type":"Feature","geometry":{"type":"Point","coordinates":[-5.671151,7.8769798]},"properties":{"amenity":"marketplace","name":"Marché hebdomadaire (Dimanche)"}},
{"type":"Feature","geometry":{"type":"Point","coordinates":[-5.6538648,7.912364]},"properties":{"amenity":"marketplace","name":"Marché hebdomadaire (Jeudi)"}},
{"type":"Feature","geometry":{"type":"Point","coordinates":[-5.6931684,7.9686937]},"properties":{"amenity":"marketplace"}},
{"type":"Feature","geometry":{"type":"Point","coordinates":[-5.2051814,7.6120047]},"properties":{"amenity":"marketplace","name":"Marché hebdomadaire"}},
{"type":"Feature","geometry":{"type":"Point","coordinates":[-5.2098482,7.5836482]},"properties":{"amenity":"marketplace","name":"Marché hebdomadaire"}},
{"type":"Feature","geometry":{"type":"Point","coordinates":[-5.2344307,7.6002106]},"properties":{"amenity":"marketplace","name":"Marché hebdomadaire"}},
{"type":"Feature","geometry":{"type":"Point","coordinates":[-5.2415329,7.6168816]},"properties":{"amenity":"marketplace","name":"Marché hebdomadaire"}},
{"type":"Feature","geometry":{"type":"Point","coordinates":[-5.246554,7.5830636]},"properties":{"amenity":"marketplace","name":"¤ Marché journalier"}},
{"type":"Feature","geometry":{"type":"Point","coordinates":[-5.2565318,7.5744066]},"properties":{"amenity":"marketplace","name":"Marché hebdomadaire"}},
{"type":"Feature","geometry":{"type":"Point","coordinates":[-5.3692676,7.3289719]},"properties":{"amenity":"marketplace","name":"Marché hebdomadaire"}},
{"type":"Feature","geometry":{"type":"Point","coordinates":[-5.2124114,7.3662847]},"properties":{"amenity":"marketplace","name":"Marché hebdomadaire"}},
{"type":"Feature","geometry":{"type":"Point","coordinates":[-5.2440621,7.4316001]},"properties":{"amenity":"marketplace","name":"Marché hebdomadaire"}},
{"type":"Feature","geometry":{"type":"Point","coordinates":[-5.2188643,7.4587026]},"properties":{"amenity":"marketplace","name":"Marché hebdomadaire"}},
{"type":"Feature","geometry":{"type":"Point","coordinates":[-5.2179277,7.4640427]},"properties":{"amenity":"marketplace","name":"Marché hebdomadaire"}},
{"type":"Feature","geometry":{"type":"Point","coordinates":[-5.1888093,7.4513745]},"properties":{"amenity":"marketplace","name":"Marché hebdomadaire"}},
{"type":"Feature","geometry":{"type":"Point","coordinates":[-5.1773247,7.4969512]},"properties":{"amenity":"marketplace","name":"Marché hebdomadaire"}},
{"type":"Feature","geometry":{"type":"Point","coordinates":[-3.9772889,5.3102652]},"properties":{"addr:city":"Marcory","addr:country":"CI","addr:state":"Abidjan","addr:street":"Rue E 7","name":"Mini prix","shop":"supermarket"}},
{"type":"Feature","geometry":{"type":"Point","coordinates":[-3.9723895,5.3085865]},"properties":{"name":"Mini Prix","shop":"supermarket"}},
{"type":"Feature","geometry":{"type":"Point","coordinates":[-4.1052843,5.3229561]},"properties":{"name":"Mabrok","shop":"supermarket","source":"connaissance des lieux"}},
{"type":"Feature","geometry":{"type":"Point","coordinates":[-4.1043775,5.3288291]},"properties":{"name":"Express-Market","shop":"supermarket"}},
{"type":"Feature","geometry":{"type":"Point","coordinates":[-4.1043174,5.3289341]},"properties":{"addr:city":"Yopougon","addr:country":"CI","addr:state":"Abidjan","name":"Supermarché Mansoura","shop":"supermarket"}},
{"type":"Feature","geometry":{"type":"Point","coordinates":[-4.1093336,5.323619]},"properties":{"addr:city":"Yopougon","addr:country":"CI","addr:state":"Abidjan","name":"Supermarché Mafosa","shop":"supermarket"}},
{"type":"Feature","geometry":{"type":"Point","coordinates":[-4.1117516,5.3127297]},"properties":{"shop":"convenience"}},
{"type":"Feature","geometry":{"type":"Point","coordinates":[-4.1138919,5.3133152]},"properties":{"shop":"convenience"}},
{"type":"Feature","geometry":{"type":"Point","coordinates":[-4.1044399,5.3098283]},"properties":{"shop":"convenience"}},
{"type":"Feature","geometry":{"type":"Point","coordinates":[-4.0146867,5.3760495]},"properties":{"name":"Supérette de pailler","shop":"supermarket"}},
{"type":"Feature","geometry":{"type":"Point","coordinates":[-3.9474512,5.3104338]},"properties":{"name":"SuperetteTowfique","shop":"convenience"}},
{"type":"Feature","geometry":{"type":"Point","coordinates":[-3.9473054,5.3102389]},"properties":{"name":"Stoki (alimentation)","shop":"convenience"}},
{"type":"Feature","geometry":{"type":"Point","coordinates":[-3.9464411,5.3109366]},"properties":{"name":"CDCI","shop":"supermarket"}},
{"type":"Feature","geometry":{"type":"Point","coordinates":[-3.9464955,5.3081431]},"properties":{"brand":"Coqivoire","brand:wikidata":"Q60183284","butcher":"poultry","name":"Coqivoire","shop":"butcher"}},
{"type":"Feature","geometry":{"type":"Point","coordinates":[-3.9465413,5.3030795]},"properties":{"name":"Cash Ivoire","shop":"supermarket"}},
{"type":"Feature","geometry":{"type":"Point","coordinates":[-3.9603621,5.3667291]},"properties":{"addr:city":"Cocody","addr:country":"CI","addr:state":"Abidjan","addr:street":"Rue I123","brand":"Coqivoire","brand:wikidata":"Q60183284","butcher":"poultry","name":"Coqivoire","shop":"butcher"}},
{"type":"Feature","geometry":{"type":"Point","coordinates":[-4.0736438,5.3319195]},"properties":{"name":"Super U","operator":"Cash Ivoire","shop":"supermarket"}},
{"type":"Feature","geometry":{"type":"Point","coordinates":[-3.9773011,5.3103559]},"properties":{"name":"Mini Prix","shop":"supermarket"}},
{"type":"Feature","geometry":{"type":"Point","coordinates":[-3.9978806,5.3695511]},"properties":{"addr:city":"Cocody","addr:country":"CI","addr:state":"Abidjan","addr:suburb":"Deux Plateaux","name":"Supermarché Kangaroo","shop":"supermarket"}},
{"type":"Feature","geometry":{"type":"Point","coordinates":[-3.9974668,5.3996778]},"properties":{"name":"Top Pain","shop":"bakery"}},
{"type":"Feature","geometry":{"type":"Point","coordinates":[-4.0062122,5.4144579]},"properties":{"name":"Boulangerie Samake","shop":"bakery"}},
{"type":"Feature","geometry":{"type":"Point","coordinates":[-3.9014469,5.240273]},"properties":{"name":"Bonprix","shop":"supermarket","source":"local knowledge"}},
{"type":"Feature","geometry":{"type":"Point","coordinates":[-3.9638835,5.2596113]},"properties":{"name":"Cash Ivoire","shop":"supermarket"}},
{"type":"Feature","geometry":{"type":"Point","coordinates":[-3.887727,5.3572934]},"properties":{"name":"King Cash","shop":"supermarket"}},
{"type":"Feature","geometry":{"type":"Point","coordinates":[-3.8872987,5.3519569]},"properties":{"shop":"convenience"}},
{"type":"Feature","geometry":{"type":"Point","coordinates":[-4.1027872,5.3109928]},"properties":{"shop":"convenience"}},
{"type":"Feature","geometry":{"type":"Point","coordinates":[-4.1035294,5.3104413]},"properties":{"shop":"convenience"}},
{"type":"Feature","geometry":{"type":"Point","coordinates":[-4.1030009,5.321414]},"properties":{"name":"Top Pain","shop":"bakery","source":"connaissance des lieux"}},
{"type":"Feature","geometry":{"type":"Point","coordinates":[-4.1033872,5.3216167]},"properties":{"name":"Supermarché El vouze","shop":"supermarket","wheelchair":"yes"}},
{"type":"Feature","geometry":{"type":"Point","coordinates":[-4.0193134,5.3207723]},"properties":{"name":"Super U Abidjan Plateau","shop":"supermarket"}},
{"type":"Feature","geometry":{"type":"Point","coordinates":[-4.0031162,5.3019358]},"properties":{"name":"Boulangerie Rue d'Arras","shop":"bakery"}},
{"type":"Feature","geometry":{"type":"Point","coordinates":[-4.0071254,5.3052507]},"properties":{"addr:city":"Treichville","addr:country":"CI","addr:state":"Abidjan","addr:street":"Avenue de la reine Pokou","name":"Boulangerie","shop":"bakery"}},
{"type":"Feature","geometry":{"type":"Point","coordinates":[-4.0260715,5.3415362]},"properties":{"name":"Boulangerie Pain d'Or","shop":"bakery"}},
{"type":"Feature","geometry":{"type":"Point","coordinates":[-4.0214482,5.3526807]},"properties":{"addr:city":"Adjamé","addr:country":"CI","addr:state":"Abidjan","addr:street":"Avenue 13","name":"Boulangerie","shop":"bakery"}},
{"type":"Feature","geometry":{"type":"Point","coordinates":[-4.0217942,5.3524976]},"properties":{"fixme":"resurvey","name":"Bonprix","operator":"Prosuma","shop":"supermarket"}},
{"type":"Feature","geometry":{"type":"Point","coordinates":[-5.0274619,7.6901183]},"properties":{"shop":"butcher"}},
{"type":"Feature","geometry":{"type":"Point","coordinates":[-3.734333,5.2090474]},"properties":{"name":"Boulangerie Bassamoise","shop":"bakery"}},
{"type":"Feature","geometry":{"type":"Point","coordinates":[-3.9687361,5.3014427]},"properties":{"name":"Boulangerie Patisserie","shop":"bakery"}},
{"type":"Feature","geometry":{"type":"Point","coordinates":[-3.7344961,5.2082782]},"properties":{"name":"Bon Prix (Gros et Demi-Gros)","shop":"supermarket"}},
{"type":"Feature","geometry":{"type":"Point","coordinates":[-3.7341574,5.2089111]},"properties":{"name":"King Cash","shop":"supermarket"}},
{"type":"Feature","geometry":{"type":"Point","coordinates":[-3.7362828,5.2068679]},"properties":{"addr:city":"Grand-Bassam","name":"Super marché Bon Prix","operator":"Prosuma","shop":"supermarket"}},
{"type":"Feature","geometry":{"type":"Point","coordinates":[-3.7726133,5.212778]},"properties":{"shop":"convenience"}},
{"type":"Feature","geometry":{"type":"Point","coordinates":[-3.9758601,5.3573438]},"properties":{"name":"Sidi","shop":"convenience"}},
{"type":"Feature","geometry":{"type":"Point","coordinates":[-3.9773122,5.3548974]},"properties":{"name":"La Miche Dorée","shop":"bakery"}},
{"type":"Feature","geometry":{"type":"Point","coordinates":[-5.0293674,7.6815802]},"properties":{"name":"Lydia Ludic","shop":"convenience"}},
{"type":"Feature","geometry":{"type":"Point","coordinates":[-3.9895128,5.3602866]},"properties":{"addr:city":"Cocody","addr:country":"CI","addr:state":"Abidjan","addr:suburb":"Deux Plateaux","alt_name":"Des gâteaux & du pain","name":"Des Gâteaux et du Pain","note":"« Des Gâteaux et Du Pain », ce n’est pas une description, mais c’est vraiment le nom officiel de cette boulangerie.","opening_hours":"Mo-Su 07:00-20:00","shop":"bakery"}},
{"type":"Feature","geometry":{"type":"Point","coordinates":[-3.9643164,5.3810331]},"properties":{"name":"Boutique","shop":"convenience"}},
{"type":"Feature","geometry":{"type":"Point","coordinates":[-3.96426,5.3807231]},"properties":{"name":"Boutique","shop":"convenience"}},
{"type":"Feature","geometry":{"type":"Point","coordinates":[-3.964664,5.3807836]},"properties":{"shop":"bakery"}},
{"type":"Feature","geometry":{"type":"Point","coordinates":[-3.9646006,5.3807532]},"properties":{"name":"Cash Ivoire","shop":"supermarket"}},
{"type":"Feature","geometry":{"type":"Point","coordinates":[-4.0082445,5.4290144]},"properties":{"name":"boulangerie GZ","shop":"bakery"}},
{"type":"Feature","geometry":{"type":"Point","coordinates":[-4.0088987,5.4289554]},"properties":{"shop":"supermarket"}},
{"type":"Feature","geometry":{"type":"Point","coordinates":[-3.9642825,5.3809839]},"properties":{"name":"Pain Express","shop":"bakery"}},
{"type":"Feature","geometry":{"type":"Point","coordinates":[-3.9875878,5.288054]},"properties":{"brand":"Paul","brand:wikidata":"Q3370417","name":"Paul","operator":"Boulangeries Paul SAS","shop":"bakery"}},
{"type":"Feature","geometry":{"type":"Point","coordinates":[-3.9903039,5.3742227]},"properties":{"addr:city":"Cocody","addr:country":"CI","addr:state":"Abidjan","addr:street":"Rue des Jardins","addr:suburb":"Deux Plateaux","is_in":"Deux Plateaux;Cocody;Abidjan;Côte d'Ivoire","name":"Pâtisserie Sococé","shop":"bakery"}},
{"type":"Feature","geometry":{"type":"Point","coordinates":[-3.1387486,5.7976786]},"properties":{"shop":"supermarket"}},
{"type":"Feature","geometry":{"type":"Point","coordinates":[-3.1388538,5.7988432]},"properties":{"shop":"butcher"}},
{"type":"Feature","geometry":{"type":"Point","coordinates":[-4.0262656,5.3465925]},"properties":{"addr:city":"Adjamé","addr:country":"CI","addr:state":"Abidjan","name":"ADJ Rue Barre","shop":"supermarket"}},
{"type":"Feature","geometry":{"type":"Point","coordinates":[-7.5514783,7.4083933]},"properties":{"name":"La Brioche","shop":"bakery"}},
{"type":"Feature","geometry":{"type":"Point","coordinates":[-3.9917422,5.3944784]},"properties":{"name":"Boulangerie Paris Baguette","shop":"bakery"}},
{"type":"Feature","geometry":{"type":"Point","coordinates":[-4.0198193,5.4283438]},"properties":{"name":"Bon Prix","shop":"supermarket"}},
{"type":"Feature","geometry":{"type":"Point","coordinates":[-4.0004117,5.3238689]},"properties":{"amenity":"marketplace","name":"Marché de Blockauss"}},
{"type":"Feature","geometry":{"type":"Point","coordinates":[-3.9864129,5.3935651]},"properties":{"name":"Boulangerie Patisserie le Brunch","shop":"bakery"}},
{"type":"Feature","geometry":{"type":"Point","coordinates":[-3.9756847,5.3087771]},"properties":{"shop":"bakery"}},
{"type":"Feature","geometry":{"type":"Point","coordinates":[-4.0266081,5.3605826]},"properties":{"amenity":"marketplace","name":"Marché Bracodi"}},
{"type":"Feature","geometry":{"type":"Point","coordinates":[-4.0238279,5.3572782]},"properties":{"amenity":"marketplace","name":"Espace Refrigerateur"}},
{"type":"Feature","geometry":{"type":"Point","coordinates":[-3.9909233,5.4050927]},"properties":{"name":"Ivoire shop","shop":"supermarket"}},
{"type":"Feature","geometry":{"type":"Point","coordinates":[-6.6540455,4.7764421]},"properties":{"source":"Microsoft Bing orbital imagery"}},
{"type":"Feature","geometry":{"type":"Point","coordinates":[-6.6558943,4.776582]},"properties":{"source":"Microsoft Bing orbital imagery"}},
{"type":"Feature","geometry":{"type":"Point","coordinates":[-6.6539461,4.7773267]},"properties":{"source":"Microsoft Bing orbital imagery"}},
{"type":"Feature","geometry":{"type":"Point","coordinates":[-6.6558152,4.7774614]},"properties":{"source":"Microsoft Bing orbital imagery"}},
{"type":"Feature","geometry":{"type":"Point","coordinates":[-3.9866442,5.2956219]},"properties":{"shop":"bakery"}},
{"type":"Feature","geometry":{"type":"Point","coordinates":[-4.0911148,5.3266219]},"properties":{"name":"Top Budged","old_name":"Aldi Alimentation & Distribution","shop":"convenience"}},
{"type":"Feature","geometry":{"type":"Point","coordinates":[-4.0062767,5.3933461]},"properties":{"shop":"supermarket"}},
{"type":"Feature","geometry":{"type":"Point","coordinates":[-3.9799436,5.296399]},"properties":{"name":"La Baguette","shop":"bakery"}},
{"type":"Feature","geometry":{"type":"Point","coordinates":[-3.9804305,5.2970048]},"properties":{"name":"Le Repere II","shop":"bakery"}},
{"type":"Feature","geometry":{"type":"Point","coordinates":[-2.7983126,8.0386651]},"properties":{"name":"Bon Prix","shop":"supermarket"}},
{"type":"Feature","geometry":{"type":"Point","coordinates":[-5.2762601,6.8198227]},"properties":{"name":"Bon Prix","shop":"supermarket"}},
{"type":"Feature","geometry":{"type":"Point","coordinates":[-3.9814183,5.2882153]},"properties":{"name":"Boutique","shop":"convenience"}},
{"type":"Feature","geometry":{"type":"Point","coordinates":[-3.9785346,5.2866542]},"properties":{"name":"Boutique","shop":"convenience"}},
{"type":"Feature","geometry":{"type":"Point","coordinates":[-4.0199356999999999,5.4276174]},"properties":{"name":"Pain choco","shop":"bakery"}},
{"type":"Feature","geometry":{"type":"Point","coordinates":[-4.0061805,5.4135135]},"properties":{"name":"CDCI","shop":"supermarket"}},
{"type":"Feature","geometry":{"type":"Point","coordinates":[-4.0062046,5.4134236]},"properties":{"name":"Pain d’Or","shop":"bakery"}},
{"type":"Feature","geometry":{"type":"Point","coordinates":[-4.0068451,5.4153098]},"properties":{"name":"Royal","shop":"bakery"}},
{"type":"Feature","geometry":{"type":"Point","coordinates":[-4.0140304,5.4256422]},"properties":{"shop":"bakery"}},
{"type":"Feature","geometry":{"type":"Point","coordinates":[-4.015746,5.4124359]},"properties":{"name":"Akwaba Center","shop":"supermarket"}},
{"type":"Feature","geometry":{"type":"Point","coordinates":[-4.0156517,5.4121088]},"properties":{"name":"Boulangerie d’Anador","shop":"bakery"}},
{"type":"Feature","geometry":{"type":"Point","coordinates":[-4.0060276,5.4181092]},"properties":{"name":"Pain Choco","shop":"bakery"}},
{"type":"Feature","geometry":{"type":"Point","coordinates":[-4.0064812,5.3965621]},"properties":{"shop":"bakery"}},
{"type":"Feature","geometry":{"type":"Point","coordinates":[-4.0177914,5.3229214]},"properties":{"name":"Jour de marché","shop":"supermarket"}},
{"type":"Feature","geometry":{"type":"Point","coordinates":[-3.6197279,5.2421218]},"properties":{"amenity":"marketplace","name":"Petit Marche du Nouveau Quatier"}},
{"type":"Feature","geometry":{"type":"Point","coordinates":[-3.620572,5.239533]},"properties":{"name":"Boutique","shop":"convenience"}},
{"type":"Feature","geometry":{"type":"Point","coordinates":[-3.6215347,5.2405324]},"properties":{"name":"Boutique","shop":"convenience"}},
{"type":"Feature","geometry":{"type":"Point","coordinates":[-3.619682,5.244015]},"properties":{"name":"Boutique","shop":"convenience","source":"GPS"}},
{"type":"Feature","geometry":{"type":"Point","coordinates":[-3.628283,5.2454852]},"properties":{"brand":"Boutique","shop":"convenience"}},
{"type":"Feature","geometry":{"type":"Point","coordinates":[-3.6273122,5.2446418]},"properties":{"amenity":"marketplace","name":"Le marché"}},
{"type":"Feature","geometry":{"type":"Point","coordinates":[-3.6188808,5.2454492]},"properties":{"name":"Boutique","shop":"convenience","source":"GPS"}},
{"type":"Feature","geometry":{"type":"Point","coordinates":[-3.621525,5.2405262]},"properties":{"shop":"convenience"}},
{"type":"Feature","geometry":{"type":"Point","coordinates":[-3.6288044,5.2448953]},"properties":{"name":"Boutique","shop":"convenience"}},
{"type":"Feature","geometry":{"type":"Point","coordinates":[-3.620046,5.244577]},"properties":{"amenity":"fast_food","name":"Patisserie Coeur Marie","shop":"bakery","source":"GPS"}},
{"type":"Feature","geometry":{"type":"Point","coordinates":[-3.6172259,5.2410454]},"properties":{"name":"supermarché","shop":"supermarket"}},
{"type":"Feature","geometry":{"type":"Point","coordinates":[-3.6311118,5.2457785]},"properties":{"shop":"convenience"}},
{"type":"Feature","geometry":{"type":"Point","coordinates":[-3.629115,5.2445115]},"properties":{"name":"Boutique","shop":"convenience"}},
{"type":"Feature","geometry":{"type":"Point","coordinates":[-3.6204453,5.2415174]},"properties":{"name":"Boutique","shop":"convenience"}},
{"type":"Feature","geometry":{"type":"Point","coordinates":[-3.9779451,5.2863304]},"properties":{"name":"SuperMarche Mi-Gros","shop":"supermarket","source":"GPS"}},
{"type":"Feature","geometry":{"type":"Point","coordinates":[-4.3759224,5.3228221]},"properties":{"name":"Boulangerie l'épi d'or","shop":"bakery"}},
{"type":"Feature","geometry":{"type":"Point","coordinates":[-6.6303982,4.746165]},"properties":{"name":"First Limited","shop":"supermarket"}},
{"type":"Feature","geometry":{"type":"Point","coordinates":[-6.6351513,4.748125]},"properties":{"name":"Boulangerie - Pâtisserie l'angle plus","shop":"bakery"}},
{"type":"Feature","geometry":{"type":"Point","coordinates":[-3.9872221,5.2983417]},"properties":{"name":"HyperHayat","shop":"supermarket","source":"local knowledge"}},
{"type":"Feature","geometry":{"type":"Point","coordinates":[-3.979833,5.2938191]},"properties":{"name":"Master Food","note":"Matiere premiere patisserie","shop":"supermarket"}},
{"type":"Feature","geometry":{"type":"Point","coordinates":[-3.978334,5.2928876]},"properties":{"name":"Boutique Planète","shop":"convenience"}},
{"type":"Feature","geometry":{"type":"Point","coordinates":[-3.9849377,5.4050366]},"properties":{"name":"Top Pain","shop":"bakery"}},
{"type":"Feature","geometry":{"type":"Point","coordinates":[-3.9836425,5.4055444]},"properties":{"name":"CDCI","operator":"Compagnie de Distribution de Côte d'Ivoire (CDCI)","shop":"supermarket"}},
{"type":"Feature","geometry":{"type":"Point","coordinates":[-3.9995294,5.3731946]},"properties":{"name":"Hyper U","shop":"supermarket"}},
{"type":"Feature","geometry":{"type":"Point","coordinates":[-3.9637117,5.3032468]},"properties":{"name":"Boucherie Anou","shop":"butcher"}},
{"type":"Feature","geometry":{"type":"Point","coordinates":[-3.9400266,5.3079049]},"properties":{"shop":"bakery"}},
{"type":"Feature","geometry":{"type":"Point","coordinates":[-3.9368779,5.3099844]},"properties":{"shop":"bakery"}},
{"type":"Feature","geometry":{"type":"Point","coordinates":[-3.9905022,5.3723978]},"properties":{"access":"customers","barrier":"gate","bicycle":"yes","foot":"yes","motorcar":"yes","motorcycle":"yes"}},
{"type":"Feature","geometry":{"type":"Point","coordinates":[-4.0063712,5.4024701]},"properties":{"name":"Boulangerie de l'Etage Noir","shop":"bakery"}},
{"type":"Feature","geometry":{"type":"Point","coordinates":[-4.0066333,5.4023486]},"properties":{"name":"Boulangerie du Dokui","shop":"bakery"}},
{"type":"Feature","geometry":{"type":"Point","coordinates":[-4.0704171,5.3467466]},"properties":{"name":"Boulangerie Patisserie","shop":"bakery"}},
{"type":"Feature","geometry":{"type":"Point","coordinates":[-4.0153145,5.4394228]},"properties":{"name":"Boutique","shop":"convenience"}},
{"type":"Feature","geometry":{"type":"Point","coordinates":[-3.9662414,5.3559419]},"properties":{"name":"Casino Supermarché","shop":"supermarket"}},
{"type":"Feature","geometry":{"type":"Point","coordinates":[-3.9753887,5.3861016]},"properties":{"name":"Cash Center La Djibi","opening_hours":"Mo-Su 09:00-20:30","shop":"supermarket"}},
{"type":"Feature","geometry":{"type":"Point","coordinates":[-3.9751324,5.3859967]},"properties":{"name":"Point Chaud","shop":"bakery"}},
{"type":"Feature","geometry":{"type":"Point","coordinates":[-3.968781,5.2883944]},"properties":{"name":"Cash Ivoire U","shop":"supermarket"}},
{"type":"Feature","geometry":{"type":"Point","coordinates":[-3.9688513,5.2883853]},"properties":{"name":"Boulangerie Viennoiserie","shop":"bakery"}},
{"type":"Feature","geometry":{"type":"Point","coordinates":[-3.9691115,5.2888118]},"properties":{"name":"Cash Ivoire","shop":"supermarket"}},
{"type":"Feature","geometry":{"type":"Point","coordinates":[-4.097645,5.340675]},"properties":{"name":"Boulangerie Bass","shop":"bakery"}},
{"type":"Feature","geometry":{"type":"Point","coordinates":[-3.9851585,5.2870222]},"properties":{"addr:city":"Marcory","addr:country":"CI","addr:state":"Abidjan","addr:street":"Boulevard de Marseille","name":"Cash Center Zone 4","opening_hours":"Mo-Sa 08:30-19:30; Su,PH 09:00-13:00, 15:00-18:30","operator":"Société Prosuma (Société Ivoirienne de Promotion de Supermarchés)","shop":"supermarket"}},
{"type":"Feature","geometry":{"type":"Point","coordinates":[-3.9875435,5.2880289]},"properties":{"brand":"Paul","brand:wikidata":"Q3370417","name":"Paul","operator":"Boulangeries Paul SAS","shop":"bakery"}},
{"type":"Feature","geometry":{"type":"Point","coordinates":[-3.9855121,5.2869365]},"properties":{"addr:city":"Marcory","addr:country":"CI","addr:state":"Abidjan","addr:street":"Boulevard de Marseille","opening_hours":"Mo-Sa 08:30-19:30; Su,PH 09:00-13:00, 15:00-18:30","shop":"bakery"}},
{"type":"Feature","geometry":{"type":"Point","coordinates":[-3.9816799,5.2828854]},"properties":{"access":"permissive","addr:city":"Marcory","addr:country":"CI","addr:state":"Abidjan","addr:street":"Rue du Canal","addr:suburb":"Zone 4c","name":"Diplomatique Internationale Free Shop (DIFS)","phone":"+225-21.25.90.90","shop":"supermarket"}},
{"type":"Feature","geometry":{"type":"Point","coordinates":[-4.0831512,5.3553109]},"properties":{"name":"Boulangerie Opéra","shop":"bakery"}},
{"type":"Feature","geometry":{"type":"Point","coordinates":[-4.4203949,5.2042009]},"properties":{"shop":"supermarket"}},
{"type":"Feature","geometry":{"type":"Point","coordinates":[-4.0665138,5.3626066]},"properties":{"name":"Paris choco","shop":"bakery"}},
{"type":"Feature","geometry":{"type":"Point","coordinates":[-3.9829465,5.2949542]},"properties":{"addr:city":"Marcory","addr:country":"CI","addr:state":"Abidjan","addr:street":"Rue Pierre et Marie Curie","name":"Casino","shop":"supermarket"}},
{"type":"Feature","geometry":{"type":"Point","coordinates":[-3.9898912,5.3625466]},"properties":{"addr:city":"Cocody","addr:country":"CI","addr:state":"Abidjan","addr:street":"Rue des Jardins","addr:suburb":"Deux Plateaux","name":"Maison du Pain","shop":"bakery"}},
{"type":"Feature","geometry":{"type":"Point","coordinates":[-3.9899617,5.2947016]},"properties":{"addr:city":"Marcory","addr:country":"CI","addr:housenumber":"12","addr:state":"Abidjan","addr:street":"Rue du Chevalier de Clieu","addr:suburb":"Zone 3","name":"Patisserie Abidjanaise","opening_hours":"24/7","phone":"+225-21.35.53.40","shop":"bakery"}},
{"type":"Feature","geometry":{"type":"Point","coordinates":[-4.0969247,5.3190943]},"properties":{"shop":"bakery"}},
{"type":"Feature","geometry":{"type":"Point","coordinates":[-4.0272565,5.3716017]},"properties":{"name":"Boulangerie BMW","shop":"bakery"}},
{"type":"Feature","geometry":{"type":"Point","coordinates":[-3.9630854,5.2659139]},"properties":{"barrier":"entrance","bicycle":"yes","foot":"yes","motorcar":"yes","motorcycle":"yes"}},
{"type":"Feature","geometry":{"type":"Point","coordinates":[-3.7328368,5.2070898]},"properties":{"name":"Boutique","shop":"convenience"}},
{"type":"Feature","geometry":{"type":"Point","coordinates":[-3.7334295,5.2073701]},"properties":{"shop":"convenience"}},
{"type":"Feature","geometry":{"type":"Point","coordinates":[-3.7373378,5.2076713]},"properties":{"name":"Boutique","shop":"convenience"}},
{"type":"Feature","geometry":{"type":"Point","coordinates":[-4.3766897,5.3226384]},"properties":{"name":"King Cash","shop":"supermarket"}},
{"type":"Feature","geometry":{"type":"Point","coordinates":[-4.0111392,5.3979954]},"properties":{"name":"Boutique Ali","shop":"convenience","source":"Bing"}},
{"type":"Feature","geometry":{"type":"Point","coordinates":[-4.0108325,5.3975996]},"properties":{"shop":"convenience","source":"Bing"}},
{"type":"Feature","geometry":{"type":"Point","coordinates":[-4.0096509,5.399394]},"properties":{"name":"Superette du Dokui","shop":"supermarket"}},
{"type":"Feature","geometry":{"type":"Point","coordinates":[-3.7378007,5.2152054]},"properties":{"name":"Marché de la Ferme","shop":"convenience"}},
{"type":"Feature","geometry":{"type":"Point","coordinates":[-4.011263,5.3954338]},"properties":{"opening_hours":"24/7","shop":"convenience","wheelchair":"yes"}},
{"type":"Feature","geometry":{"type":"Point","coordinates":[-4.0117759,5.3960752]},"properties":{"opening_hours":"24/7","shop":"convenience","wheelchair":"yes"}},
{"type":"Feature","geometry":{"type":"Point","coordinates":[-3.9908182,5.4064042]},"properties":{"addr:city":"Cocody","addr:country":"CI","addr:state":"Abidjan","name":"Boulangerie Saint Ambroise","shop":"bakery"}},
{"type":"Feature","geometry":{"type":"Point","coordinates":[-3.1679981,7.802879]},"properties":{"name":"boucherie","shop":"butcher"}},
{"type":"Feature","geometry":{"type":"Point","coordinates":[-6.6302956,4.7462219]},"properties":{"amenity":"marketplace","name":"Marché de la cité"}},
{"type":"Feature","geometry":{"type":"Point","coordinates":[-6.6309245,4.7468073]},"properties":{"amenity":"marketplace","name":"Bureau de poste de la Cité","name:fr":"Marché"}},
{"type":"Feature","geometry":{"type":"Point","coordinates":[-3.8037582,6.1882423]},"properties":{"name":"Boutique","shop":"convenience"}},
{"type":"Feature","geometry":{"type":"Point","coordinates":[-3.7375145,5.2122351]},"properties":{"name":"boulangerie","shop":"bakery"}},
{"type":"Feature","geometry":{"type":"Point","coordinates":[-3.7349108,5.2103473]},"properties":{"name":"Boulangerie","shop":"bakery"}},
{"type":"Feature","geometry":{"type":"Point","coordinates":[-3.7330323,5.2067169]},"properties":{"name":"Boutique","shop":"convenience"}},
{"type":"Feature","geometry":{"type":"Point","coordinates":[-3.7339434,5.2071695]},"properties":{"name":"Boutique","shop":"convenience"}},
{"type":"Feature","geometry":{"type":"Point","coordinates":[-3.7324982,5.2081032]},"properties":{"name":"Boutique","shop":"convenience"}},
{"type":"Feature","geometry":{"type":"Point","coordinates":[-3.7306878,5.1954439]},"properties":{"shop":"convenience"}},
{"type":"Feature","geometry":{"type":"Point","coordinates":[-3.7542631,5.2109822]},"properties":{"name":"Bon Berger","shop":"bakery"}},
{"type":"Feature","geometry":{"type":"Point","coordinates":[-3.7449323,5.2087949]},"properties":{"name":"Délice de France","shop":"bakery"}},
{"type":"Feature","geometry":{"type":"Point","coordinates":[-3.7450455,5.2088333]},"properties":{"name":"Top Bugbet","shop":"supermarket"}},
{"type":"Feature","geometry":{"type":"Point","coordinates":[-4.0839464,5.3469415]},"properties":{"name":"Boulangerie","shop":"bakery"}},
{"type":"Feature","geometry":{"type":"Point","coordinates":[-4.0873956,5.3468242]},"properties":{"name":"Boulangerie Top Pain","shop":"bakery"}},
{"type":"Feature","geometry":{"type":"Point","coordinates":[-3.7373649,5.2008154]},"properties":{"name":"Abatoire","shop":"butcher"}},
{"type":"Feature","geometry":{"type":"Point","coordinates":[-4.1055546,5.3271257]},"properties":{"name":"Cash Saviely","shop":"supermarket"}},
{"type":"Feature","geometry":{"type":"Point","coordinates":[-3.9709537,5.2977262]},"properties":{"name":"kingcash","shop":"supermarket","wheelchair":"yes"}},
{"type":"Feature","geometry":{"type":"Point","coordinates":[-3.9710185,5.2975024]},"properties":{"name":"boulangerie","shop":"bakery"}},
{"type":"Feature","geometry":{"type":"Point","coordinates":[-3.9220326,5.3442112]},"properties":{"shop":"supermarket"}},
{"type":"Feature","geometry":{"type":"Point","coordinates":[-3.9220359,5.3441464]},"properties":{"shop":"bakery"}},
{"type":"Feature","geometry":{"type":"Point","coordinates":[-3.7334368000000004,5.2140638]},"properties":{"name":"Boutique","shop":"convenience"}},
{"type":"Feature","geometry":{"type":"Point","coordinates":[-3.7260532,5.2219271]},"properties":{"name":"Bonheur 1","shop":"supermarket"}},
{"type":"Feature","geometry":{"type":"Point","coordinates":[-3.7438181,5.212122]},"properties":{"name":"Superette","shop":"supermarket"}},
{"type":"Feature","geometry":{"type":"Point","coordinates":[-5.0544005,7.6861411]},"properties":{"name":"Boulangerie Ahougnansou","shop":"bakery"}},
{"type":"Feature","geometry":{"type":"Point","coordinates":[-5.0347985,7.699917]},"properties":{"amenity":"marketplace","name":"Petit Marché du CHU de Bouaké","project:anr_cohesion_bouake":"yes","source":"Standard DigitalGlobe, survey","source:date":"2018-05-03"}},
{"type":"Feature","geometry":{"type":"Point","coordinates":[-5.039314,7.7009289]},"properties":{"shop":"convenience"}},
{"type":"Feature","geometry":{"type":"Point","coordinates":[-5.0387269,7.6986211]},"properties":{"shop":"convenience"}},
{"type":"Feature","geometry":{"type":"Point","coordinates":[-5.0393979,7.699591]},"properties":{"shop":"convenience"}},
{"type":"Feature","geometry":{"type":"Point","coordinates":[-5.0397948,7.7008029]},"properties":{"shop":"convenience"}},
{"type":"Feature","geometry":{"type":"Point","coordinates":[-5.0380865,7.6967021]},"properties":{"shop":"convenience"}},
{"type":"Feature","geometry":{"type":"Point","coordinates":[-5.049344,7.6885652]},"properties":{"amenity":"marketplace","name":"petit marché pour élève"}},
{"type":"Feature","geometry":{"type":"Point","coordinates":[-3.9889271,5.3416593]},"properties":{"name":"Super marché de l'Université","opening_hours":"sunrise-sunset","shop":"supermarket","wheelchair":"yes"}},
{"type":"Feature","geometry":{"type":"Point","coordinates":[-5.0546651,7.680825]},"properties":{"shop":"convenience"}},
{"type":"Feature","geometry":{"type":"Point","coordinates":[-5.0553631,7.6823792]},"properties":{"name":"Boutique","shop":"convenience","source":"bing; survey"}},
{"type":"Feature","geometry":{"type":"Point","coordinates":[-5.0586625,7.6841982]},"properties":{"shop":"convenience"}},
{"type":"Feature","geometry":{"type":"Point","coordinates":[-5.0288184,7.6813077]},"properties":{"name":"Supermarché Sublime","shop":"convenience"}},
{"type":"Feature","geometry":{"type":"Point","coordinates":[-4.0144695,5.4271479]},"properties":{"name":"King Cash","shop":"supermarket"}},
{"type":"Feature","geometry":{"type":"Point","coordinates":[-4.0893118,5.3394075]},"properties":{"name":"Supermarché Guesch","shop":"supermarket"}},
{"type":"Feature","geometry":{"type":"Point","coordinates":[-4.0894022,5.3356615]},"properties":{"name":"Super Marché Bonprix Niangon","shop":"supermarket"}},
{"type":"Feature","geometry":{"type":"Point","coordinates":[-4.0137852,5.4245763]},"properties":{"name":"Boutique","shop":"convenience"}},
{"type":"Feature","geometry":{"type":"Point","coordinates":[-4.013398,5.425463]},"properties":{"shop":"convenience"}},
{"type":"Feature","geometry":{"type":"Point","coordinates":[-5.6293984,9.4414345]},"properties":{"projet:eboci":"yes","shop":"bakery"}},
{"type":"Feature","geometry":{"type":"Point","coordinates":[-3.9764231,5.3055586]},"properties":{"addr:city":"Marcory","addr:country":"CI","addr:state":"Abidjan","addr:street":"Rue E 7","name":"Supermarché Citydia","shop":"supermarket"}},
{"type":"Feature","geometry":{"type":"Point","coordinates":[-3.9915405,5.3022613]},"properties":{"name":"Hypermarché Carrefour","opening_hours":"Mo-Fr 08:30-20:30;Sa 08:30-21:30; Su,PH 08:30-19:00","operator":"Carrefour Côte d'Ivoire","shop":"supermarket"}},
{"type":"Feature","geometry":{"type":"Point","coordinates":[-3.7342132,5.2092816]},"properties":{"shop":"convenience"}},
{"type":"Feature","geometry":{"type":"Point","coordinates":[-3.7387082,5.2191726]},"properties":{"name":"Bagette d'Or","shop":"bakery"}},
{"type":"Feature","geometry":{"type":"Point","coordinates":[-3.7540357,5.2110999]},"properties":{"name":"Les noces de Canaan","shop":"supermarket"}},
{"type":"Feature","geometry":{"type":"Point","coordinates":[-3.7541228,5.2110514]},"properties":{"name":"Boucherie Charcuterie du Littoral","shop":"butcher"}},
{"type":"Feature","geometry":{"type":"Point","coordinates":[-3.7398429,5.2080569]},"properties":{"name":"Top Pain","shop":"bakery"}},
{"type":"Feature","geometry":{"type":"Point","coordinates":[-3.7383557,5.2079337]},"properties":{"name":"boutique","shop":"convenience"}},
{"type":"Feature","geometry":{"type":"Point","coordinates":[-4.0542247,5.322049]},"properties":{"name":"Super Marché Prix Abordable du Koweit","shop":"supermarket"}},
{"type":"Feature","geometry":{"type":"Point","coordinates":[-4.0543439,5.3221088]},"properties":{"name":"Magesin de Vente de Riz","shop":"convenience"}},
{"type":"Feature","geometry":{"type":"Point","coordinates":[-4.054934,5.3222522]},"properties":{"name":"Boutique","shop":"convenience"}},
{"type":"Feature","geometry":{"type":"Point","coordinates":[-4.0552766,5.3224331]},"properties":{"name":"Restaurant","shop":"convenience"}},
{"type":"Feature","geometry":{"type":"Point","coordinates":[-4.0558818,5.3230972]},"properties":{"name":"Boutique","shop":"convenience"}},
{"type":"Feature","geometry":{"type":"Point","coordinates":[-4.0562738,5.3233402]},"properties":{"name":"Boutique","shop":"convenience"}},
{"type":"Feature","geometry":{"type":"Point","coordinates":[-4.056072,5.3231988]},"properties":{"name":"Le Terroir Boucherie Charcuterie","shop":"butcher"}},
{"type":"Feature","geometry":{"type":"Point","coordinates":[-4.0568981,5.3234799]},"properties":{"name":"Boutique","shop":"convenience"}},
{"type":"Feature","geometry":{"type":"Point","coordinates":[-4.0574038,5.3234919]},"properties":{"name":"Boutique","shop":"convenience"}},
{"type":"Feature","geometry":{"type":"Point","coordinates":[-4.0585536,5.3234944]},"properties":{"name":"Boutique","shop":"convenience"}},
{"type":"Feature","geometry":{"type":"Point","coordinates":[-4.0579916,5.3235077]},"properties":{"shop":"convenience"}},
{"type":"Feature","geometry":{"type":"Point","coordinates":[-4.0593058,5.3234404]},"properties":{"name":"Boutique","shop":"convenience"}},
{"type":"Feature","geometry":{"type":"Point","coordinates":[-4.0568132,5.3237376]},"properties":{"name":"Boutique","shop":"convenience"}},
{"type":"Feature","geometry":{"type":"Point","coordinates":[-4.0583655,5.323774]},"properties":{"name":"Ivoire Boutique Superette","shop":"supermarket"}},
{"type":"Feature","geometry":{"type":"Point","coordinates":[-3.7393834,5.2156765]},"properties":{"name":"Boutique","shop":"convenience"}},
{"type":"Feature","geometry":{"type":"Point","coordinates":[-4.0494915,5.3223448]},"properties":{"name":"Boutique","shop":"convenience"}},
{"type":"Feature","geometry":{"type":"Point","coordinates":[-4.0502397,5.3224429]},"properties":{"brand":"Coqivoire","brand:wikidata":"Q60183284","butcher":"poultry","name":"Coqivoire","phone":"+225 07 08 54 23 32","shop":"butcher"}},
{"type":"Feature","geometry":{"type":"Point","coordinates":[-4.050583,5.3220753]},"properties":{"name":"Boutique","shop":"convenience"}},
{"type":"Feature","geometry":{"type":"Point","coordinates":[-4.0502177,5.3221397]},"properties":{"name":"Boutique","shop":"convenience"}},
{"type":"Feature","geometry":{"type":"Point","coordinates":[-4.0532166,5.32206]},"properties":{"name":"Boutique","shop":"convenience"}},
{"type":"Feature","geometry":{"type":"Point","coordinates":[-4.0533025,5.3220801]},"properties":{"name":"Boulangerie Patisserie Koweit","shop":"bakery"}},
{"type":"Feature","geometry":{"type":"Point","coordinates":[-4.0539287,5.3220525]},"properties":{"name":"Bijouterie","shop":"convenience"}},
{"type":"Feature","geometry":{"type":"Point","coordinates":[-4.0702979,5.3557153]},"properties":{"name":"Le Bon Prix","shop":"supermarket"}},
{"type":"Feature","geometry":{"type":"Point","coordinates":[-4.0062951,5.4062421]},"properties":{"name":"L'Epi d'or, boulangerie patisserie glacier","project:opencities_abidjan":"yes","shop":"bakery","source":"survey","source:date":"2021/02/26"}},
{"type":"Feature","geometry":{"type":"Point","coordinates":[-3.7312982,5.2067892]},"properties":{"name":"Chez Koyè","shop":"convenience"}},
{"type":"Feature","geometry":{"type":"Point","coordinates":[-4.1057938,5.3255078]},"properties":{"addr:city":"Yopougon","addr:country":"CI","addr:state":"Abidjan","addr:street":"Rue Cité Caféier","addr:suburb":"Caféier","name":"King Cash","shop":"supermarket"}},
{"type":"Feature","geometry":{"type":"Point","coordinates":[-5.1627724,9.0692366]},"properties":{"addr:city":"Tafiré","name":"King Kash Tafiré","shop":"supermarket"}},
{"type":"Feature","geometry":{"type":"Point","coordinates":[-5.5871296,5.1046928]},"properties":{"name":"Boulangerie","shop":"bakery"}},
{"type":"Feature","geometry":{"type":"Point","coordinates":[-3.9670905,5.3552229]},"properties":{"name":"Bien vu","shop":"convenience"}},
{"type":"Feature","geometry":{"type":"Point","coordinates":[-3.7676935,5.2229861]},"properties":{"name":"Boutique","shop":"convenience"}},
{"type":"Feature","geometry":{"type":"Point","coordinates":[-3.7623727,5.2216352]},"properties":{"name":"Boutique","shop":"convenience"}},
{"type":"Feature","geometry":{"type":"Point","coordinates":[-3.7666778,5.2166952]},"properties":{"name":"Boutique","shop":"convenience"}},
{"type":"Feature","geometry":{"type":"Point","coordinates":[-3.9760835,5.2801657]},"properties":{"name":"Yoyo supérette","shop":"convenience"}},
{"type":"Feature","geometry":{"type":"Point","coordinates":[-3.9761273,5.280899]},"properties":{"brand":"Carrefour Market","brand:wikidata":"Q2689639","brand:wikipedia":"fr:Carrefour Market","name":"Carrefour Market","shop":"supermarket","wheelchair":"yes"}},
{"type":"Feature","geometry":{"type":"Point","coordinates":[-3.9700181,5.2926257]},"properties":{"shop":"bakery"}},
{"type":"Feature","geometry":{"type":"Point","coordinates":[-3.3060432,5.2851704]},"properties":{"addr:city":"Adiaké","addr:country":"CI","amenity":"marketplace","name":"Petit marché","source":"bing"}},
{"type":"Feature","geometry":{"type":"Point","coordinates":[-3.7343405,5.2055035]},"properties":{"barrier":"gate","bicycle":"yes","foot":"yes","horse":"yes","motorcar":"no","motorcycle":"no"}},
{"type":"Feature","geometry":{"type":"Point","coordinates":[-3.7345772,5.2050446]},"properties":{"barrier":"gate","bicycle":"yes","foot":"yes"}},
{"type":"Feature","geometry":{"type":"Point","coordinates":[-3.7353693,5.2056037]},"properties":{"barrier":"gate","bicycle":"yes","foot":"yes"}},
{"type":"Feature","geometry":{"type":"Point","coordinates":[-3.8829517,5.3579742]},"properties":{"shop":"bakery"}},
{"type":"Feature","geometry":{"type":"Point","coordinates":[-3.4973992,6.727622]},"properties":{"shop":"bakery"}},
{"type":"Feature","geometry":{"type":"Point","coordinates":[-3.4875894,6.7301382]},"properties":{"name":"Supermarché Bonprix","shop":"supermarket"}},
{"type":"Feature","geometry":{"type":"Point","coordinates":[-3.4883443,6.7312061]},"properties":{"shop":"supermarket"}},
{"type":"Feature","geometry":{"type":"Point","coordinates":[-3.4888597,6.7307188]},"properties":{"name":"Super marché chez Rizkallah Michel","shop":"supermarket"}},
{"type":"Feature","geometry":{"type":"Point","coordinates":[-4.077222,5.3392636]},"properties":{"addr:city":"Yopougon","addr:country":"CI","addr:state":"Abidjan","addr:street":"Rue P20","amenity":"marketplace","name":"Marché de Sicogi"}},
{"type":"Feature","geometry":{"type":"Point","coordinates":[-4.0799378,5.3424851]},"properties":{"name":"King Cash","shop":"supermarket","source":"bing"}},
{"type":"Feature","geometry":{"type":"Point","coordinates":[-4.0738361,5.3398417]},"properties":{"addr:city":"Yopougon","addr:country":"CI","addr:state":"Abidjan","addr:street":"Rue P20","name":"King Cash","shop":"supermarket"}},
{"type":"Feature","geometry":{"type":"Point","coordinates":[-4.0737891,5.3392568]},"properties":{"addr:city":"Yopougon","addr:country":"CI","addr:state":"Abidjan","addr:street":"Rue P20","name":"Cash Ivoire","shop":"supermarket"}},
{"type":"Feature","geometry":{"type":"Point","coordinates":[-3.9456942,5.3117816]},"properties":{"shop":"bakery"}},
{"type":"Feature","geometry":{"type":"Point","coordinates":[-3.9783055,5.3921093]},"properties":{"name":"Boulangerie Française","project:opencities_abidjan":"yes","shop":"bakery","source":"survey","source:date":"2021-02-25"}},
{"type":"Feature","geometry":{"type":"Point","coordinates":[-3.9596106,5.3546995]},"properties":{"alt_name":"Des Gateaux & des Pains","name":"Des gâteaux et du pain","shop":"bakery"}},
{"type":"Feature","geometry":{"type":"Point","coordinates":[-5.5866678,5.103634]},"properties":{"name":"Supermarché","shop":"supermarket"}},
{"type":"Feature","geometry":{"type":"Point","coordinates":[-5.5877967,5.1037581]},"properties":{"addr:city":"Fresco","name":"Boutique Valentin","operator":"Boutique Valentin","shop":"supermarket"}},
{"type":"Feature","geometry":{"type":"Point","coordinates":[-4.014749,5.3065279]},"properties":{"name":"Magasin CDCI Gros","shop":"supermarket"}},
{"type":"Feature","geometry":{"type":"Point","coordinates":[-3.9784079,5.2814322]},"properties":{"name":"Boulangerie du Canal","shop":"bakery"}},
{"type":"Feature","geometry":{"type":"Point","coordinates":[-3.9977564,5.3623728]},"properties":{"name":"Champs Elysées","shop":"bakery"}},
{"type":"Feature","geometry":{"type":"Point","coordinates":[-3.9711185,5.2884007]},"properties":{"amenity":"marketplace","surface":"paved"}},
{"type":"Feature","geometry":{"type":"Point","coordinates":[-3.9799039,5.3027473]},"properties":{"name":"Boulangerie Miady","shop":"bakery","wheelchair":"limited"}},
{"type":"Feature","geometry":{"type":"Point","coordinates":[-3.9820025,5.3039393]},"properties":{"name":"Boulangerie","shop":"bakery","wheelchair":"yes"}},
{"type":"Feature","geometry":{"type":"Point","coordinates":[-3.9743866,5.2999983]},"properties":{"name":"bonne miche","shop":"bakery","wheelchair":"yes"}},
{"type":"Feature","geometry":{"type":"Point","coordinates":[-6.5919462,5.5703074]},"properties":{"name":"King Cash","shop":"supermarket"}},
{"type":"Feature","geometry":{"type":"Point","coordinates":[-6.5908102,5.5675001]},"properties":{"amenity":"marketplace","name":"Marché d'Oupoyo"}},
{"type":"Feature","geometry":{"type":"Point","coordinates":[-4.1003268,5.3407463]},"properties":{"name":"Pain Chaud","shop":"bakery"}},
{"type":"Feature","geometry":{"type":"Point","coordinates":[-4.0994415,5.3464321]},"properties":{"name":"Chez Bah","shop":"convenience"}},
{"type":"Feature","geometry":{"type":"Point","coordinates":[-3.9757283,5.2728479]},"properties":{"addr:street":"Boulevard de Marseille","name":"La Maisonnée","shop":"supermarket"}},
{"type":"Feature","geometry":{"type":"Point","coordinates":[-3.977861,5.2743389]},"properties":{"name":"Supermarché Bon Prix","shop":"supermarket"}},
{"type":"Feature","geometry":{"type":"Point","coordinates":[-3.9793023,5.2742848]},"properties":{"name":"Boulangerie de Bietry","shop":"bakery"}},
{"type":"Feature","geometry":{"type":"Point","coordinates":[-5.63275,9.4581617]},"properties":{"name":"L'Epi d'Or","opening_hours":"24/7","shop":"bakery","source":"survey","source:date":"2023-08-04"}},
{"type":"Feature","geometry":{"type":"Point","coordinates":[-5.0147396,7.6919642]},"properties":{"name":"Boulangerie Liberté Sokoura","shop":"bakery"}},
{"type":"Feature","geometry":{"type":"Point","coordinates":[-5.0277782,7.6969312]},"properties":{"name":"Bon Prix","shop":"supermarket"}},
{"type":"Feature","geometry":{"type":"Point","coordinates":[-5.065693,7.6718562]},"properties":{"amenity":"marketplace","name":"Petit Marché de N'Dakro","project:anr_cohesion_bouake":"yes","source":"survey","source:date":"2018-04-14"}},
{"type":"Feature","geometry":{"type":"Point","coordinates":[-5.0275058,7.6900361]},"properties":{"shop":"butcher"}},
{"type":"Feature","geometry":{"type":"Point","coordinates":[-5.0277407,7.6901336]},"properties":{"shop":"butcher"}},
{"type":"Feature","geometry":{"type":"Point","coordinates":[-5.0274629,7.6900561]},"properties":{"shop":"convenience"}},
{"type":"Feature","geometry":{"type":"Point","coordinates":[-5.6266477,9.4765265]},"properties":{"projet:eboci":"yes","shop":"convenience"}},
{"type":"Feature","geometry":{"type":"Point","coordinates":[-5.625579,9.4778279]},"properties":{"projet:eboci":"yes","shop":"convenience"}},
{"type":"Feature","geometry":{"type":"Point","coordinates":[-5.6342886,9.4700394]},"properties":{"projet:eboci":"yes","shop":"convenience"}},
{"type":"Feature","geometry":{"type":"Point","coordinates":[-4.0197946,5.3229206]},"properties":{"name":"marcé diekona","shop":"supermarket"}},
{"type":"Feature","geometry":{"type":"Point","coordinates":[-3.0008023,9.271972]},"properties":{"shop":"supermarket"}},
{"type":"Feature","geometry":{"type":"Point","coordinates":[-4.019957,5.4274644]},"properties":{"name":"Pain Choco","shop":"bakery"}},
{"type":"Feature","geometry":{"type":"Point","coordinates":[-4.2072032,6.6518228]},"properties":{"amenity":"marketplace","name":"Petit Marché","wheelchair":"yes"}},
{"type":"Feature","geometry":{"type":"Point","coordinates":[-7.355954,4.4139079]},"properties":{"amenity":"marketplace","name":"grand marché"}},
{"type":"Feature","geometry":{"type":"Point","coordinates":[-4.2099313,6.6538766]},"properties":{"name":"King Cash","shop":"supermarket","wheelchair":"yes"}},
{"type":"Feature","geometry":{"type":"Point","coordinates":[-6.4624505,6.8834826]},"properties":{"name":"Diarasouba","shop":"bakery"}},
{"type":"Feature","geometry":{"type":"Point","coordinates":[-3.4955104,6.7276451]},"properties":{"shop":"supermarket"}},
{"type":"Feature","geometry":{"type":"Point","coordinates":[-4.0747638,5.342164]},"properties":{"shop":"convenience"}},
{"type":"Feature","geometry":{"type":"Point","coordinates":[-3.9990144,5.3728026]},"properties":{"name":"So coco","shop":"supermarket"}},
{"type":"Feature","geometry":{"type":"Point","coordinates":[-4.0993303,5.3193564]},"properties":{"name":"El Mounah","shop":"convenience"}},
{"type":"Feature","geometry":{"type":"Point","coordinates":[-4.01361,5.3602125]},"properties":{"addr:street":"Mess d'agban","internet_access":"wlan","name":"Mess d'agban","opening_hours":"Mo-Su 07:00-22:00","shop":"convenience"}},
{"type":"Feature","geometry":{"type":"Point","coordinates":[-4.0615056,5.3189881]},"properties":{"name":"King Cash","shop":"supermarket"}},
{"type":"Feature","geometry":{"type":"Point","coordinates":[-3.9839021,5.4224427]},"properties":{"addr:city":"Angré Cocoteraie","addr:postcode":"225","amenity":"marketplace","name":"Marché Valentin"}},
{"type":"Feature","geometry":{"type":"Point","coordinates":[-4.1097971,5.3259128]},"properties":{"name":"Superette Ahmed","shop":"convenience"}},
{"type":"Feature","geometry":{"type":"Point","coordinates":[-4.1100549,5.3272196]},"properties":{"name":"Pains et délices","shop":"bakery"}},
{"type":"Feature","geometry":{"type":"Point","coordinates":[-4.103469,5.3297571]},"properties":{"name":"Top Qualitée","shop":"bakery"}},
{"type":"Feature","geometry":{"type":"Point","coordinates":[-4.0113877,5.3035445]},"properties":{"name":"King Cash","shop":"supermarket"}},
{"type":"Feature","geometry":{"type":"Point","coordinates":[-4.0937432,5.32147]},"properties":{"name":"Superette Rockmarket","shop":"convenience"}},
{"type":"Feature","geometry":{"type":"Point","coordinates":[-4.0663488,5.3559955]},"properties":{"name":"L’artisan","shop":"bakery"}},
{"type":"Feature","geometry":{"type":"Point","coordinates":[-4.0553402,5.3318135]},"properties":{"name":"Cash Ivoire","shop":"supermarket"}},
{"type":"Feature","geometry":{"type":"Point","coordinates":[-3.9946004,5.4301572]},"properties":{"name":"Boutique","opening_hours":"Mo-Su 05:00-23:00","shop":"convenience"}},
{"type":"Feature","geometry":{"type":"Point","coordinates":[-3.9887747,5.3911935]},"properties":{"fid":"279","name":"Paris Baguette Boulangerie","project:opencities_abidjan":"yes","shop":"bakery","source":"survey","source:date":"2021-02-25"}},
{"type":"Feature","geometry":{"type":"Point","coordinates":[-3.9914931,5.4299188]},"properties":{"name":"boutique","shop":"convenience"}},
{"type":"Feature","geometry":{"type":"Point","coordinates":[-3.9905045,5.4297474]},"properties":{"name":"boutique","shop":"convenience"}},
{"type":"Feature","geometry":{"type":"Point","coordinates":[-3.9939165,5.4311919]},"properties":{"name":"Boutique Lamsa","shop":"convenience"}},
{"type":"Feature","geometry":{"type":"Point","coordinates":[-3.9930694,5.3081325]},"properties":{"name":"Indian souk","name:en":"Indian super market","name:fr":"Indian souk","shop":"supermarket"}},
{"type":"Feature","geometry":{"type":"Point","coordinates":[-3.999758,5.2969766]},"properties":{"name":"Socoprix","shop":"supermarket"}},
{"type":"Feature","geometry":{"type":"Point","coordinates":[-3.7348073,5.2076371]},"properties":{"name":"Boulangerie Imperiale","shop":"bakery"}},
{"type":"Feature","geometry":{"type":"Point","coordinates":[-5.0425953,7.7013068]},"properties":{"shop":"convenience"}},
{"type":"Feature","geometry":{"type":"Point","coordinates":[-5.0431789,7.7019959]},"properties":{"shop":"convenience"}},
{"type":"Feature","geometry":{"type":"Point","coordinates":[-5.0434675,7.7031324]},"properties":{"shop":"convenience"}},
{"type":"Feature","geometry":{"type":"Point","coordinates":[-5.0401387,7.7024644]},"properties":{"shop":"convenience"}},
{"type":"Feature","geometry":{"type":"Point","coordinates":[-5.0408402,7.70196]},"properties":{"shop":"convenience"}},
{"type":"Feature","geometry":{"type":"Point","coordinates":[-5.0408298,7.7019846]},"properties":{"shop":"convenience"}},
{"type":"Feature","geometry":{"type":"Point","coordinates":[-5.0214996,7.6868331]},"properties":{"name":"Superette Wague","shop":"convenience"}},
{"type":"Feature","geometry":{"type":"Point","coordinates":[-5.0193848,7.6874532]},"properties":{"shop":"convenience"}},
{"type":"Feature","geometry":{"type":"Point","coordinates":[-5.0190629,7.6884094]},"properties":{"shop":"convenience"}},
{"type":"Feature","geometry":{"type":"Point","coordinates":[-5.0209408,7.68528]},"properties":{"shop":"convenience"}},
{"type":"Feature","geometry":{"type":"Point","coordinates":[-5.0239615,7.6885449]},"properties":{"shop":"butcher"}},
{"type":"Feature","geometry":{"type":"Point","coordinates":[-5.0234532,7.6888187]},"properties":{"shop":"convenience","source":"survey"}},
{"type":"Feature","geometry":{"type":"Point","coordinates":[-5.0220687,7.6884553]},"properties":{"shop":"bakery","source":"survey"}},
{"type":"Feature","geometry":{"type":"Point","coordinates":[-4.0736519,5.3392941]},"properties":{"name":"Boulangerie Pensée-Santé","shop":"bakery"}},
{"type":"Feature","geometry":{"type":"Point","coordinates":[-3.9590731,5.3618892]},"properties":{"name":"La maison des Pains","shop":"bakery"}},
{"type":"Feature","geometry":{"type":"Point","coordinates":[-5.0179709,7.6709646]},"properties":{"addr:street":"Bouaké Air France 2","name":"Superette TSF","shop":"convenience"}},
{"type":"Feature","geometry":{"type":"Point","coordinates":[-5.0178394,7.671045]},"properties":{"name":"Groupe Sispanico","shop":"bakery"}},
{"type":"Feature","geometry":{"type":"Point","coordinates":[-3.9913962,5.3096865]},"properties":{"name":"Maison du Pain","shop":"bakery"}},
{"type":"Feature","geometry":{"type":"Point","coordinates":[-3.9836611,5.4038283]},"properties":{"name":"Cash Express","shop":"supermarket"}},
{"type":"Feature","geometry":{"type":"Point","coordinates":[-4.0010716,5.3395763]},"properties":{"name":"Le Terroir","shop":"butcher","wheelchair":"limited"}},
{"type":"Feature","geometry":{"type":"Point","coordinates":[-3.9809094,5.4132153]},"properties":{"name":"Supermarché","shop":"supermarket"}},
{"type":"Feature","geometry":{"type":"Point","coordinates":[-4.0875542,5.3469103]},"properties":{"name":"CDI","shop":"supermarket"}},
{"type":"Feature","geometry":{"type":"Point","coordinates":[-4.0128607,5.3189105]},"properties":{"name":"Theo Supermarché","shop":"supermarket"}},
{"type":"Feature","geometry":{"type":"Point","coordinates":[-4.0882996,5.3212826]},"properties":{"brand":"Coqivoire","brand:wikidata":"Q60183284","butcher":"poultry","name":"Coqivoire","opening_hours":"Mo-Fr 07:30-13:00,15:00-18:00; Sa 07:30-18:00; Su 08:00-13:00; PH 08:00-13:00","phone":"+225 07 89 41 61 62","shop":"butcher"}},
{"type":"Feature","geometry":{"type":"Point","coordinates":[-3.9911485,5.3987725]},"properties":{"name":"Jour de marché","shop":"supermarket"}},
{"type":"Feature","geometry":{"type":"Point","coordinates":[-5.0270922,7.6802262]},"properties":{"name":"Qualicoq","shop":"convenience"}},
{"type":"Feature","geometry":{"type":"Point","coordinates":[-5.0281607,7.6803398]},"properties":{"name":"Sococe Superette","opening_hours":"08:00-21:00","shop":"supermarket"}},
{"type":"Feature","geometry":{"type":"Point","coordinates":[-5.0603714,7.6932799]},"properties":{"shop":"convenience"}},
{"type":"Feature","geometry":{"type":"Point","coordinates":[-5.0339353,7.6905738]},"properties":{"butcher":"poultry","name":"Foani","note":"vente de poulet congelé","shop":"butcher"}},
{"type":"Feature","geometry":{"type":"Point","coordinates":[-5.0320568,7.6924926]},"properties":{"name":"Boulangerie Ivoirienne Bouaké","shop":"bakery"}},
{"type":"Feature","geometry":{"type":"Point","coordinates":[-5.937364,6.1175087]},"properties":{"name":"KingCash CDCI","name:fr":"KingCash CDCI","shop":"convenience"}},
{"type":"Feature","geometry":{"type":"Point","coordinates":[-5.9467498,6.1269064]},"properties":{"name":"Top Pain","name:fr":"Top Pain","shop":"bakery"}},
{"type":"Feature","geometry":{"type":"Point","coordinates":[-5.9447265,6.129965]},"properties":{"name":"SOCOCE","shop":"supermarket"}},
{"type":"Feature","geometry":{"type":"Point","coordinates":[-4.0909416,5.3217699]},"properties":{"shop":"convenience"}},
{"type":"Feature","geometry":{"type":"Point","coordinates":[-5.9434477,6.1321166]},"properties":{"name":"Boulangerie Meilleur Des Pains","shop":"bakery"}},
{"type":"Feature","geometry":{"type":"Point","coordinates":[-4.062469,5.3402791]},"properties":{"name":"La Cigale","shop":"bakery"}},
{"type":"Feature","geometry":{"type":"Point","coordinates":[-3.9993562,5.2971197]},"properties":{"name":"Club Sococe","shop":"supermarket"}},
{"type":"Feature","geometry":{"type":"Point","coordinates":[-3.9997881,5.2977278]},"properties":{"name":"Socofrais","shop":"supermarket"}},
{"type":"Feature","geometry":{"type":"Point","coordinates":[-3.2525283,7.488426]},"properties":{"amenity":"marketplace","name":"Marché de Koun-Fao"}},
{"type":"Feature","geometry":{"type":"Point","coordinates":[-4.0624978,5.3397061]},"properties":{"name":"Supermarché Faith Cash","shop":"convenience"}},
{"type":"Feature","geometry":{"type":"Point","coordinates":[-7.3444395,6.7370093]},"properties":{"name":"Pain d'or","shop":"bakery"}},
{"type":"Feature","geometry":{"type":"Point","coordinates":[-7.3448425,6.7460171]},"properties":{"name":"King Cash","shop":"supermarket","source":"survey"}},
{"type":"Feature","geometry":{"type":"Point","coordinates":[-4.000528,5.2963023]},"properties":{"name":"Le terroir","shop":"butcher"}},
{"type":"Feature","geometry":{"type":"Point","coordinates":[-4.0346038,5.3503308]},"properties":{"name":"Boulangerie G.Z de la paix","shop":"bakery"}},
{"type":"Feature","geometry":{"type":"Point","coordinates":[-4.0345921,5.351345]},"properties":{"addr:street":"Boulevard Felix Houphouët Boigny","name":"Boulangerie Café Amigo Pâtisserie Glacier","shop":"bakery"}},
{"type":"Feature","geometry":{"type":"Point","coordinates":[-4.0345778,5.3518397]},"properties":{"addr:street":"Boulevard Felix Houphouët Boigny","name":"Super marché Dogon","shop":"convenience"}},
{"type":"Feature","geometry":{"type":"Point","coordinates":[-4.0141154,5.4393782]},"properties":{"name":"Boulangerie Pain Choco","shop":"bakery"}},
{"type":"Feature","geometry":{"type":"Point","coordinates":[-4.0254584,5.376466]},"properties":{"name":"Festival des pains","shop":"bakery"}},
{"type":"Feature","geometry":{"type":"Point","coordinates":[-4.0214734,5.3557254]},"properties":{"fixme":"resurvey","name":"Bonprix","shop":"supermarket"}},
{"type":"Feature","geometry":{"type":"Point","coordinates":[-4.0239172,5.4297649]},"properties":{"name":"King Cash Avocatier","shop":"supermarket"}},
{"type":"Feature","geometry":{"type":"Point","coordinates":[-3.7650895,5.2110493]},"properties":{"name":"Ideal market","name:fr":"Ideal market","opening_hours":"Mo-Su 08:00-20:00","shop":"supermarket"}},
{"type":"Feature","geometry":{"type":"Point","coordinates":[-3.9805508,5.4128865]},"properties":{"name":"Sococé","name:fr":"Sococé","shop":"supermarket"}},
{"type":"Feature","geometry":{"type":"Point","coordinates":[-3.9913645,5.401109]},"properties":{"name":"Citydia","name:fr":"Citydia","shop":"supermarket"}},
{"type":"Feature","geometry":{"type":"Point","coordinates":[-3.9862461,5.4090378]},"properties":{"name":"Supérette les Allées","name:fr":"Supérette les Allées","shop":"convenience"}},
{"type":"Feature","geometry":{"type":"Point","coordinates":[-3.9808152,5.4127266]},"properties":{"name":"Supérette du Château","name:fr":"Supérette du Château","shop":"convenience"}},
{"type":"Feature","geometry":{"type":"Point","coordinates":[-5.9448739,6.1296409]},"properties":{"name":"CDCI","name:fr":"CDCI","shop":"supermarket"}},
{"type":"Feature","geometry":{"type":"Point","coordinates":[-3.2022394,7.1315828]},"properties":{"name":"Supermarché Bon Prix","shop":"supermarket"}},
{"type":"Feature","geometry":{"type":"Point","coordinates":[-6.0507931,6.925968]},"properties":{"name":"Supermarche CDCI 1/2 Gros","shop":"supermarket"}},
{"type":"Feature","geometry":{"type":"Point","coordinates":[-4.1061048,5.32541]},"properties":{"name":"Pain Ivoire","shop":"bakery"}},
{"type":"Feature","geometry":{"type":"Point","coordinates":[-6.6528819,4.7784421]},"properties":{"name":"CDCI","opening_hours":"Mo-Su 08:00-19:00","shop":"supermarket"}},
{"type":"Feature","geometry":{"type":"Point","coordinates":[-4.1125973,5.3380118]},"properties":{"name":"Superette Prix-choco","shop":"convenience"}},
{"type":"Feature","geometry":{"type":"Point","coordinates":[-3.9928099,5.302482]},"properties":{"amenity":"fast_food","brand":"Brioche Dorée","brand:wikidata":"Q2925606","cuisine":"sandwich","name":"Brioche Dorée","opening_hours":"Mo-Fr 06:30-22:00;Sa,Su,PH 06:30-23:00","outdoor_seating":"no","shop":"bakery","smoking":"no","takeaway":"yes"}},
{"type":"Feature","geometry":{"type":"Point","coordinates":[-4.1855692,5.469301]},"properties":{"addr:city":"Attinguié","amenity":"marketplace","name":"Marché"}},
{"type":"Feature","geometry":{"type":"Point","coordinates":[-4.1486621,5.3417018]},"properties":{"shop":"convenience"}},
{"type":"Feature","geometry":{"type":"Point","coordinates":[-4.1059458,5.3286099]},"properties":{"shop":"bakery"}},
{"type":"Feature","geometry":{"type":"Point","coordinates":[-4.0909225,5.3214545]},"properties":{"name":"SML Supermarché","shop":"convenience"}},
{"type":"Feature","geometry":{"type":"Point","coordinates":[-3.9990593,5.3738433]},"properties":{"name":"Cipradel Plus","phone":"08076239","shop":"convenience"}},
{"type":"Feature","geometry":{"type":"Point","coordinates":[-6.6419671,4.7436066]},"properties":{"name":"Succès lac pavé","name:fr":"Succès lac pavé","shop":"convenience"}},
{"type":"Feature","geometry":{"type":"Point","coordinates":[-6.6416982,4.7429849]},"properties":{"name":"CRRF PAVE","name:fr":"CRRF PAVE","shop":"convenience"}},
{"type":"Feature","geometry":{"type":"Point","coordinates":[-4.0206892,5.4419617]},"properties":{"shop":"bakery"}},
{"type":"Feature","geometry":{"type":"Point","coordinates":[-6.6428368,4.7439987]},"properties":{"name":"Nescafé Boutique","name:fr":"Nescafé Boutique","shop":"convenience"}},
{"type":"Feature","geometry":{"type":"Point","coordinates":[-6.6463033,4.7440633]},"properties":{"name":"Supérette bon prix chez Ali","name:fr":"Supérette bon prix chez Ali","shop":"convenience"}},
{"type":"Feature","geometry":{"type":"Point","coordinates":[-3.5961854,5.270418]},"properties":{"shop":"convenience"}},
{"type":"Feature","geometry":{"type":"Point","coordinates":[-4.026296,5.3478029]},"properties":{"name":"Chez Abou","name:fr":"Chez Abou","shop":"supermarket"}},
{"type":"Feature","geometry":{"type":"Point","coordinates":[-3.6827531,8.1177188]},"properties":{"addr:postcode":"+225","name":"Marché","name:en":"Market","name:fr":"Marché","shop":"butcher"}},
{"type":"Feature","geometry":{"type":"Point","coordinates":[-4.0912353,5.3275644]},"properties":{"shop":"convenience"}},
{"type":"Feature","geometry":{"type":"Point","coordinates":[-5.0274425,7.6977765]},"properties":{"access":"permissive","barrier":"gate","bicycle":"yes","foot":"yes","motorcar":"yes","motorcycle":"yes"}},
{"type":"Feature","geometry":{"type":"Point","coordinates":[-5.0274468,7.6975832]},"properties":{"access":"permissive","barrier":"gate","bicycle":"yes","foot":"yes","motorcar":"yes","motorcycle":"yes"}},
{"type":"Feature","geometry":{"type":"Point","coordinates":[-3.9882014,5.3016957]},"properties":{"name":"Ganamet freres","name:fr":"Ganamet freres","shop":"supermarket"}},
{"type":"Feature","geometry":{"type":"Point","coordinates":[-3.9774696,5.2739797]},"properties":{"addr:street":"Boulevard de Marseille","internet_access":"wlan","name":"Casino 01","name:fr":"Casino 01","opening_hours":"24/7","shop":"supermarket"}},
{"type":"Feature","geometry":{"type":"Point","coordinates":[-4.0122594,5.4348369]},"properties":{"addr:street":"Q 134","name":"Top Pain","project:opencities_abidjan":"yes","shop":"bakery","source":"survey","source:date":"2021/02/25"}},
{"type":"Feature","geometry":{"type":"Point","coordinates":[-3.9774775,5.2739058]},"properties":{"addr:city":"Abidjan","addr:street":"Boulevard de Marseille","internet_access":"wlan","name":"Casino Mandarine","name:fr":"Casino Mandarine","opening_hours":"24/7","payment:cash":"yes","payment:credit_cards":"yes","payment:debit_cards":"yes","payment:mastercard":"yes","payment:telephone_cards":"yes","payment:visa":"yes","shop":"supermarket"}},
{"type":"Feature","geometry":{"type":"Point","coordinates":[-3.9766127,5.351125]},"properties":{"addr:city":"Cocody","addr:street":"Rue D33","name":"L'Abidjanaise","shop":"supermarket"}},
{"type":"Feature","geometry":{"type":"Point","coordinates":[-3.9762559,5.3498698]},"properties":{"addr:city":"Cocody","addr:street":"Rue D33","name":"Paradis des prix","shop":"supermarket"}},
{"type":"Feature","geometry":{"type":"Point","coordinates":[-3.9765681,5.3510201]},"properties":{"addr:city":"Cocody","addr:street":"Rue D33","name":"Boulangerie Patisserie","shop":"bakery"}},
{"type":"Feature","geometry":{"type":"Point","coordinates":[-3.9752382,5.3471226]},"properties":{"addr:city":"Cocody","addr:street":"Rue D33","fid":"34","name":"Boulangerie","project:opencities_abidjan":"yes","shop":"bakery","source":"survey","source:date":"23/02/2021"}},
{"type":"Feature","geometry":{"type":"Point","coordinates":[-4.0066333,5.3992828]},"properties":{"opening_hours":"06:00-23:00","shop":"supermarket"}},
{"type":"Feature","geometry":{"type":"Point","coordinates":[-4.006306,5.4011155]},"properties":{"name":"King Cash","shop":"supermarket"}},
{"type":"Feature","geometry":{"type":"Point","coordinates":[-4.0084329,5.399268]},"properties":{"amenity":"marketplace","name":"Petit Marche"}},
{"type":"Feature","geometry":{"type":"Point","coordinates":[-4.7034874,6.825423]},"properties":{"amenity":"marketplace"}},
{"type":"Feature","geometry":{"type":"Point","coordinates":[-3.961665,5.373855]},"properties":{"description":"Supermaché bien située au carrefour, point de repere pour le retrouver facilement dans la palmeraie.","name":"Quick Market Rosiers","opening_hours":"8:00-21:00","shop":"supermarket"}},
{"type":"Feature","geometry":{"type":"Point","coordinates":[-6.6470573,4.7757084]},"properties":{"name":"Chez INOUS","name:fr":"Chez INOUS","shop":"convenience"}},
{"type":"Feature","geometry":{"type":"Point","coordinates":[-4.0251698,5.3531693]},"properties":{"name":"Bon prix","name:fr":"Bon prix","shop":"supermarket"}},
{"type":"Feature","geometry":{"type":"Point","coordinates":[-5.4191076,6.3810702]},"properties":{"addr:city":"Oumé","addr:street":"Rue Principale Oumé","name":"CDCI","operator":"CDCI","shop":"supermarket"}},
{"type":"Feature","geometry":{"type":"Point","coordinates":[-3.938016,5.3690394]},"properties":{"name":"Boulangerie Delice","shop":"bakery"}},
{"type":"Feature","geometry":{"type":"Point","coordinates":[-3.9671792,5.2911458]},"properties":{"name":"Boulangerie Patisserie Le pain de la ville","shop":"bakery"}},
{"type":"Feature","geometry":{"type":"Point","coordinates":[-3.9663343,5.2913568]},"properties":{"name":"Boutique","shop":"convenience"}},
{"type":"Feature","geometry":{"type":"Point","coordinates":[-3.5943941,5.271986]},"properties":{"name":"Bon prix","shop":"supermarket"}},
{"type":"Feature","geometry":{"type":"Point","coordinates":[-4.0878291,5.3356534]},"properties":{"name":"Pain royal","shop":"bakery"}},
{"type":"Feature","geometry":{"type":"Point","coordinates":[-3.9928907,5.3850525]},"properties":{"name":"Top baguette","name:fr":"Top baguette","shop":"bakery"}},
{"type":"Feature","geometry":{"type":"Point","coordinates":[-3.9982612,5.3750257]},"properties":{"name":"Le roi du pain","name:fr":"Le roi du pain","shop":"bakery"}},
{"type":"Feature","geometry":{"type":"Point","coordinates":[-4.0603166,5.3288716]},"properties":{"name":"King cash","name:fr":"King cash","shop":"supermarket"}},
{"type":"Feature","geometry":{"type":"Point","coordinates":[-3.960604,7.0571206]},"properties":{"name":"King Cash","shop":"supermarket"}},
{"type":"Feature","geometry":{"type":"Point","coordinates":[-3.9582154,5.3804916]},"properties":{"shop":"bakery"}},
{"type":"Feature","geometry":{"type":"Point","coordinates":[-3.9617646,5.3496094]},"properties":{"shop":"convenience"}},
{"type":"Feature","geometry":{"type":"Point","coordinates":[-3.8737349,5.3646799]},"properties":{"shop":"convenience"}},
{"type":"Feature","geometry":{"type":"Point","coordinates":[-3.9996117,5.3441809]},"properties":{"note":"L'enseigne n'est plus Cash Ivoire","shop":"supermarket"}},
{"type":"Feature","geometry":{"type":"Point","coordinates":[-3.7779998,5.2156296]},"properties":{"name":"King cash cocoteraie","name:fr":"King cash cocoteraie","shop":"supermarket"}},
{"type":"Feature","geometry":{"type":"Point","coordinates":[-3.7651141,5.211128]},"properties":{"name":"Delices de Sira","name:fr":"Delices de Sira","shop":"bakery"}},
{"type":"Feature","geometry":{"type":"Point","coordinates":[-3.995381,5.3801244]},"properties":{"name":"Patisserie abidjanaise","shop":"bakery"}},
{"type":"Feature","geometry":{"type":"Point","coordinates":[-4.0359394,5.3113349]},"properties":{"name":"Boulangerie Pain chaud","name:fr":"Boulangerie Pain chaud","shop":"bakery"}},
{"type":"Feature","geometry":{"type":"Point","coordinates":[-4.0137434,5.4520658]},"properties":{"amenity":"marketplace","name":"Marché d'Akeïkoi"}},
{"type":"Feature","geometry":{"type":"Point","coordinates":[-4.0146339,5.4356927]},"properties":{"amenity":"marketplace","name":"Marché Habitat"}},
{"type":"Feature","geometry":{"type":"Point","coordinates":[-4.0010244,5.4233191]},"properties":{"amenity":"marketplace","name":"Marché Kennedy Clouetcha"}},
{"type":"Feature","geometry":{"type":"Point","coordinates":[-4.0179189,5.4443286]},"properties":{"amenity":"marketplace","name":"Marché de Belle Cité"}},
{"type":"Feature","geometry":{"type":"Point","coordinates":[-4.0249134,5.440527]},"properties":{"alt_name":"Marché Avocatier","amenity":"marketplace","name":"Grand marché d’Avocatier","shop":"supermarket"}},
{"type":"Feature","geometry":{"type":"Point","coordinates":[-4.0297991,5.436686]},"properties":{"amenity":"marketplace","name":"Marché de nuit Abobo Avocatier"}},
{"type":"Feature","geometry":{"type":"Point","coordinates":[-3.9759216,5.2997964]},"properties":{"amenity":"marketplace","name":"Grand Marché de Marcory"}},
{"type":"Feature","geometry":{"type":"Point","coordinates":[-4.0038085,5.3070688]},"properties":{"amenity":"marketplace","name":"Marché Nanan Yamousso"}},
{"type":"Feature","geometry":{"type":"Point","coordinates":[-3.9973377,5.3046598]},"properties":{"amenity":"marketplace","name":"Marché de Belleville"}},
{"type":"Feature","geometry":{"type":"Point","coordinates":[-4.01362,5.3088848]},"properties":{"amenity":"marketplace","name":"Grand marché de Treichville"}},
{"type":"Feature","geometry":{"type":"Point","coordinates":[-4.048883,5.3270614]},"properties":{"amenity":"marketplace","name":"Marché UDM Toits Rouges"}},
{"type":"Feature","geometry":{"type":"Point","coordinates":[-4.0682217,5.3238299]},"properties":{"amenity":"marketplace","name":"Marché"}},
{"type":"Feature","geometry":{"type":"Point","coordinates":[-4.0684538,5.3403182]},"properties":{"amenity":"marketplace","name":"Marché Selmer"}},
{"type":"Feature","geometry":{"type":"Point","coordinates":[-4.0629727,5.3260692]},"properties":{"amenity":"marketplace","name":"Marché petit Toits Rouges"}},
{"type":"Feature","geometry":{"type":"Point","coordinates":[-4.0938905,5.3466034]},"properties":{"amenity":"marketplace","name":"Nouveau Marché de Bort Bouet 2"}},
{"type":"Feature","geometry":{"type":"Point","coordinates":[-4.109906,5.339266]},"properties":{"amenity":"marketplace","name":"Marché Djédjé Bagnon","short_name":"Marché Bagnon"}},
{"type":"Feature","geometry":{"type":"Point","coordinates":[-4.1055259,5.3404918]},"properties":{"amenity":"marketplace","name":"Marché Maroc","name:fr":"Marché Maroc"}},
{"type":"Feature","geometry":{"type":"Point","coordinates":[-4.0982491,5.3276369]},"properties":{"amenity":"marketplace","name":"Marché de Niangon Nord"}},
{"type":"Feature","geometry":{"type":"Point","coordinates":[-4.0981096,5.3656881]},"properties":{"amenity":"marketplace","name":"Marché Gesco"}},
{"type":"Feature","geometry":{"type":"Point","coordinates":[-4.1273698,5.3377999]},"properties":{"amenity":"marketplace","name":"Marché KM 17"}},
{"type":"Feature","geometry":{"type":"Point","coordinates":[-4.0757293,5.3501004]},"properties":{"amenity":"marketplace","name":"Marché Gouro"}},
{"type":"Feature","geometry":{"type":"Point","coordinates":[-4.0545103,5.3198199]},"properties":{"amenity":"marketplace","name":"Marché de Koweït"}},
{"type":"Feature","geometry":{"type":"Point","coordinates":[-4.0860772,5.3329127]},"properties":{"alt_name":"Marché Mami Faitai","amenity":"marketplace","name":"Marché Mami Faitai","name:fr":"Marché Mami Foutou"}},
{"type":"Feature","geometry":{"type":"Point","coordinates":[-4.0851706,5.3244522]},"properties":{"amenity":"marketplace","name":"Marché Saint Pierre"}},
{"type":"Feature","geometry":{"type":"Point","coordinates":[-4.078787,5.3264658]},"properties":{"amenity":"marketplace","name":"Marché Sideci"}},
{"type":"Feature","geometry":{"type":"Point","coordinates":[-4.0862703,5.3231689]},"properties":{"amenity":"marketplace","name":"Marché de Niangon Continu"}},
{"type":"Feature","geometry":{"type":"Point","coordinates":[-4.1082966,5.32344]},"properties":{"amenity":"marketplace","name":"Marché de l'Académie"}},
{"type":"Feature","geometry":{"type":"Point","coordinates":[-4.0784369,5.3143558]},"properties":{"amenity":"marketplace","name":"Marché de Béago"}},
{"type":"Feature","geometry":{"type":"Point","coordinates":[-4.0713809,5.3624981]},"properties":{"amenity":"marketplace","name":"Marché d’Andokoi"}},
{"type":"Feature","geometry":{"type":"Point","coordinates":[-3.9791644,5.4014511]},"properties":{"amenity":"marketplace","name":"Marché Cocovico"}},
{"type":"Feature","geometry":{"type":"Point","coordinates":[-3.9547402,5.3266528]},"properties":{"amenity":"marketplace","name":"Marché Emmanuelle M'pouto"}},
{"type":"Feature","geometry":{"type":"Point","coordinates":[-3.9401892,5.3561411]},"properties":{"amenity":"marketplace","name":"Marché d'Akouédo"}},
{"type":"Feature","geometry":{"type":"Point","coordinates":[-3.9730543,5.3447727]},"properties":{"amenity":"marketplace","name":"Marché d'Anono"}},
{"type":"Feature","geometry":{"type":"Point","coordinates":[-3.9389098,5.367771]},"properties":{"amenity":"marketplace","name":"Nouveau Marché de Faya"}},
{"type":"Feature","geometry":{"type":"Point","coordinates":[-3.9598122,5.3698793]},"properties":{"amenity":"marketplace","name":"Marché de la Palmeraie"}},
{"type":"Feature","geometry":{"type":"Point","coordinates":[-3.9339974,5.3294549]},"properties":{"amenity":"marketplace","name":"Marché de M'Badon"}},
{"type":"Feature","geometry":{"type":"Point","coordinates":[-4.0210953,5.3655051]},"properties":{"amenity":"marketplace","name":"Marché de Williamsville"}},
{"type":"Feature","geometry":{"type":"Point","coordinates":[-4.0247297,5.3542477]},"properties":{"amenity":"marketplace","name":"Black Market"}},
{"type":"Feature","geometry":{"type":"Point","coordinates":[-4.0237038,5.348633]},"properties":{"amenity":"marketplace","name":"Marché d'Adjamé Dabananni"}},
{"type":"Feature","geometry":{"type":"Point","coordinates":[-4.0230668,5.3490055]},"properties":{"amenity":"marketplace","name":"Marché Gouro"}},
{"type":"Feature","geometry":{"type":"Point","coordinates":[-4.0234208,5.3762857]},"properties":{"amenity":"marketplace","name":"Marché"}},
{"type":"Feature","geometry":{"type":"Point","coordinates":[-4.0241343,5.3735111]},"properties":{"amenity":"marketplace","name":"Marché Corema"}},
{"type":"Feature","geometry":{"type":"Point","coordinates":[-4.0232277,5.3521621]},"properties":{"amenity":"marketplace","name":"Marché Yeclat de Manflat"}},
{"type":"Feature","geometry":{"type":"Point","coordinates":[-4.0014616,5.4101175]},"properties":{"amenity":"marketplace","name":"Grand marché d’Aboboté"}},
{"type":"Feature","geometry":{"type":"Point","coordinates":[-3.9637148,5.25807]},"properties":{"amenity":"marketplace","name":"Marché de Port Bouët"}},
{"type":"Feature","geometry":{"type":"Point","coordinates":[-4.0794629,5.3559542]},"properties":{"amenity":"marketplace","name":"Marché Siporex 4"}},
{"type":"Feature","geometry":{"type":"Point","coordinates":[-4.0625596,5.446974]},"properties":{"amenity":"marketplace","name":"Marché Assoumin/Canaan"}},
{"type":"Feature","geometry":{"type":"Point","coordinates":[-4.053015,5.4498911]},"properties":{"amenity":"marketplace","name":"Ancien marché de PK 18"}},
{"type":"Feature","geometry":{"type":"Point","coordinates":[-4.0446398,5.4410784]},"properties":{"amenity":"marketplace","name":"Marché de Sogegare"}},
{"type":"Feature","geometry":{"type":"Point","coordinates":[-4.0755039,5.3497359]},"properties":{"amenity":"marketplace","name":"Marché de Manioc"}},
{"type":"Feature","geometry":{"type":"Point","coordinates":[-4.0762268,5.3515545]},"properties":{"amenity":"marketplace","name":"Marché Acoya"}},
{"type":"Feature","geometry":{"type":"Point","coordinates":[-4.0797097,5.3556417]},"properties":{"amenity":"marketplace","name":"Marché La Référence (marché de nuit)"}},
{"type":"Feature","geometry":{"type":"Point","coordinates":[-4.0783283,5.3559221]},"properties":{"amenity":"marketplace","name":"Marché Siporex 8 (Gouro)"}},
{"type":"Feature","geometry":{"type":"Point","coordinates":[-4.0788138,5.3561251]},"properties":{"amenity":"marketplace","name":"Marché Siporex 7"}},
{"type":"Feature","geometry":{"type":"Point","coordinates":[-4.0821558,5.3560209]},"properties":{"amenity":"marketplace","name":"Marché Siporex 6"}},
{"type":"Feature","geometry":{"type":"Point","coordinates":[-4.0813243,5.356037]},"properties":{"amenity":"marketplace","name":"Marché Siporex 5"}},
{"type":"Feature","geometry":{"type":"Point","coordinates":[-4.0770355,5.3561758]},"properties":{"amenity":"marketplace","name":"Marché Siporex 3"}},
{"type":"Feature","geometry":{"type":"Point","coordinates":[-4.0759921,5.3562212]},"properties":{"amenity":"marketplace","name":"Marché Siporex 2"}},
{"type":"Feature","geometry":{"type":"Point","coordinates":[-4.0798759,5.3561652]},"properties":{"amenity":"marketplace","name":"Marché Siporex 10"}},
{"type":"Feature","geometry":{"type":"Point","coordinates":[-4.0859994,5.3534012]},"properties":{"amenity":"marketplace","name":"Marché Zan Konaté ex Port Bouët 2"}},
{"type":"Feature","geometry":{"type":"Point","coordinates":[-4.0683371,5.3516386]},"properties":{"amenity":"marketplace","name":"Marché Wassakara","name:en":"Marché wassakara"}},
{"type":"Feature","geometry":{"type":"Point","coordinates":[-4.0467694,5.3414719]},"properties":{"amenity":"marketplace","name":"Marché Santé II"}},
{"type":"Feature","geometry":{"type":"Point","coordinates":[-4.0384465,5.3104459]},"properties":{"amenity":"marketplace","name":"Marché Abobo-Doumé"}},
{"type":"Feature","geometry":{"type":"Point","coordinates":[-4.0373643,5.3255752]},"properties":{"amenity":"marketplace","name":"Marché Locodjoro"}},
{"type":"Feature","geometry":{"type":"Point","coordinates":[-4.0710904,5.3226575]},"properties":{"amenity":"marketplace","name":"Marché de Kouté Village"}},
{"type":"Feature","geometry":{"type":"Point","coordinates":[-4.101293,5.3121638]},"properties":{"amenity":"marketplace","name":"Marché de Lokoa"}},
{"type":"Feature","geometry":{"type":"Point","coordinates":[-4.0100809,5.4177277]},"properties":{"amenity":"marketplace","name":"Marché de Gros d'Abobo"}},
{"type":"Feature","geometry":{"type":"Point","coordinates":[-3.9896438,5.4210308]},"properties":{"amenity":"marketplace"}},
{"type":"Feature","geometry":{"type":"Point","coordinates":[-4.0310597,5.4173512]},"properties":{"amenity":"marketplace","name":"Marché Sagbé Céleste"}},
{"type":"Feature","geometry":{"type":"Point","coordinates":[-4.0022059,5.3350358]},"properties":{"amenity":"marketplace","name":"Marché N’Goan Aka Mathias Cocody Saint-Jean"}},
{"type":"Feature","geometry":{"type":"Point","coordinates":[-4.0002143,5.3373258]},"properties":{"amenity":"marketplace","name":"Petit marché de Cocody (Ancien marché)"}},
{"type":"Feature","geometry":{"type":"Point","coordinates":[-4.0046695,5.3037771]},"properties":{"amenity":"marketplace","name":"Petit marché Av 21"}},
{"type":"Feature","geometry":{"type":"Point","coordinates":[-4.0096423,5.2876898]},"properties":{"amenity":"marketplace","market":"food","name":"Marché Poissons (Port de Pêche)"}},
{"type":"Feature","geometry":{"type":"Point","coordinates":[-4.0021777,5.2553857]},"properties":{"amenity":"marketplace","name":"Marché Vridi Canal"}},
{"type":"Feature","geometry":{"type":"Point","coordinates":[-3.9083058,5.2420015]},"properties":{"amenity":"marketplace","name":"Marché"}},
{"type":"Feature","geometry":{"type":"Point","coordinates":[-3.9216793,5.2457008]},"properties":{"amenity":"marketplace","name":"Marché Adjoufou"}},
{"type":"Feature","geometry":{"type":"Point","coordinates":[-3.95045,5.3132207]},"properties":{"amenity":"marketplace","name":"Marché d'Akromianble"}},
{"type":"Feature","geometry":{"type":"Point","coordinates":[-3.9698524,5.3078252]},"properties":{"amenity":"marketplace","name":"Marché d'Anoumabo"}},
{"type":"Feature","geometry":{"type":"Point","coordinates":[-3.9645074,5.3074827]},"properties":{"amenity":"marketplace","name":"Marché de Sans-Fils"}},
{"type":"Feature","geometry":{"type":"Point","coordinates":[-4.0026793,5.2998445]},"properties":{"amenity":"marketplace","name":"Market de la Gare"}},
{"type":"Feature","geometry":{"type":"Point","coordinates":[-3.9645302,5.2628562]},"properties":{"amenity":"marketplace","name":"Marché aux Bestiaux"}},
{"type":"Feature","geometry":{"type":"Point","coordinates":[-4.0129314,5.3755527]},"properties":{"amenity":"marketplace","name":"Marché de Pailler"}},
{"type":"Feature","geometry":{"type":"Point","coordinates":[-4.00085,5.3964056]},"properties":{"amenity":"marketplace","name":"Marché de Dokui"}},
{"type":"Feature","geometry":{"type":"Point","coordinates":[-3.9929187,5.375056]},"properties":{"amenity":"marketplace","name":"Marché"}},
{"type":"Feature","geometry":{"type":"Point","coordinates":[-3.9631194,5.3637974]},"properties":{"amenity":"marketplace","name":"Marché"}},
{"type":"Feature","geometry":{"type":"Point","coordinates":[-3.8961324,5.2418223]},"properties":{"name":"Opera","name:fr":"Opera","shop":"bakery"}},
{"type":"Feature","geometry":{"type":"Point","coordinates":[-3.9338415,5.3728391]},"properties":{"addr:street":"Boulevard François Mitterrand","brand":"Carrefour","brand:wikidata":"Q217599","brand:wikipedia":"fr:Carrefour (enseigne)","name":"Carrefour","shop":"supermarket"}},
{"type":"Feature","geometry":{"type":"Point","coordinates":[-4.0202115,5.4207958]},"properties":{"amenity":"marketplace","name":"Marché Siaka Kone"}},
{"type":"Feature","geometry":{"type":"Point","coordinates":[-3.9910787,5.4326114]},"properties":{"amenity":"marketplace","name":"Marché de Belleville"}},
{"type":"Feature","geometry":{"type":"Point","coordinates":[-4.0139794,5.4056555]},"properties":{"amenity":"marketplace","name":"Marché Abobo Anador"}},
{"type":"Feature","geometry":{"type":"Point","coordinates":[-4.0183461,5.4253298]},"properties":{"amenity":"marketplace","name":"Marché Coprova"}},
{"type":"Feature","geometry":{"type":"Point","coordinates":[-4.0699048,5.4440329]},"properties":{"amenity":"marketplace","name":"Petit Marché N’dotré"}},
{"type":"Feature","geometry":{"type":"Point","coordinates":[-4.0401551,5.444101]},"properties":{"amenity":"marketplace","name":"Marché Penouel"}},
{"type":"Feature","geometry":{"type":"Point","coordinates":[-4.0462102,5.4372774]},"properties":{"amenity":"marketplace","name":"Marché Fortune Anoikouté"}},
{"type":"Feature","geometry":{"type":"Point","coordinates":[-4.0683183,5.4409102]},"properties":{"amenity":"marketplace","name":"Marché Gavo Ekiva"}},
{"type":"Feature","geometry":{"type":"Point","coordinates":[-4.0228696,5.3537557]},"properties":{"amenity":"marketplace","name":"Marché Yeclat Gare"}},
{"type":"Feature","geometry":{"type":"Point","coordinates":[-4.023166,5.3541196]},"properties":{"amenity":"marketplace","name":"Marché Yeclat Trazo Bi"}},
{"type":"Feature","geometry":{"type":"Point","coordinates":[-4.0227489,5.3534599]},"properties":{"amenity":"marketplace","name":"Marché Roesao-Ci"}},
{"type":"Feature","geometry":{"type":"Point","coordinates":[-4.0233511,5.3521674]},"properties":{"amenity":"marketplace","name":"Marché Kadjikou"}},
{"type":"Feature","geometry":{"type":"Point","coordinates":[-4.0232854,5.3542664]},"properties":{"amenity":"marketplace","name":"Marché Covevi"}},
{"type":"Feature","geometry":{"type":"Point","coordinates":[-4.0226242,5.3537524]},"properties":{"amenity":"marketplace","name":"Marché Cogesvi"}},
{"type":"Feature","geometry":{"type":"Point","coordinates":[-4.0231513,5.354002]},"properties":{"amenity":"marketplace","name":"Marché Canaan"}},
{"type":"Feature","geometry":{"type":"Point","coordinates":[-4.0233752,5.3539874]},"properties":{"amenity":"marketplace","name":"Marché VDI"}},
{"type":"Feature","geometry":{"type":"Point","coordinates":[-4.0012631,5.3701824]},"properties":{"amenity":"marketplace","name":"Marché Prix Choc"}},
{"type":"Feature","geometry":{"type":"Point","coordinates":[-4.0858385,5.3391058]},"properties":{"amenity":"marketplace","name":"Marché Canaan Yopougon"}},
{"type":"Feature","geometry":{"type":"Point","coordinates":[-4.0961221,5.384377]},"properties":{"amenity":"marketplace","name":"Marché Micao Nouveau"}},
{"type":"Feature","geometry":{"type":"Point","coordinates":[-4.0958981,5.3802112]},"properties":{"amenity":"marketplace","name":"Marché Soleil Micao"}},
{"type":"Feature","geometry":{"type":"Point","coordinates":[-4.0967377,5.3730344]},"properties":{"amenity":"marketplace","name":"Marché La Paix Micao"}},
{"type":"Feature","geometry":{"type":"Point","coordinates":[-4.0596454,5.3470533]},"properties":{"amenity":"marketplace","name":"Marché GFCI"}},
{"type":"Feature","geometry":{"type":"Point","coordinates":[-3.9971315,5.3490789]},"properties":{"name":"Boulangerie Pâtisserie du Pain","shop":"bakery"}},
{"type":"Feature","geometry":{"type":"Point","coordinates":[-4.0635264,5.3451757]},"properties":{"alt_name":"Foani Bel Air","brand":"Foani","brand:wikidata":"Q60183335","butcher":"poultry","name":"Foani","note":"Vente de volailles et oeufs","shop":"butcher"}},
{"type":"Feature","geometry":{"type":"Point","coordinates":[-5.019899,7.6818954]},"properties":{"name":"Boulangerie de la Paix","shop":"bakery","source":"survey"}},
{"type":"Feature","geometry":{"type":"Point","coordinates":[-5.0194524,7.6817372]},"properties":{"name":"King Cash","shop":"supermarket","source":"survey"}},
{"type":"Feature","geometry":{"type":"Point","coordinates":[-5.0161707,7.6817671]},"properties":{"shop":"convenience"}},
{"type":"Feature","geometry":{"type":"Point","coordinates":[-5.0174401,7.6787222]},"properties":{"name":"super 24","shop":"convenience","source":"survey"}},
{"type":"Feature","geometry":{"type":"Point","coordinates":[-5.0176527,7.679091]},"properties":{"shop":"convenience"}},
{"type":"Feature","geometry":{"type":"Point","coordinates":[-5.0174448,7.6785926]},"properties":{"name":"Saint George","shop":"bakery"}},
{"type":"Feature","geometry":{"type":"Point","coordinates":[-5.0154465,7.6783188000000008]},"properties":{"shop":"convenience","source":"survey"}},
{"type":"Feature","geometry":{"type":"Point","coordinates":[-4.0896682,5.3265516999999999]},