{"type":"FeatureCollection","features":[
{"type":"Feature","geometry":{"type":"Point","coordinates":[11.4931254,3.8803848]},"properties":{"highway":"traffic_signals"}},
{"type":"Feature","geometry":{"type":"Point","coordinates":[11.5131003,3.8924961]},"properties":{"name":"Bon Prix","name:fr":"Bon Prix","shop":"supermarket"}},
{"type":"Feature","geometry":{"type":"Point","coordinates":[9.168416,4.0169224]},"properties":{"shop":"supermarket"}},
{"type":"Feature","geometry":{"type":"Point","coordinates":[14.3650097,4.4313735]},"properties":{"name":"Nziko","shop":"convenience"}},
{"type":"Feature","geometry":{"type":"Point","coordinates":[13.6781201,9.4918638]},"properties":{"name":"Magasin Sodecotton de Badjengo","shop":"bakery"}},
{"type":"Feature","geometry":{"type":"Point","coordinates":[13.7142511,9.6042986]},"properties":{"name":"Magasin Sodecotton de Babanguel I","shop":"bakery"}},
{"type":"Feature","geometry":{"type":"Point","coordinates":[13.7134367,9.604577]},"properties":{"name":"Moulin a ecraser de Babanguel I","shop":"bakery"}},
{"type":"Feature","geometry":{"type":"Point","coordinates":[13.7200656,9.4850936]},"properties":{"name":"Magasin Sodecotton de Mboulouwol","shop":"bakery"}},
{"type":"Feature","geometry":{"type":"Point","coordinates":[13.6834752,9.4935757]},"properties":{"name":"Boucherie de Badjengo","shop":"butcher"}},
{"type":"Feature","geometry":{"type":"Point","coordinates":[13.675931,9.520473]},"properties":{"name":"Magasin Sodecotton de Mbor Partidje","shop":"bakery"}},
{"type":"Feature","geometry":{"type":"Point","coordinates":[13.7319209,9.5134247]},"properties":{"name":"Moulin a ecraser de Mayo Libri","shop":"bakery"}},
{"type":"Feature","geometry":{"type":"Point","coordinates":[13.6789397,9.492147]},"properties":{"name":"Moulin a ecraser de Mbor","shop":"bakery"}},
{"type":"Feature","geometry":{"type":"Point","coordinates":[13.6122489,9.4062495]},"properties":{"name":"Magasin Sodecotton de Mayo Habaye","shop":"bakery"}},
{"type":"Feature","geometry":{"type":"Point","coordinates":[13.6042796,9.3329028]},"properties":{"name":"Magasin GIC Langui Centre","shop":"bakery"}},
{"type":"Feature","geometry":{"type":"Point","coordinates":[11.4438063,3.9361992]},"properties":{"name":"Marche Central de Leboudi","shop":"supermarket"}},
{"type":"Feature","geometry":{"type":"Point","coordinates":[11.4559046,3.9760763]},"properties":{"name":"Marche d'Ebot","shop":"supermarket"}},
{"type":"Feature","geometry":{"type":"Point","coordinates":[11.2173463,4.0159813]},"properties":{"name":"Marche","opening_hours":"Place du marche de VOA II","shop":"supermarket"}},
{"type":"Feature","geometry":{"type":"Point","coordinates":[11.21201,4.075847]},"properties":{"name":"Market","opening_hours":"Marche de Nkol-Poblo","shop":"supermarket"}},
{"type":"Feature","geometry":{"type":"Point","coordinates":[11.3807327,4.0232517]},"properties":{"name":"Marche de Vivre d'Okola","shop":"butcher"}},
{"type":"Feature","geometry":{"type":"Point","coordinates":[11.3792309,4.0216933]},"properties":{"name":"Abatoire d'Okola","shop":"butcher"}},
{"type":"Feature","geometry":{"type":"Point","coordinates":[13.4817812,9.4184171]},"properties":{"name":"Moulin a ecraser de Boulgou","shop":"bakery"}},
{"type":"Feature","geometry":{"type":"Point","coordinates":[13.5112193,9.4926289]},"properties":{"name":"Magasin de GP de Ram II","shop":"convenience"}},
{"type":"Feature","geometry":{"type":"Point","coordinates":[13.5773362,9.3296582]},"properties":{"name":"Moulin a ecraser de Bouli Mal Alim","shop":"bakery"}},
{"type":"Feature","geometry":{"type":"Point","coordinates":[13.3784855,9.4017343]},"properties":{"name":"Grenier communautaire de Tinguelin","shop":"bakery"}},
{"type":"Feature","geometry":{"type":"Point","coordinates":[13.6003087,9.3340155]},"properties":{"name":"Moulin a ecraser de Langui","shop":"bakery"}},
{"type":"Feature","geometry":{"type":"Point","coordinates":[13.6214872,9.3623221]},"properties":{"name":"Moulin a ecraser de Ballare II","shop":"bakery"}},
{"type":"Feature","geometry":{"type":"Point","coordinates":[13.5069288,9.4597133]},"properties":{"name":"Magasin de stockage Sodecoton de Banaye","organic":"only","shop":"supermarket"}},
{"type":"Feature","geometry":{"type":"Point","coordinates":[13.5093105,9.3877798]},"properties":{"name":"Magasin SODECOTON Ouro Bocki","organic":"only","shop":"supermarket"}},
{"type":"Feature","geometry":{"type":"Point","coordinates":[13.4983688,9.3809221]},"properties":{"name":"Abattoir de Pitoa","shop":"butcher"}},
{"type":"Feature","geometry":{"type":"Point","coordinates":[13.5149433,9.4044945]},"properties":{"name":"Super Marche de Pitoa","shop":"supermarket"}},
{"type":"Feature","geometry":{"type":"Point","coordinates":[10.43615,5.9872898]},"properties":{"name":"Ndop Central Market","shop":"supermarket"}},
{"type":"Feature","geometry":{"type":"Point","coordinates":[10.4436165,5.9970164]},"properties":{"name":"Bakery","shop":"bakery"}},
{"type":"Feature","geometry":{"type":"Point","coordinates":[9.6934416,4.045041]},"properties":{"name":"Boulangerie Saker","shop":"bakery"}},
{"type":"Feature","geometry":{"type":"Point","coordinates":[11.4861439,3.849166]},"properties":{"shop":"bakery"}},
{"type":"Feature","geometry":{"type":"Point","coordinates":[11.5208378,3.8505723]},"properties":{"amenity":"marketplace","name":"Marché de Mvog Mbi"}},
{"type":"Feature","geometry":{"type":"Point","coordinates":[11.5181536,3.8711832]},"properties":{"crossing":"marked","crossing:island":"no","highway":"crossing","kerb":"raised"}},
{"type":"Feature","geometry":{"type":"Point","coordinates":[11.4953369,3.8352804]},"properties":{"shop":"supermarket"}},
{"type":"Feature","geometry":{"type":"Point","coordinates":[11.5514621,3.8408364]},"properties":{"name":"Boulangerie Fontana","shop":"bakery"}},
{"type":"Feature","geometry":{"type":"Point","coordinates":[11.50307,3.8698554]},"properties":{"name":"fekoue supermarche","shop":"supermarket","source":"sobzeros"}},
{"type":"Feature","geometry":{"type":"Point","coordinates":[11.5238451,3.8820013]},"properties":{"check_date":"2023-12-08","name":"Boulangerie Select","shop":"bakery","wheelchair":"limited"}},
{"type":"Feature","geometry":{"type":"Point","coordinates":[14.2921748,10.5891617]},"properties":{"name":"ASM","shop":"convenience"}},
{"type":"Feature","geometry":{"type":"Point","coordinates":[13.3834085,9.3203166]},"properties":{"name":"Vente de poulet","shop":"butcher"}},
{"type":"Feature","geometry":{"type":"Point","coordinates":[10.1640536,5.4171953]},"properties":{"amenity":"marketplace","name":"Marché Bamendou II"}},
{"type":"Feature","geometry":{"type":"Point","coordinates":[11.256546,4.603044]},"properties":{"is_in":"Cameroun","is_in:country":"Cameroun","is_in:country_code":"CM","is_in:department":"Mbam-et-Inoubou","is_in:region":"Centre","name":"Ombessa","note":"rank=0 car commune","place":"town","rank":"0","wikidata":"Q7089921"}},
{"type":"Feature","geometry":{"type":"Point","coordinates":[11.5338644,3.8705721]},"properties":{"shop":"supermarket","source":"sobzeros"}},
{"type":"Feature","geometry":{"type":"Point","coordinates":[11.5197577,3.8656919]},"properties":{"building":"yes","name":"Nziko","shop":"supermarket","source":"PFE(IT3) ENSTP Yaoundé - 2010"}},
{"type":"Feature","geometry":{"type":"Point","coordinates":[11.4930352,3.8805972]},"properties":{"highway":"crossing"}},
{"type":"Feature","geometry":{"type":"Point","coordinates":[14.3165436,10.6022235]},"properties":{"amenity":"marketplace"}},
{"type":"Feature","geometry":{"type":"Point","coordinates":[11.5212009,3.8882545]},"properties":{"amenity":"marketplace"}},
{"type":"Feature","geometry":{"type":"Point","coordinates":[13.3970217,9.3068452]},"properties":{"name":"Boulangerie du Marché","shop":"bakery","source":"MEADEN"}},
{"type":"Feature","geometry":{"type":"Point","coordinates":[13.3974341,9.3064791]},"properties":{"name":"KANDRE","shop":"supermarket","source":"MEADEN"}},
{"type":"Feature","geometry":{"type":"Point","coordinates":[13.397995,9.3060654]},"properties":{"name":"Bonjour","shop":"convenience","source":"local knowledge"}},
{"type":"Feature","geometry":{"type":"Point","coordinates":[13.4031756,9.2975445]},"properties":{"shop":"butcher"}},
{"type":"Feature","geometry":{"type":"Point","coordinates":[11.5200739,3.8883901]},"properties":{"amenity":"marketplace","name":"Marché de Nkol Eton"}},
{"type":"Feature","geometry":{"type":"Point","coordinates":[11.4871173,3.8731982]},"properties":{"amenity":"bar","name":"Diana Bar","shop":"convenience"}},
{"type":"Feature","geometry":{"type":"Point","coordinates":[11.5044718,3.8584692]},"properties":{"indoor_seating":"yes","name":"Best Bakery","outdoor_seating":"yes","shop":"bakery"}},
{"type":"Feature","geometry":{"type":"Point","coordinates":[9.6949942,4.0553845]},"properties":{"name":"Leader Price","shop":"supermarket"}},
{"type":"Feature","geometry":{"type":"Point","coordinates":[11.5371932,3.8867467]},"properties":{"internet_access":"wlan","name":"Soneco","opening_hours":"Mo-Su 06:00-22:00","operator":"SONECO","shop":"supermarket"}},
{"type":"Feature","geometry":{"type":"Point","coordinates":[11.5936672,3.9671433]},"properties":{"shop":"supermarket","source":"Survey TSF Cameroun 2014"}},
{"type":"Feature","geometry":{"type":"Point","coordinates":[11.5936745,3.9674335]},"properties":{"shop":"supermarket","source":"Survey TSF Cameroun 2014"}},
{"type":"Feature","geometry":{"type":"Point","coordinates":[11.593669,3.9675634]},"properties":{"shop":"supermarket","source":"Survey TSF Cameroun 2014"}},
{"type":"Feature","geometry":{"type":"Point","coordinates":[11.5937345,3.9676606]},"properties":{"shop":"supermarket","source":"Survey TSF Cameroun 2014"}},
{"type":"Feature","geometry":{"type":"Point","coordinates":[11.5936807,3.9655442]},"properties":{"name":"La Grâce","shop":"supermarket","source":"Survey TSF Cameroun 2014"}},
{"type":"Feature","geometry":{"type":"Point","coordinates":[11.5936494,3.9669036]},"properties":{"name":"Le Vélodrome","shop":"bakery","source":"Survey TSF Cameroun 2014"}},
{"type":"Feature","geometry":{"type":"Point","coordinates":[11.5984593,3.9847795]},"properties":{"building":"commercial","shop":"bakery"}},
{"type":"Feature","geometry":{"type":"Point","coordinates":[11.593337,3.9676171]},"properties":{"shop":"supermarket","source":"Survey TSF Cameroun 2014"}},
{"type":"Feature","geometry":{"type":"Point","coordinates":[11.5934607,3.9682103]},"properties":{"shop":"supermarket","source":"Survey TSF Cameroun 2014"}},
{"type":"Feature","geometry":{"type":"Point","coordinates":[11.5934627,3.9682352]},"properties":{"shop":"supermarket","source":"Survey TSF Cameroun 2014"}},
{"type":"Feature","geometry":{"type":"Point","coordinates":[11.5934648,3.968263]},"properties":{"shop":"supermarket","source":"Survey TSF Cameroun 2014"}},
{"type":"Feature","geometry":{"type":"Point","coordinates":[10.7045956,4.9754193]},"properties":{"amenity":"marketplace","name":"Marché aux Fruits et Légumes"}},
{"type":"Feature","geometry":{"type":"Point","coordinates":[11.5169827,3.8687513]},"properties":{"access":"yes","amenity":"toilets","fee":"yes"}},
{"type":"Feature","geometry":{"type":"Point","coordinates":[13.5752462,7.3199018]},"properties":{"name":"Marhaba","shop":"convenience"}},
{"type":"Feature","geometry":{"type":"Point","coordinates":[13.5780093,7.3223028]},"properties":{"name":"Madam Eli","shop":"supermarket"}},
{"type":"Feature","geometry":{"type":"Point","coordinates":[10.5698916,4.0518088]},"properties":{"amenity":"marketplace","name":"Marché"}},
{"type":"Feature","geometry":{"type":"Point","coordinates":[9.6948382,4.0422101]},"properties":{"addr:city":"Douala I","addr:housenumber":"364","addr:postcode":"5659","addr:street":"Boulevard de la République(rue 1.729)","name":"Garmin Store","shop":"supermarket"}},
{"type":"Feature","geometry":{"type":"Point","coordinates":[11.4823527,3.8392133]},"properties":{"shop":"convenience"}},
{"type":"Feature","geometry":{"type":"Point","coordinates":[9.290564,4.1549478]},"properties":{"name":"Njeiforbi Bakery","shop":"supermarket"}},
{"type":"Feature","geometry":{"type":"Point","coordinates":[11.4971095,3.876]},"properties":{"addr:street":"Rue Nana Tchakounte","name":"Les sources","shop":"bakery"}},
{"type":"Feature","geometry":{"type":"Point","coordinates":[9.2415106,4.1619728]},"properties":{"name":"Slaughter House","shop":"butcher"}},
{"type":"Feature","geometry":{"type":"Point","coordinates":[11.5005153,3.8879212]},"properties":{"shop":"bakery"}},
{"type":"Feature","geometry":{"type":"Point","coordinates":[11.5005597,3.8879071]},"properties":{"name":"Socropole Tsinga","shop":"supermarket"}},
{"type":"Feature","geometry":{"type":"Point","coordinates":[9.6938263,4.0349495]},"properties":{"name":"Super U","shop":"supermarket"}},
{"type":"Feature","geometry":{"type":"Point","coordinates":[9.6897444,4.0472423]},"properties":{"brand":"Spar","brand:wikidata":"Q610492","brand:wikipedia":"en:Spar (retailer)","name":"Spar","shop":"supermarket"}},
{"type":"Feature","geometry":{"type":"Point","coordinates":[9.8376624,5.3662572]},"properties":{"addr:city":"Mbetta","amenity":"marketplace","name":"Mbetta Market","opening_hours":"Every 8 days"}},
{"type":"Feature","geometry":{"type":"Point","coordinates":[11.5017313,3.8733523]},"properties":{"name":"Dovv","shop":"supermarket"}},
{"type":"Feature","geometry":{"type":"Point","coordinates":[10.2799013,5.6053868]},"properties":{"name":"Boutique du Monastère","name:fr":"Babeté Monastere","organic":"yes","shop":"convenience"}},
{"type":"Feature","geometry":{"type":"Point","coordinates":[11.5243597,3.9146612]},"properties":{"name":"BOULANGERIE SODEPAL","shop":"bakery"}},
{"type":"Feature","geometry":{"type":"Point","coordinates":[11.5205276,3.8624935]},"properties":{"entrance":"yes"}},
{"type":"Feature","geometry":{"type":"Point","coordinates":[11.5205118,3.8625375]},"properties":{"entrance":"yes"}},
{"type":"Feature","geometry":{"type":"Point","coordinates":[9.7374272,4.0502037]},"properties":{"addr:city":"douala","addr:housename":"Santa Lucia","addr:street":"mobil guiness","designation":"santa lucia","name":"Santa Lucia","shop":"supermarket"}},
{"type":"Feature","geometry":{"type":"Point","coordinates":[11.5030006,3.8834214]},"properties":{"shop":"convenience"}},
{"type":"Feature","geometry":{"type":"Point","coordinates":[11.4772094,3.840609]},"properties":{"shop":"supermarket"}},
{"type":"Feature","geometry":{"type":"Point","coordinates":[11.4772871,3.8406665]},"properties":{"shop":"bakery"}},
{"type":"Feature","geometry":{"type":"Point","coordinates":[10.4149776,5.4804902]},"properties":{"amenity":"marketplace","name":"Marché Oinion"}},
{"type":"Feature","geometry":{"type":"Point","coordinates":[14.3174489,10.5961068]},"properties":{"addr:street":"Dadé Mayo","name":"Marché pont rouge","shop":"supermarket"}},
{"type":"Feature","geometry":{"type":"Point","coordinates":[14.3174249,10.5939807]},"properties":{"addr:street":"Boulevard de domayo","name":"Septentrion","opening_hours":"Mo-Su 07:00-23:00","shop":"supermarket"}},
{"type":"Feature","geometry":{"type":"Point","coordinates":[14.3166888,10.59393]},"properties":{"addr:street":"Boulevard de domayo","name":"Épicerie du coin","opening_hours":"Mo-Su 08:30-22:00","shop":"supermarket"}},
{"type":"Feature","geometry":{"type":"Point","coordinates":[14.3344722,10.6056826]},"properties":{"addr:street":"Moroua-Pouss","name":"Ziko","opening_hours":"Mo-Sa 08:00-17:00","shop":"supermarket"}},
{"type":"Feature","geometry":{"type":"Point","coordinates":[14.3331481,10.6054516]},"properties":{"addr:street":"Moroua-Pouss","name":"FOKOU","opening_hours":"Mo-Sa 08:00-17:00","shop":"supermarket"}},
{"type":"Feature","geometry":{"type":"Point","coordinates":[14.3435082,10.6014139]},"properties":{"addr:street":"Tassa","name":"Friperie","opening_hours":"Mo-Su 09:00-17:00","shop":"supermarket"}},
{"type":"Feature","geometry":{"type":"Point","coordinates":[14.3440344,10.6004359]},"properties":{"addr:street":"Tassa","name":"Loumo Babba","opening_hours":"Su 08:00-18:00","shop":"supermarket"}},
{"type":"Feature","geometry":{"type":"Point","coordinates":[14.3424876,10.6016551]},"properties":{"addr:street":"Dougoy","name":"Petit Marché","opening_hours":"Mo-Su 08:00-17:00","shop":"supermarket"}},
{"type":"Feature","geometry":{"type":"Point","coordinates":[11.4849752,3.8372587]},"properties":{"name":"Alimentation Oncle René","shop":"supermarket"}},
{"type":"Feature","geometry":{"type":"Point","coordinates":[11.4846299,3.8362471]},"properties":{"amenity":"bar","indoor_seating":"yes","name":"Option Snak","outdoor_seating":"yes","shop":"supermarket"}},
{"type":"Feature","geometry":{"type":"Point","coordinates":[11.4859961,3.8376745]},"properties":{"name":"Supermarché Niki","shop":"supermarket"}},
{"type":"Feature","geometry":{"type":"Point","coordinates":[11.4845906,3.8362763]},"properties":{"indoor_seating":"yes","outdoor_seating":"yes","shop":"bakery"}},
{"type":"Feature","geometry":{"type":"Point","coordinates":[11.4852368,3.8369864]},"properties":{"shop":"supermarket"}},
{"type":"Feature","geometry":{"type":"Point","coordinates":[9.7416178,4.0375367]},"properties":{"name":"Saker","shop":"bakery"}},
{"type":"Feature","geometry":{"type":"Point","coordinates":[10.36884,5.333241]},"properties":{"name":"hanana","shop":"bakery"}},
{"type":"Feature","geometry":{"type":"Point","coordinates":[9.8090197,4.0312312]},"properties":{"name":"Melvin plot","shop":"bakery"}},
{"type":"Feature","geometry":{"type":"Point","coordinates":[9.4865876,4.7487062]},"properties":{"name":"Unknown","shop":"convenience"}},
{"type":"Feature","geometry":{"type":"Point","coordinates":[9.697459,4.0528754]},"properties":{"name":"Zepol","shop":"bakery"}},
{"type":"Feature","geometry":{"type":"Point","coordinates":[9.7376026,4.0516048]},"properties":{"name":"Santa Lucia","shop":"supermarket"}},
{"type":"Feature","geometry":{"type":"Point","coordinates":[11.4934991,3.8614375]},"properties":{"name":"BOULANGERIE ALLEMANDE","shop":"bakery"}},
{"type":"Feature","geometry":{"type":"Point","coordinates":[11.4941781,3.8632684]},"properties":{"name":"alimentation la grace","shop":"convenience"}},
{"type":"Feature","geometry":{"type":"Point","coordinates":[13.6762949,4.5748676]},"properties":{"name":"La Mie Dorée","shop":"bakery"}},
{"type":"Feature","geometry":{"type":"Point","coordinates":[9.7504361,4.0926738]},"properties":{"name":"Zapror","shop":"bakery"}},
{"type":"Feature","geometry":{"type":"Point","coordinates":[11.4716061,3.8304981]},"properties":{"name":"Epi d'or","name:fr":"Epi d'or","shop":"bakery"}},
{"type":"Feature","geometry":{"type":"Point","coordinates":[9.7108955,4.0678118]},"properties":{"name":"Vita Shop","shop":"supermarket"}},
{"type":"Feature","geometry":{"type":"Point","coordinates":[9.718884,4.0825175]},"properties":{"amenity":"marketplace","name":"Petit Marché Akwa Nord"}},
{"type":"Feature","geometry":{"type":"Point","coordinates":[9.7248351,4.0847009]},"properties":{"name":"Mahima","shop":"supermarket"}},
{"type":"Feature","geometry":{"type":"Point","coordinates":[9.69727,4.0254189]},"properties":{"name":"La Croissanterie","shop":"bakery"}},
{"type":"Feature","geometry":{"type":"Point","coordinates":[10.4018057,5.8433402]},"properties":{"name":"Renaissance Central","shop":"supermarket"}},
{"type":"Feature","geometry":{"type":"Point","coordinates":[10.4000362,5.8423321]},"properties":{"name":"Kings shop","shop":"supermarket"}},
{"type":"Feature","geometry":{"type":"Point","coordinates":[10.401431,5.8433047]},"properties":{"name":"Fish Slap at","shop":"supermarket"}},
{"type":"Feature","geometry":{"type":"Point","coordinates":[10.4355997,5.988096]},"properties":{"name":"Central shop","shop":"supermarket"}},
{"type":"Feature","geometry":{"type":"Point","coordinates":[10.4349774,5.9880907]},"properties":{"name":"Africana plus","shop":"supermarket"}},
{"type":"Feature","geometry":{"type":"Point","coordinates":[10.4342318,5.9868796]},"properties":{"name":"SUPER GOAL","shop":"supermarket"}},
{"type":"Feature","geometry":{"type":"Point","coordinates":[9.7862998,4.0627582]},"properties":{"amenity":"marketplace","name":"Marché pk12"}},
{"type":"Feature","geometry":{"type":"Point","coordinates":[9.7592815,4.0373632]},"properties":{"name":"Boulangerie Saker","name:fr":"Saker Logbaba","shop":"bakery"}},
{"type":"Feature","geometry":{"type":"Point","coordinates":[9.7877665,4.032901]},"properties":{"name":"Bonlangerie Belavie Agence de Nyalla","shop":"bakery"}},
{"type":"Feature","geometry":{"type":"Point","coordinates":[9.7274538,4.0583294]},"properties":{"name":"Boulangerie Mado","shop":"bakery"}},
{"type":"Feature","geometry":{"type":"Point","coordinates":[9.6462121,4.087705]},"properties":{"name":"boulangerie jeska","shop":"bakery"}},
{"type":"Feature","geometry":{"type":"Point","coordinates":[9.7645631,3.99997]},"properties":{"name":"Boulangerie St Joseph","shop":"bakery"}},
{"type":"Feature","geometry":{"type":"Point","coordinates":[9.7647887,3.9987391]},"properties":{"name":"Boulangerie Ndogpassi 3","shop":"bakery"}},
{"type":"Feature","geometry":{"type":"Point","coordinates":[9.7888874,4.0321646]},"properties":{"amenity":"marketplace","name":"petit marché nyalla"}},
{"type":"Feature","geometry":{"type":"Point","coordinates":[9.6639514,4.0877735]},"properties":{"name":"Brocante","shop":"supermarket"}},
{"type":"Feature","geometry":{"type":"Point","coordinates":[13.6817177,4.574126]},"properties":{"name":"Alimentation La Référence","shop":"convenience"}},
{"type":"Feature","geometry":{"type":"Point","coordinates":[13.6817157,4.5738827]},"properties":{"name":"Alimentation du Ministère du Soya","shop":"convenience"}},
{"type":"Feature","geometry":{"type":"Point","coordinates":[13.6820418,4.5754857]},"properties":{"name":"Diva Est","shop":"bakery"}},
{"type":"Feature","geometry":{"type":"Point","coordinates":[13.680252,4.5748877]},"properties":{"name":"SOCOPRAL","shop":"convenience"}},
{"type":"Feature","geometry":{"type":"Point","coordinates":[14.3304116,10.603155]},"properties":{"name":"SOCONORD DIRECTION","name:fr":"SOCONORD DIRECTION","shop":"supermarket"}},
{"type":"Feature","geometry":{"type":"Point","coordinates":[14.3330405,10.603599]},"properties":{"name":"DAMING","name:fr":"DAMING","shop":"supermarket"}},
{"type":"Feature","geometry":{"type":"Point","coordinates":[14.332026,10.6037153]},"properties":{"addr:street":"Marché centrale","name":"SOCONORD BOUTIQUE","name:fr":"SOCONORD BOUTIQUE","opening_hours":"Mo-Sa 09:30-17:30; Su 09:30-13:00","shop":"supermarket"}},
{"type":"Feature","geometry":{"type":"Point","coordinates":[9.2076694,4.0125561]},"properties":{"name":"Mac Jon's Shop","shop":"convenience"}},
{"type":"Feature","geometry":{"type":"Point","coordinates":[9.2076073,4.0124795]},"properties":{"name":"Office and communication House","shop":"convenience"}},
{"type":"Feature","geometry":{"type":"Point","coordinates":[9.2065884,4.0151768]},"properties":{"addr:place":"Gardens","addr:postcode":"5553 Limbé","amenity":"restaurant","contact:phone":"33 76 41 00","name":"Coastal bakery","opening_hours":"Mo-Su 07:00-22:00","rooms":"150","shop":"bakery"}},
{"type":"Feature","geometry":{"type":"Point","coordinates":[9.7126076,4.0602507]},"properties":{"name":"COAF","shop":"bakery"}},
{"type":"Feature","geometry":{"type":"Point","coordinates":[9.2079361,4.015989]},"properties":{"name":"Ocean Shop","shop":"supermarket"}},
{"type":"Feature","geometry":{"type":"Point","coordinates":[10.4051274,5.4863017]},"properties":{"name":"Boulangerie du Peuple","name:fr":"Boulangerie du Peuple","shop":"bakery"}},
{"type":"Feature","geometry":{"type":"Point","coordinates":[11.5213823,3.8502]},"properties":{"name":"Socropole","shop":"bakery"}},
{"type":"Feature","geometry":{"type":"Point","coordinates":[11.4932377,3.8450923]},"properties":{"shop":"convenience"}},
{"type":"Feature","geometry":{"type":"Point","coordinates":[9.7440436,4.0441472]},"properties":{"addr:postcode":"12024 Dla","contact:email":"lebouquetfp@yahoo.fr","contact:phone":"233044743","name":"Supermarché Le Bouquet F.P.","shop":"supermarket"}},
{"type":"Feature","geometry":{"type":"Point","coordinates":[9.7072156,4.0636057]},"properties":{"name":"Boulangerie Meno","shop":"bakery"}},
{"type":"Feature","geometry":{"type":"Point","coordinates":[9.6959717,4.0470912]},"properties":{"name":"Divkaran","shop":"supermarket"}},
{"type":"Feature","geometry":{"type":"Point","coordinates":[9.64572,4.0946738]},"properties":{"addr:postcode":"5553 Dla","contact:phone":"233390335","name":"Boulangerie du Rail","operator":"SIPCOPROMAC","shop":"bakery"}},
{"type":"Feature","geometry":{"type":"Point","coordinates":[9.6978848,4.0546369]},"properties":{"addr:postcode":"863 Dla","name":"Boulangerie Zepol","shop":"bakery"}},
{"type":"Feature","geometry":{"type":"Point","coordinates":[9.7380693,4.0921949]},"properties":{"name":"Kado","shop":"supermarket"}},
{"type":"Feature","geometry":{"type":"Point","coordinates":[9.6960085,4.0516617]},"properties":{"name":"Centre commercial Chinois","shop":"supermarket"}},
{"type":"Feature","geometry":{"type":"Point","coordinates":[10.130034,3.7979081]},"properties":{"name":"Planète","shop":"supermarket"}},
{"type":"Feature","geometry":{"type":"Point","coordinates":[9.6991173,4.046903]},"properties":{"name":"Niki Gros","shop":"supermarket"}},
{"type":"Feature","geometry":{"type":"Point","coordinates":[9.7588885,4.0372655]},"properties":{"amenity":"marketplace","name":"Petit marché Logbaba"}},
{"type":"Feature","geometry":{"type":"Point","coordinates":[11.5190329,3.868886]},"properties":{"name":"Montana","name:fr":"Montana","shop":"supermarket"}},
{"type":"Feature","geometry":{"type":"Point","coordinates":[9.6969981,4.0287846]},"properties":{"addr:street":"Rue Njo-Njo","email":"fleurbreizh@gmail.com","internet_access":"wlan","name":"Fleur de Sel","name:en":"Fleur de Sel","name:fr":"Fleur de Sel","opening_hours":"Mo-Sa 10:00-19:00","phone":"+237698488398","shop":"convenience","website":"https://www.fleurbreizh.com/"}},
{"type":"Feature","geometry":{"type":"Point","coordinates":[9.9446977,5.1213251]},"properties":{"name":"Boulangerie BBM","shop":"bakery"}},
{"type":"Feature","geometry":{"type":"Point","coordinates":[14.3316439,10.6039578]},"properties":{"name":"Boutique Sadou Holding SA","name:fr":"Boutique Sadou Holding SA","phone":"699890072","shop":"supermarket"}},
{"type":"Feature","geometry":{"type":"Point","coordinates":[9.6508625,4.0957439]},"properties":{"name":"Boulangerie de la Gare","name:en":"Boulangerie de la Gare","name:fr":"Boulangerie de la Gare","shop":"bakery"}},
{"type":"Feature","geometry":{"type":"Point","coordinates":[9.6455607,4.0947221]},"properties":{"name":"Boulangerie du Rail","name:fr":"Boulangerie du Rail","shop":"bakery"}},
{"type":"Feature","geometry":{"type":"Point","coordinates":[11.5424146,3.8687556]},"properties":{"designation":"Piggery and Butcher housse","shop":"butcher"}},
{"type":"Feature","geometry":{"type":"Point","coordinates":[11.5094796,3.8761833]},"properties":{"shop":"butcher"}},
{"type":"Feature","geometry":{"type":"Point","coordinates":[11.5934037,3.9760219]},"properties":{"addr:postcode":"00237","name":"Mama Colette Provisions","name:en":"Mama Colette Provisions","opening_hours":"Mo-Sa","operator":"Mama Colette Lando","phone":"673982452","shop":"convenience"}},
{"type":"Feature","geometry":{"type":"Point","coordinates":[10.7061838,6.4601209]},"properties":{"name":"Wat Market Donga Mantung","shop":"supermarket"}},
{"type":"Feature","geometry":{"type":"Point","coordinates":[13.5764599,7.2932891]},"properties":{"amenity":"marketplace","name":"Marché de Bamyanga"}},
{"type":"Feature","geometry":{"type":"Point","coordinates":[9.1677638,4.0095169]},"properties":{"name":"Molas and Sons","name:en":"Molas and Sons","operator":"Clovis Taffli","phone":"674147510","shop":"convenience"}},
{"type":"Feature","geometry":{"type":"Point","coordinates":[14.3344546,10.6061032]},"properties":{"name":"Boulangerie HOLDING","name:fr":"Boulangerie HOLDING","shop":"bakery"}},
{"type":"Feature","geometry":{"type":"Point","coordinates":[10.5210921,5.1419693]},"properties":{"name":"Boulangerie Patisserie Djoteng","name:fr":"Boulangerie Patisserie Djoteng","phone":"677749704","shop":"bakery"}},
{"type":"Feature","geometry":{"type":"Point","coordinates":[11.5362554,3.922627]},"properties":{"name":"Abattoir","shop":"butcher"}},
{"type":"Feature","geometry":{"type":"Point","coordinates":[9.6946394,4.0421123]},"properties":{"name":"street beignets","name:fr":"street beignets","shop":"bakery"}},
{"type":"Feature","geometry":{"type":"Point","coordinates":[11.4799567,3.8290549]},"properties":{"name":"micc jouvence","shop":"supermarket"}},
{"type":"Feature","geometry":{"type":"Point","coordinates":[9.1865527,4.0186917]},"properties":{"name":"Épicerie Franel","phone":"694655317","shop":"convenience"}},
{"type":"Feature","geometry":{"type":"Point","coordinates":[11.5218781,3.8575108]},"properties":{"brand":"Bonjour","brand:wikidata":"Q110278299","name":"Bonjour","shop":"convenience"}},
{"type":"Feature","geometry":{"type":"Point","coordinates":[13.5849568,7.3257733]},"properties":{"name":"Boulangerie Patisserie Idéale","shop":"bakery"}},
{"type":"Feature","geometry":{"type":"Point","coordinates":[11.4834877,3.8445676]},"properties":{"name":"boulangerie du centre","shop":"bakery"}},
{"type":"Feature","geometry":{"type":"Point","coordinates":[11.5496987,3.8786369]},"properties":{"indoor_seating":"yes","name":"Boulangerie Pâtisserie Princesse III","outdoor_seating":"yes","shop":"bakery"}},
{"type":"Feature","geometry":{"type":"Point","coordinates":[9.7358002,4.0962371]},"properties":{"name":"Brioche Dorée","shop":"bakery"}},
{"type":"Feature","geometry":{"type":"Point","coordinates":[11.5233359,3.8956368]},"properties":{"name":"Oumbe","shop":"supermarket"}},
{"type":"Feature","geometry":{"type":"Point","coordinates":[14.0146734,11.1611033]},"properties":{"amenity":"marketplace","name":"Marché"}},
{"type":"Feature","geometry":{"type":"Point","coordinates":[11.5071963,3.52089]},"properties":{"shop":"convenience"}},
{"type":"Feature","geometry":{"type":"Point","coordinates":[11.5201311,3.9295089]},"properties":{"name":"Quifeutou emana","shop":"butcher"}},
{"type":"Feature","geometry":{"type":"Point","coordinates":[11.9559618,3.346407]},"properties":{"amenity":"marketplace"}},
{"type":"Feature","geometry":{"type":"Point","coordinates":[10.1727887,5.9686115]},"properties":{"addr:street":"Foncha Street","name":"Mr Baker","name:en":"My Baker","opening_hours":"Mo-Su 06:00-20:00","shop":"bakery"}},
{"type":"Feature","geometry":{"type":"Point","coordinates":[10.1750197,5.9691935]},"properties":{"addr:street":"Nkwen Street","name":"NJEIFORBI","name:en":"NJIERFORBI","name:fr":"NJIERFORBI","shop":"bakery"}},
{"type":"Feature","geometry":{"type":"Point","coordinates":[10.1249221,3.7979134]},"properties":{"name":"Marché du Bord","shop":"supermarket"}},
{"type":"Feature","geometry":{"type":"Point","coordinates":[10.1273092,3.7972569]},"properties":{"name":"Supermarché","shop":"supermarket"}},
{"type":"Feature","geometry":{"type":"Point","coordinates":[11.5191388,3.8462745]},"properties":{"addr:street":"Boulevard de l'OUA","name":"Mahima","shop":"supermarket"}},
{"type":"Feature","geometry":{"type":"Point","coordinates":[11.4866826,3.8447971]},"properties":{"email":"sales@kenzamarket.com","name":"Kenza Market 100% Bio","opening_hours":"Mo-Sa 08:00-13:00, 15:00-21:00","operator":"Kenza","phone":"+237671022327","shop":"supermarket","website":"https://www.kenzamarket.com/"}},
{"type":"Feature","geometry":{"type":"Point","coordinates":[9.9132995,2.9521714]},"properties":{"brand":"Spar","brand:wikidata":"Q610492","brand:wikipedia":"en:Spar (retailer)","name":"Spar","shop":"convenience"}},
{"type":"Feature","geometry":{"type":"Point","coordinates":[9.4416338,4.6310897]},"properties":{"addr:street":"Opposite Eneo","email":"linsaybrith@gmail.com","internet_access":"wlan","name":"Rapido Supermarket","opening_hours":"Mo-Su 07:00-23:55","phone":"+237675275201","shop":"supermarket"}},
{"type":"Feature","geometry":{"type":"Point","coordinates":[9.6398035,4.0993405]},"properties":{"name":"Asobo bakery 1","shop":"bakery"}},
{"type":"Feature","geometry":{"type":"Point","coordinates":[11.49942,3.874383]},"properties":{"addr:postcode":"7868 Ydï¿½","contact:fax":"222233428","contact:phone":"222234853","name":"Niki Mokolo","shop":"supermarket"}},
{"type":"Feature","geometry":{"type":"Point","coordinates":[11.4994052,3.8741361]},"properties":{"addr:postcode":"2935","contact:phone":"222675151","contact:website":"www.complexesantalucia.com","name":"Santa Lucia","shop":"bakery"}},
{"type":"Feature","geometry":{"type":"Point","coordinates":[11.4953578,3.864086]},"properties":{"amenity":"atm","check_date":"2024-01-11","name":"SANTA LUCIA Melen","operator":"afriland first banque","shop":"supermarket"}},
{"type":"Feature","geometry":{"type":"Point","coordinates":[11.5246532,3.7834509]},"properties":{"name":"Des Lys","shop":"supermarket"}},
{"type":"Feature","geometry":{"type":"Point","coordinates":[11.5505494,3.879744]},"properties":{"name":"Santa Lucia Lycée Bilingue","name:en":"Santa Lucia Essos","name:fr":"Santa Lucia Essos","shop":"supermarket"}},
{"type":"Feature","geometry":{"type":"Point","coordinates":[13.5704218,7.3338488]},"properties":{"date":"1984","name":"Abatoir de BALADJI 2","shop":"butcher","source":"ACAGER"}},
{"type":"Feature","geometry":{"type":"Point","coordinates":[13.551918,7.3941238]},"properties":{"date":"2005","name":"Abatoir de Manwi","shop":"butcher","source":"ACAGER"}},
{"type":"Feature","geometry":{"type":"Point","coordinates":[13.549088,7.413291]},"properties":{"shop":"butcher"}},
{"type":"Feature","geometry":{"type":"Point","coordinates":[13.5922893,7.3199502]},"properties":{"name":"Boulangerie","shop":"bakery"}},
{"type":"Feature","geometry":{"type":"Point","coordinates":[13.58445,7.324961]},"properties":{"fixme":"TONGO GALDIMA","name":"BOUCHERIE VIP","shop":"butcher","source":"ACAGER"}},
{"type":"Feature","geometry":{"type":"Point","coordinates":[13.5848713,7.3264025]},"properties":{"shop":"butcher","source":"ACAGER"}},
{"type":"Feature","geometry":{"type":"Point","coordinates":[13.5848737,7.3263356]},"properties":{"shop":"butcher","source":"ACAGER"}},
{"type":"Feature","geometry":{"type":"Point","coordinates":[13.5828164,7.3261734]},"properties":{"fixme":"TONGO GALDIMA","name":"BonI 4 GIGA","shop":"butcher","source":"ACAGER"}},
{"type":"Feature","geometry":{"type":"Point","coordinates":[13.5826946,7.3258983]},"properties":{"contact:phone":"673667133","fixme":"TONGO GALDIMA","name":"BOUCHRIE REINGUI GALDIMA POWER","shop":"butcher","source":"ACAGER"}},
{"type":"Feature","geometry":{"type":"Point","coordinates":[13.5982952,7.3343886]},"properties":{"contact:phone":"683101771","shop":"butcher","source":"ACAGER"}},
{"type":"Feature","geometry":{"type":"Point","coordinates":[13.5920433,7.3335907]},"properties":{"contact:phone":"661004857","shop":"butcher","source":"ACAGER"}},
{"type":"Feature","geometry":{"type":"Point","coordinates":[13.592207,7.333774]},"properties":{"shop":"butcher","source":"ACAGER"}},
{"type":"Feature","geometry":{"type":"Point","coordinates":[13.5875371,7.3343724]},"properties":{"fixme":"SABONGARI GARE","name":"BOUCHERIE AL KAWAL","shop":"butcher","source":"ACAGER"}},
{"type":"Feature","geometry":{"type":"Point","coordinates":[13.5907258,7.331796]},"properties":{"contact:phone":"674574784","shop":"butcher","source":"ACAGER"}},
{"type":"Feature","geometry":{"type":"Point","coordinates":[13.5933887,7.3326214]},"properties":{"contact:phone":"696569039","shop":"butcher","source":"ACAGER"}},
{"type":"Feature","geometry":{"type":"Point","coordinates":[13.5843349,7.3279854]},"properties":{"contact:phone":"650090402","shop":"butcher","source":"ACAGER"}},
{"type":"Feature","geometry":{"type":"Point","coordinates":[13.5866948,7.3307136]},"properties":{"contact:phone":"670292733","name":"BOUCHERIE MODERNE","shop":"butcher","source":"ACAGER"}},
{"type":"Feature","geometry":{"type":"Point","coordinates":[13.5889303,7.3278295]},"properties":{"contact:phone":"676411080","shop":"butcher","source":"ACAGER"}},
{"type":"Feature","geometry":{"type":"Point","coordinates":[13.5851785,7.3249694]},"properties":{"contact:phone":"674249655","shop":"butcher","source":"ACAGER"}},
{"type":"Feature","geometry":{"type":"Point","coordinates":[13.5930072,7.3300339]},"properties":{"contact:phone":"676056566","shop":"butcher","source":"ACAGER"}},
{"type":"Feature","geometry":{"type":"Point","coordinates":[13.5931857,7.331836]},"properties":{"contact:phone":"679726814","shop":"butcher","source":"ACAGER"}},
{"type":"Feature","geometry":{"type":"Point","coordinates":[13.5926268,7.327487]},"properties":{"contact:phone":"699799595","fixme":"SABONGARI 3","shop":"butcher","source":"ACAGER"}},
{"type":"Feature","geometry":{"type":"Point","coordinates":[13.5933361,7.3313933]},"properties":{"shop":"butcher","source":"ACAGER"}},
{"type":"Feature","geometry":{"type":"Point","coordinates":[13.5938875,7.3335257]},"properties":{"contact:phone":"675996748","shop":"butcher","source":"ACAGER"}},
{"type":"Feature","geometry":{"type":"Point","coordinates":[13.5863268,7.3284175]},"properties":{"fixme":"Troua Mala","shop":"butcher","source":"ACAGER"}},
{"type":"Feature","geometry":{"type":"Point","coordinates":[13.5880151,7.3278711]},"properties":{"contact:phone":"677084965","fixme":"Troua Mala","shop":"butcher","source":"ACAGER"}},
{"type":"Feature","geometry":{"type":"Point","coordinates":[13.5856141,7.3264231]},"properties":{"contact:phone":"660722478","shop":"butcher","source":"ACAGER"}},
{"type":"Feature","geometry":{"type":"Point","coordinates":[13.5929597,7.3299418]},"properties":{"contact:phone":"676056566","shop":"butcher","source":"ACAGER"}},
{"type":"Feature","geometry":{"type":"Point","coordinates":[13.5931687,7.3317767]},"properties":{"contact:phone":"679726814","shop":"butcher","source":"ACAGER"}},
{"type":"Feature","geometry":{"type":"Point","coordinates":[13.5926587,7.3276337]},"properties":{"contact:phone":"699799595","fixme":"SABONGARI 3","shop":"butcher","source":"ACAGER"}},
{"type":"Feature","geometry":{"type":"Point","coordinates":[13.5934333,7.3313743]},"properties":{"shop":"butcher","source":"ACAGER"}},
{"type":"Feature","geometry":{"type":"Point","coordinates":[13.5938738,7.3334626]},"properties":{"contact:phone":"675996748","shop":"butcher","source":"ACAGER"}},
{"type":"Feature","geometry":{"type":"Point","coordinates":[13.56148,7.28758]},"properties":{"is_in:quarter":"Bamyanga","shop":"butcher","source":"ACAGER"}},
{"type":"Feature","geometry":{"type":"Point","coordinates":[13.561007,7.287149]},"properties":{"is_in:quarter":"Bamyanga","shop":"butcher","source":"ACAGER"}},
{"type":"Feature","geometry":{"type":"Point","coordinates":[13.573842,7.2941191]},"properties":{"contact:phone":"675812699","name":"BIYA KABIROU","shop":"butcher","source":"ACAGER"}},
{"type":"Feature","geometry":{"type":"Point","coordinates":[13.580183,7.3070028]},"properties":{"contact:phone":"677797794","name":"YAYA BOOUCHERIE SOMENO","shop":"butcher","source":"ACAGER"}},
{"type":"Feature","geometry":{"type":"Point","coordinates":[13.5782057,7.2932832]},"properties":{"name":"YERIMA MOKOLO","shop":"butcher","source":"ACAGER"}},
{"type":"Feature","geometry":{"type":"Point","coordinates":[13.5771511,7.2912007]},"properties":{"name":"BABAKAI VIP","shop":"butcher","source":"ACAGER"}},
{"type":"Feature","geometry":{"type":"Point","coordinates":[13.5770353,7.2925259]},"properties":{"contact:phone":"67727175","shop":"butcher","source":"ACAGER"}},
{"type":"Feature","geometry":{"type":"Point","coordinates":[13.5762453,7.2933685]},"properties":{"shop":"butcher","source":"ACAGER"}},
{"type":"Feature","geometry":{"type":"Point","coordinates":[13.5778247,7.3056747]},"properties":{"contact:phone":"650066235","name":"AMINOU KANOU","shop":"butcher","source":"ACAGER"}},
{"type":"Feature","geometry":{"type":"Point","coordinates":[13.5765889,7.2976337]},"properties":{"name":"GIC KHAIROU NARRAL","shop":"butcher","source":"ACAGER"}},
{"type":"Feature","geometry":{"type":"Point","coordinates":[13.5764188,7.2962641]},"properties":{"contact:phone":"650605341","name":"OUMAROU GONI","shop":"butcher","source":"ACAGER"}},
{"type":"Feature","geometry":{"type":"Point","coordinates":[13.5769544,7.2947253]},"properties":{"contact:phone":"676283210","name":"BABA","shop":"butcher","source":"ACAGER"}},
{"type":"Feature","geometry":{"type":"Point","coordinates":[13.5769838,7.2936195]},"properties":{"name":"BOUCHERIE BOUBA","shop":"butcher","source":"ACAGER"}},
{"type":"Feature","geometry":{"type":"Point","coordinates":[13.5749457,7.2937554]},"properties":{"contact:phone":"666398114","shop":"butcher","source":"ACAGER"}},
{"type":"Feature","geometry":{"type":"Point","coordinates":[13.5746973,7.2890914]},"properties":{"contact:phone":"697054757","name":"BOUCHERIE MODERNE DE BAMYANGA VIP","shop":"butcher","source":"ACAGER"}},
{"type":"Feature","geometry":{"type":"Point","coordinates":[13.57,7.2766]},"properties":{"contact:phone":"698579012","is_in:quarter":"Bamyanga","shop":"butcher","source":"ACAGER"}},
{"type":"Feature","geometry":{"type":"Point","coordinates":[13.555344,7.269777]},"properties":{"contact:phone":"672634322","fixme":"WAKWA","shop":"butcher","source":"ACAGER"}},
{"type":"Feature","geometry":{"type":"Point","coordinates":[13.5756795,7.2938102]},"properties":{"contact:phone":"677404045","name":"SALAMATOU BOUCHERIE","shop":"butcher","source":"ACAGER"}},
{"type":"Feature","geometry":{"type":"Point","coordinates":[13.5759015,7.2935123]},"properties":{"is_in:quarter":"Bamyanga","shop":"butcher","source":"ACAGER"}},
{"type":"Feature","geometry":{"type":"Point","coordinates":[13.5751109,7.2939607]},"properties":{"contact:phone":"660365737","is_in:quarter":"Bamyanga","shop":"butcher","source":"ACAGER"}},
{"type":"Feature","geometry":{"type":"Point","coordinates":[13.5752043,7.2939224]},"properties":{"is_in:quarter":"Bamyanga","shop":"butcher","source":"ACAGER"}},
{"type":"Feature","geometry":{"type":"Point","coordinates":[13.587254,7.3326235]},"properties":{"shop":"butcher","source":"ACAGER"}},
{"type":"Feature","geometry":{"type":"Point","coordinates":[13.5846972,7.3286078]},"properties":{"shop":"butcher","source":"ACAGER"}},
{"type":"Feature","geometry":{"type":"Point","coordinates":[13.5828519,7.327024]},"properties":{"contact:phone":"679492627","fixme":"PETIT MARCHE","shop":"butcher","source":"ACAGER"}},
{"type":"Feature","geometry":{"type":"Point","coordinates":[13.5828335,7.3270439]},"properties":{"contact:phone":"693033990","fixme":"PETIT MARCHE","shop":"butcher","source":"ACAGER"}},
{"type":"Feature","geometry":{"type":"Point","coordinates":[13.5900037,7.3041259]},"properties":{"contact:phone":"677297160","shop":"butcher","source":"ACAGER"}},
{"type":"Feature","geometry":{"type":"Point","coordinates":[13.5900071,7.3010391]},"properties":{"contact:phone":"679326907","shop":"butcher","source":"ACAGER"}},
{"type":"Feature","geometry":{"type":"Point","coordinates":[13.550024,7.4155508]},"properties":{"shop":"butcher","source":"ACAGER"}},
{"type":"Feature","geometry":{"type":"Point","coordinates":[13.5561549,7.4324657]},"properties":{"shop":"butcher","source":"ACAGER"}},
{"type":"Feature","geometry":{"type":"Point","coordinates":[13.5552413,7.4273574]},"properties":{"shop":"butcher","source":"ACAGER"}},
{"type":"Feature","geometry":{"type":"Point","coordinates":[13.5522476,7.4205393]},"properties":{"shop":"butcher","source":"ACAGER"}},
{"type":"Feature","geometry":{"type":"Point","coordinates":[13.5512018,7.4178392]},"properties":{"shop":"butcher","source":"ACAGER"}},
{"type":"Feature","geometry":{"type":"Point","coordinates":[13.5550407,7.4394717]},"properties":{"shop":"butcher","source":"ACAGER"}},
{"type":"Feature","geometry":{"type":"Point","coordinates":[13.5502008,7.3998888]},"properties":{"place":"Manwi","shop":"butcher","source":"ACAGER"}},
{"type":"Feature","geometry":{"type":"Point","coordinates":[13.5513254,7.3949737]},"properties":{"shop":"butcher","source":"ACAGER"}},
{"type":"Feature","geometry":{"type":"Point","coordinates":[13.5498022,7.4147903]},"properties":{"shop":"butcher","source":"ACAGER"}},
{"type":"Feature","geometry":{"type":"Point","coordinates":[13.5547828,7.4418003]},"properties":{"contact:phone":"650912855","fixme":"Malang","shop":"butcher","source":"ACAGER"}},
{"type":"Feature","geometry":{"type":"Point","coordinates":[13.5478062,7.4111472]},"properties":{"shop":"butcher","source":"ACAGER"}},
{"type":"Feature","geometry":{"type":"Point","coordinates":[13.5535,7.30169]},"properties":{"fixme":"BEKA","shop":"butcher","source":"ACAGER"}},
{"type":"Feature","geometry":{"type":"Point","coordinates":[13.54823,7.31073]},"properties":{"contact:phone":"677529351","fixme":"BEKA","shop":"butcher","source":"ACAGER"}},
{"type":"Feature","geometry":{"type":"Point","coordinates":[13.5553341,7.2975119]},"properties":{"contact:phone":"670442255","fixme":"BEKA","name":"Boucherie Haérou","shop":"butcher","source":"ACAGER"}},
{"type":"Feature","geometry":{"type":"Point","coordinates":[13.5740773,7.309348]},"properties":{"contact:phone":"660525202","name":"BOUCHERIE INTERNATIONALE DE CLIMAT D'AFRIQUE","shop":"butcher","source":"ACAGER"}},
{"type":"Feature","geometry":{"type":"Point","coordinates":[13.5809414,7.3289148]},"properties":{"shop":"butcher","source":"ACAGER"}},
{"type":"Feature","geometry":{"type":"Point","coordinates":[13.5850121,7.3208194]},"properties":{"contact:phone":"673711651","name":"HADIMAH BOUCHERIE CENTRALE","shop":"butcher","source":"ACAGER"}},
{"type":"Feature","geometry":{"type":"Point","coordinates":[13.5867915,7.3193703]},"properties":{"contact:phone":"674333830","shop":"butcher","source":"ACAGER"}},
{"type":"Feature","geometry":{"type":"Point","coordinates":[13.587204,7.3194122]},"properties":{"contact:phone":"679626833","shop":"butcher","source":"ACAGER"}},
{"type":"Feature","geometry":{"type":"Point","coordinates":[13.58502,7.31919]},"properties":{"contact:phone":"650810290","fixme":"BALI","shop":"butcher","source":"ACAGER"}},
{"type":"Feature","geometry":{"type":"Point","coordinates":[13.5839352,7.3208143]},"properties":{"fixme":"BALI","shop":"butcher","source":"ACAGER"}},
{"type":"Feature","geometry":{"type":"Point","coordinates":[13.5822967,7.321]},"properties":{"fixme":"BALI","shop":"butcher","source":"ACAGER"}},
{"type":"Feature","geometry":{"type":"Point","coordinates":[13.5804971,7.3214954]},"properties":{"contact:phone":"674315999","fixme":"TONGO PASTORAL","shop":"butcher","source":"ACAGER"}},
{"type":"Feature","geometry":{"type":"Point","coordinates":[13.5824629,7.3215403]},"properties":{"contact:phone":"653534848","name":"BOUCHERIE MODRENE DES GRANDES REALISATIONS","shop":"butcher","source":"ACAGER"}},
{"type":"Feature","geometry":{"type":"Point","coordinates":[13.5837377,7.3216046]},"properties":{"shop":"butcher","source":"ACAGER"}},
{"type":"Feature","geometry":{"type":"Point","coordinates":[13.5839494,7.3276548]},"properties":{"contact:phone":"675090765","name":"BOUCHRIE DE TONGO","shop":"butcher","source":"ACAGER"}},
{"type":"Feature","geometry":{"type":"Point","coordinates":[13.5842562,7.3238002]},"properties":{"contact:phone":"679989158","name":"BOUCHRIE LA REFERENCE","shop":"butcher","source":"ACAGER"}},
{"type":"Feature","geometry":{"type":"Point","coordinates":[13.5840486,7.3265056]},"properties":{"shop":"butcher","source":"ACAGER"}},
{"type":"Feature","geometry":{"type":"Point","coordinates":[13.5798788,7.3232474]},"properties":{"contact:phone":"677968953","fixme":"TONGO GALDIMA","name":"BOUCHRIE DU GRAND NORD","shop":"butcher","source":"ACAGER"}},
{"type":"Feature","geometry":{"type":"Point","coordinates":[13.5951617,7.3175449]},"properties":{"contact:phone":"675 99 25 50","name":"HOUSSENI SOULEY","shop":"butcher","source":"ACAGER"}},
{"type":"Feature","geometry":{"type":"Point","coordinates":[13.5968624,7.3106464]},"properties":{"name":"ISSA NANA","shop":"butcher","source":"ACAGER"}},
{"type":"Feature","geometry":{"type":"Point","coordinates":[13.5969536,7.3108397]},"properties":{"contact:phone":"699 58 80 66","name":"YOUSSOUFA ADAMOU","shop":"butcher","source":"ACAGER"}},
{"type":"Feature","geometry":{"type":"Point","coordinates":[13.6000357,7.3033737]},"properties":{"contact:phone":"679 32 69 07","name":"YAOUBA","shop":"butcher","source":"ACAGER"}},
{"type":"Feature","geometry":{"type":"Point","coordinates":[13.6012345,7.3008103]},"properties":{"fixme":"BURKINA","name":"YAOUBA SALE","shop":"butcher","source":"ACAGER"}},
{"type":"Feature","geometry":{"type":"Point","coordinates":[13.5993822,7.3055468]},"properties":{"contact:phone":"674 12 84 07","name":"ASSANOU DJIDERE","shop":"butcher","source":"ACAGER"}},
{"type":"Feature","geometry":{"type":"Point","coordinates":[13.5993756,7.3050057]},"properties":{"contact:phone":"674 14 09 01","name":"ALHDJI YOUSSOUFA","shop":"butcher","source":"ACAGER"}},
{"type":"Feature","geometry":{"type":"Point","coordinates":[13.577078,7.2918253]},"properties":{"contact:phone":"691309977","name":"HALILOU","shop":"butcher","source":"ACAGER"}},
{"type":"Feature","geometry":{"type":"Point","coordinates":[13.5859636,7.2978505]},"properties":{"contact:phone":"679397509","name":"ALIOU","shop":"butcher","source":"ACAGER"}},
{"type":"Feature","geometry":{"type":"Point","coordinates":[13.5854265,7.2974304]},"properties":{"contact:phone":"653521414","name":"boucherie ALBARKA","shop":"butcher","source":"ACAGER"}},
{"type":"Feature","geometry":{"type":"Point","coordinates":[13.5780421,7.3005625]},"properties":{"contact:phone":"656555517","name":"ISSA","shop":"butcher","source":"ACAGER"}},
{"type":"Feature","geometry":{"type":"Point","coordinates":[13.5852941,7.298118]},"properties":{"contact:phone":"679271722","name":"SALIOU","shop":"butcher","source":"ACAGER"}},
{"type":"Feature","geometry":{"type":"Point","coordinates":[13.5731484,7.2951886]},"properties":{"contact:phone":"694067579","name":"ABOUBAKAR","shop":"butcher","source":"ACAGER"}},
{"type":"Feature","geometry":{"type":"Point","coordinates":[13.5770474,7.2933987]},"properties":{"contact:phone":"674920500","fixme":"Bamyanga","name":"ABOUBAKAR NANA","shop":"butcher","source":"ACAGER"}},
{"type":"Feature","geometry":{"type":"Point","coordinates":[13.5767889,7.2934932]},"properties":{"name":"BOUCHERIE MODERNE","shop":"butcher","source":"ACAGER"}},
{"type":"Feature","geometry":{"type":"Point","coordinates":[13.5765239,7.2935653]},"properties":{"contact:phone":"675571810","fixme":"Bamyanga","name":"AHMADOU","shop":"butcher","source":"ACAGER"}},
{"type":"Feature","geometry":{"type":"Point","coordinates":[13.5768611,7.2921694]},"properties":{"contact:phone":"670674990","name":"MOHAMED BEN ALI","shop":"butcher","source":"ACAGER"}},
{"type":"Feature","geometry":{"type":"Point","coordinates":[13.5769182,7.291968]},"properties":{"name":"YAYA","shop":"butcher","source":"ACAGER"}},
{"type":"Feature","geometry":{"type":"Point","coordinates":[13.5857592,7.3212589]},"properties":{"contact:phone":"670648619","shop":"butcher","source":"ACAGER"}},
{"type":"Feature","geometry":{"type":"Point","coordinates":[13.585781,7.3213577]},"properties":{"shop":"butcher","source":"ACAGER"}},
{"type":"Feature","geometry":{"type":"Point","coordinates":[13.5958417,7.3195146]},"properties":{"contact:phone":"674467878","shop":"butcher","source":"ACAGER"}},
{"type":"Feature","geometry":{"type":"Point","coordinates":[13.5947218,7.3194477]},"properties":{"contact:phone":"650823606","shop":"butcher","source":"ACAGER"}},
{"type":"Feature","geometry":{"type":"Point","coordinates":[13.588813,7.31908]},"properties":{"contact:phone":"661004371","fixme":"BOUMDJERE","shop":"butcher","source":"ACAGER"}},
{"type":"Feature","geometry":{"type":"Point","coordinates":[13.5885381,7.3190987]},"properties":{"contact:phone":"681494981","name":"VIP","shop":"butcher","source":"ACAGER"}},
{"type":"Feature","geometry":{"type":"Point","coordinates":[13.5923998,7.3199739]},"properties":{"contact:phone":"677226368","shop":"butcher","source":"ACAGER"}},
{"type":"Feature","geometry":{"type":"Point","coordinates":[13.5921496,7.3196663]},"properties":{"contact:phone":"696621379","shop":"butcher","source":"ACAGER"}},
{"type":"Feature","geometry":{"type":"Point","coordinates":[13.5879915,7.3188556]},"properties":{"contact:phone":"694550313","shop":"butcher","source":"ACAGER"}},
{"type":"Feature","geometry":{"type":"Point","coordinates":[13.593416,7.3200459]},"properties":{"contact:phone":"674467878","shop":"butcher","source":"ACAGER"}},
{"type":"Feature","geometry":{"type":"Point","coordinates":[13.594885,7.3201117]},"properties":{"shop":"butcher","source":"ACAGER"}},
{"type":"Feature","geometry":{"type":"Point","coordinates":[13.59278,7.31721]},"properties":{"contact:phone":"652464189","name":"BOUCHERIE BELEKA","shop":"butcher","source":"ACAGER"}},
{"type":"Feature","geometry":{"type":"Point","coordinates":[13.594312,7.3183092]},"properties":{"shop":"butcher","source":"ACAGER"}},
{"type":"Feature","geometry":{"type":"Point","coordinates":[13.5940216,7.3186414]},"properties":{"contact:phone":"652687978","shop":"butcher","source":"ACAGER"}},
{"type":"Feature","geometry":{"type":"Point","coordinates":[13.58772,7.31726]},"properties":{"contact:phone":"676214800","fixme":"DJAKBOL","shop":"butcher","source":"ACAGER"}},
{"type":"Feature","geometry":{"type":"Point","coordinates":[13.587137,7.318232]},"properties":{"fixme":"BOUMDJERE","shop":"butcher","source":"ACAGER"}},
{"type":"Feature","geometry":{"type":"Point","coordinates":[13.5949979,7.3202621]},"properties":{"contact:phone":"680372162","shop":"butcher","source":"ACAGER"}},
{"type":"Feature","geometry":{"type":"Point","coordinates":[13.5947046,7.3233307]},"properties":{"shop":"butcher","source":"ACAGER"}},
{"type":"Feature","geometry":{"type":"Point","coordinates":[13.590488,7.324144]},"properties":{"contact:phone":"674857393","shop":"butcher","source":"ACAGER"}},
{"type":"Feature","geometry":{"type":"Point","coordinates":[13.5913641,7.3426389]},"properties":{"shop":"butcher","source":"ACAGER"}},
{"type":"Feature","geometry":{"type":"Point","coordinates":[13.5828526,7.3568205]},"properties":{"shop":"butcher","source":"ACAGER"}},
{"type":"Feature","geometry":{"type":"Point","coordinates":[13.5831804,7.356949]},"properties":{"shop":"butcher","source":"ACAGER"}},
{"type":"Feature","geometry":{"type":"Point","coordinates":[13.5815293,7.3570633]},"properties":{"contact:phone":"678803379","shop":"butcher","source":"ACAGER"}},
{"type":"Feature","geometry":{"type":"Point","coordinates":[13.5873271,7.3541066]},"properties":{"shop":"butcher","source":"ACAGER"}},
{"type":"Feature","geometry":{"type":"Point","coordinates":[13.5911117,7.3427233]},"properties":{"contact:phone":"676978087","shop":"butcher","source":"ACAGER"}},
{"type":"Feature","geometry":{"type":"Point","coordinates":[13.5813029,7.3569479]},"properties":{"shop":"butcher","source":"ACAGER"}},
{"type":"Feature","geometry":{"type":"Point","coordinates":[13.5807629,7.3566881]},"properties":{"contact:phone":"667843845","shop":"butcher","source":"ACAGER"}},
{"type":"Feature","geometry":{"type":"Point","coordinates":[13.5912748,7.3427686]},"properties":{"shop":"butcher","source":"ACAGER"}},
{"type":"Feature","geometry":{"type":"Point","coordinates":[13.5881406,7.3379335]},"properties":{"ele":"1100","name":"Boulangerie Patisserie Helou «épis d'or»","shop":"bakery"}},
{"type":"Feature","geometry":{"type":"Point","coordinates":[13.5480733,7.4118159]},"properties":{"name":"Baguette d'Or","shop":"bakery","source":"ACAGER"}},
{"type":"Feature","geometry":{"type":"Point","coordinates":[13.579062,7.3209781]},"properties":{"contact:phone":"699661023","fixme":"CENTRE COMMERCIAL","name":"BOULANGERIE ZATTAR","shop":"bakery","source":"ACAGER"}},
{"type":"Feature","geometry":{"type":"Point","coordinates":[13.5786471,7.3204068]},"properties":{"contact:phone":"675253633","fixme":"CENTRE COMMERCIAL","name":"PATISSERIE CENTRALE","shop":"bakery","source":"ACAGER"}},
{"type":"Feature","geometry":{"type":"Point","coordinates":[13.593294,7.3322396]},"properties":{"contact:phone":"/","fixme":"SABONGARI","name":"SABGA","shop":"bakery","source":"ACAGER"}},
{"type":"Feature","geometry":{"type":"Point","coordinates":[13.5897146,7.3277699]},"properties":{"contact:phone":"652525217","name":"BOULANGERE PATISSERIE L'AVENIR","shop":"bakery","source":"ACAGER"}},
{"type":"Feature","geometry":{"type":"Point","coordinates":[13.5850725,7.3261521]},"properties":{"contact:phone":"/","name":"BOULANGERIE PATISSERIE IDEALE","shop":"bakery","source":"ACAGER"}},
{"type":"Feature","geometry":{"type":"Point","coordinates":[13.5753107,7.3208899]},"properties":{"fixme":"CENTRE COMMERCIAL","name":"DABADJI FAYAT","shop":"bakery","source":"ACAGER"}},
{"type":"Feature","geometry":{"type":"Point","coordinates":[13.580437,7.3268788]},"properties":{"contact:phone":"677654268","name":"GAEL","shop":"bakery","source":"ACAGER"}},
{"type":"Feature","geometry":{"type":"Point","coordinates":[13.5507653,7.4171134]},"properties":{"name":"Patisserie Centrale","shop":"bakery","source":"ACAGER"}},
{"type":"Feature","geometry":{"type":"Point","coordinates":[13.5533932,7.4592675]},"properties":{"contact:phone":"696492017","shop":"bakery","source":"ACAGER"}},
{"type":"Feature","geometry":{"type":"Point","coordinates":[13.5479844,7.4117123]},"properties":{"contact:phone":"243287560","shop":"bakery","source":"ACAGER"}},
{"type":"Feature","geometry":{"type":"Point","coordinates":[13.55066,7.31169]},"properties":{"name":"BPH BEKA","shop":"bakery","source":"ACAGER"}},
{"type":"Feature","geometry":{"type":"Point","coordinates":[13.5710106,7.3061327]},"properties":{"contact:phone":"661171368","name":"NICOLAS","shop":"bakery","source":"ACAGER"}},
{"type":"Feature","geometry":{"type":"Point","coordinates":[13.5713376,7.30603]},"properties":{"contact:phone":"660384528","name":"MANI","shop":"bakery","source":"ACAGER"}},
{"type":"Feature","geometry":{"type":"Point","coordinates":[13.5751723,7.3199908]},"properties":{"name":"Marhaba","shop":"bakery","source":"ACAGER"}},
{"type":"Feature","geometry":{"type":"Point","coordinates":[13.5860781,7.319755]},"properties":{"contact:phone":"696492017","name":"BOULANGERIE PATISSERIE CENTRALE","shop":"bakery","source":"ACAGER"}},
{"type":"Feature","geometry":{"type":"Point","coordinates":[13.5847793,7.3188352]},"properties":{"contact:phone":"694656434","fixme":"BALI","name":"ABANAI SOUKITANG","shop":"bakery","source":"ACAGER"}},
{"type":"Feature","geometry":{"type":"Point","coordinates":[13.584618,7.3205754]},"properties":{"name":"BOULANGERIE HELOU","shop":"bakery","source":"ACAGER"}},
{"type":"Feature","geometry":{"type":"Point","coordinates":[13.5816817,7.3213667]},"properties":{"contact:phone":"680052453","fixme":"BALI","name":"BOULANGERIE CYAM","shop":"bakery","source":"ACAGER"}},
{"type":"Feature","geometry":{"type":"Point","coordinates":[13.5996038,7.3045884]},"properties":{"contact:phone":"694 97 91 00","name":"ALIOU BELLO","shop":"bakery","source":"ACAGER"}},
{"type":"Feature","geometry":{"type":"Point","coordinates":[13.5761055,7.2949587]},"properties":{"contact:phone":"661362744","name":"ALHADJI BOBBO","shop":"bakery","source":"ACAGER"}},
{"type":"Feature","geometry":{"type":"Point","coordinates":[13.5763413,7.2940332]},"properties":{"contact:phone":"677280856","name":"BOULANGERIE PATISSERIE SOCADIS SARL","shop":"bakery","source":"ACAGER"}},
{"type":"Feature","geometry":{"type":"Point","coordinates":[13.5778058,7.3073377]},"properties":{"contact:phone":"/","name":"HAYATOU","shop":"bakery","source":"ACAGER"}},
{"type":"Feature","geometry":{"type":"Point","coordinates":[13.5747158,7.294386]},"properties":{"contact:phone":"/","name":"AHMADOU","shop":"bakery","source":"ACAGER"}},
{"type":"Feature","geometry":{"type":"Point","coordinates":[13.5695658,7.2967915]},"properties":{"is_in:quarter":"Bamyanga","name":"Oumarou Faycal","shop":"bakery","source":"ACAGER"}},
{"type":"Feature","geometry":{"type":"Point","coordinates":[13.5695214,7.2968454]},"properties":{"is_in:quarter":"Bamyanga","name":"Saidou","shop":"bakery","source":"ACAGER"}},
{"type":"Feature","geometry":{"type":"Point","coordinates":[13.5939218,7.3183389]},"properties":{"contact:phone":"664990596","name":"BOULANGERIE","shop":"bakery","source":"ACAGER"}},
{"type":"Feature","geometry":{"type":"Point","coordinates":[13.5946342,7.3182909]},"properties":{"contact:phone":"676622151","fixme":"BANTAI","name":"PATISSERIE","shop":"bakery","source":"ACAGER"}},
{"type":"Feature","geometry":{"type":"Point","coordinates":[13.585248,7.3202702]},"properties":{"name":"Carrefour Koweït","place":"square","source":"ACAGER - OSM_Cameroon"}},
{"type":"Feature","geometry":{"type":"Point","coordinates":[13.5785296,7.3214283]},"properties":{"addr:city":"Ngaoundéré II","phone":"+237 222 25 19 45","shop":"supermarket"}},
{"type":"Feature","geometry":{"type":"Point","coordinates":[13.5791741,7.3224934]},"properties":{"contact:phone":"22252064","fixme":"CENTRE COMMERCIAL","name":"DJOUDJOU THOMAS","shop":"supermarket","source":"ACAGER"}},
{"type":"Feature","geometry":{"type":"Point","coordinates":[13.5792658,7.3226983]},"properties":{"contact:phone":"222251945","fixme":"CENTRE COMMERCIAL","name":"SUPER MARCHE SODIAL","shop":"supermarket","source":"ACAGER"}},
{"type":"Feature","geometry":{"type":"Point","coordinates":[13.5768581,7.3196663]},"properties":{"contact:phone":"690501185","fixme":"CENTRE COMMERCIAL","name":"ETS A. NZIKO. SARL","shop":"supermarket","source":"ACAGER"}},
{"type":"Feature","geometry":{"type":"Point","coordinates":[13.5758593,7.2950687]},"properties":{"contact:phone":"33441171/33441847","name":"Société des porovenderies du cameroun","shop":"supermarket","source":"ACAGER"}},
{"type":"Feature","geometry":{"type":"Point","coordinates":[13.5767343,7.2977077]},"properties":{"contact:phone":"242858653","name":"SOCIADAM SARL","shop":"supermarket","source":"ACAGER"}},
{"type":"Feature","geometry":{"type":"Point","coordinates":[13.5918562,7.3239983]},"properties":{"contact:phone":"674864061","name":"OUMAROU","shop":"supermarket","source":"ACAGER"}},
{"type":"Feature","geometry":{"type":"Point","coordinates":[13.5923943,7.3239282]},"properties":{"contact:phone":"696685503","name":"SOULEYMANOU","shop":"supermarket","source":"ACAGER"}},
{"type":"Feature","geometry":{"type":"Point","coordinates":[11.5349248,4.1668957]},"properties":{"name":"Dépôt Crystal","shop":"bakery"}},
{"type":"Feature","geometry":{"type":"Point","coordinates":[11.5351835,4.1668054]},"properties":{"name":"Établissement Saint Michel","shop":"convenience"}},
{"type":"Feature","geometry":{"type":"Point","coordinates":[13.4108842,9.3228019]},"properties":{"name":"boutique ISAC","shop":"supermarket"}},
{"type":"Feature","geometry":{"type":"Point","coordinates":[10.449929,3.6953108]},"properties":{"name":"Corner Store","shop":"convenience"}},
{"type":"Feature","geometry":{"type":"Point","coordinates":[9.4419452,4.6327682]},"properties":{"name":"TATA Convenience Store","shop":"convenience"}},
{"type":"Feature","geometry":{"type":"Point","coordinates":[9.7150465,4.0467496]},"properties":{"name":"Biscuit line Mboppi","shop":"convenience"}},
{"type":"Feature","geometry":{"type":"Point","coordinates":[11.5192562,3.8650735]},"properties":{"name":"Niki","shop":"supermarket"}},
{"type":"Feature","geometry":{"type":"Point","coordinates":[11.5175544,3.8711696]},"properties":{"check_date":"2023-12-29","name":"Boulangerie Calafatas","payment:cards":"no","payment:cash":"yes","payment:credit_cards":"no","payment:debit_cards":"no","phone":"+237 22 23 17 29","shop":"bakery","wheelchair":"no"}},
{"type":"Feature","geometry":{"type":"Point","coordinates":[11.5218486,3.8642011]},"properties":{"shop":"bakery"}},
{"type":"Feature","geometry":{"type":"Point","coordinates":[11.5180251,3.8826259]},"properties":{"contact:fax":"222210503","name":"Boulangerie Centrale","shop":"bakery","source":"sobzeros"}},
{"type":"Feature","geometry":{"type":"Point","coordinates":[11.5168074,3.88398]},"properties":{"contact:phone":"674931332","name":"Ecomarché","shop":"supermarket","source":"PFE(IT3) ENSTP Yaoundé - 2010"}},
{"type":"Feature","geometry":{"type":"Point","coordinates":[11.5249459,3.8777484]},"properties":{"name":"Mahima Supermarché","shop":"supermarket","source":"PFE(IT3) ENSTP Yaoundé - 2010"}},
{"type":"Feature","geometry":{"type":"Point","coordinates":[11.5208696,3.8849782]},"properties":{"name":"Bonjour","shop":"convenience","source":"mapillary"}},
{"type":"Feature","geometry":{"type":"Point","coordinates":[11.5206456,3.8857863]},"properties":{"name":"NIKI Nlongkak","opening_hours":"Mo-Sa 08:00-19:00","shop":"supermarket"}},
{"type":"Feature","geometry":{"type":"Point","coordinates":[11.5056628,3.8817535]},"properties":{"name":"Max","shop":"supermarket","source":"PFE(IT3) ENSTP Yaoundé - 2010"}},
{"type":"Feature","geometry":{"type":"Point","coordinates":[9.7148775,4.0457852]},"properties":{"name":"Juice Place Mboppi","shop":"convenience"}},
{"type":"Feature","geometry":{"type":"Point","coordinates":[11.5183188,3.8835652]},"properties":{"name":"Total service","shop":"convenience"}},
{"type":"Feature","geometry":{"type":"Point","coordinates":[11.5144564,3.8964316]},"properties":{"shop":"convenience"}},
{"type":"Feature","geometry":{"type":"Point","coordinates":[13.4034732,9.343557]},"properties":{"name":"Alimentation Moctar","shop":"convenience"}},
{"type":"Feature","geometry":{"type":"Point","coordinates":[13.5077749,9.0299004]},"properties":{"shop":"butcher"}},
{"type":"Feature","geometry":{"type":"Point","coordinates":[13.5075617,9.0259998]},"properties":{"shop":"bakery"}},
{"type":"Feature","geometry":{"type":"Point","coordinates":[13.5074088,9.0274329]},"properties":{"shop":"bakery"}},
{"type":"Feature","geometry":{"type":"Point","coordinates":[13.5032421,9.0255121]},"properties":{"shop":"convenience"}},
{"type":"Feature","geometry":{"type":"Point","coordinates":[13.5042032,9.0283175]},"properties":{"shop":"convenience"}},
{"type":"Feature","geometry":{"type":"Point","coordinates":[13.5027982,9.0277415]},"properties":{"shop":"convenience"}},
{"type":"Feature","geometry":{"type":"Point","coordinates":[13.5035661,9.0289207]},"properties":{"shop":"convenience"}},
{"type":"Feature","geometry":{"type":"Point","coordinates":[13.5043707,9.0279474]},"properties":{"shop":"convenience"}},
{"type":"Feature","geometry":{"type":"Point","coordinates":[13.5039511,9.0289089]},"properties":{"shop":"convenience"}},
{"type":"Feature","geometry":{"type":"Point","coordinates":[13.5034085,9.0280014]},"properties":{"shop":"convenience"}},
{"type":"Feature","geometry":{"type":"Point","coordinates":[13.5032775,9.0258479]},"properties":{"shop":"convenience"}},
{"type":"Feature","geometry":{"type":"Point","coordinates":[13.5031772,9.0262916]},"properties":{"shop":"convenience"}},
{"type":"Feature","geometry":{"type":"Point","coordinates":[13.5034152,9.0262677]},"properties":{"shop":"convenience"}},
{"type":"Feature","geometry":{"type":"Point","coordinates":[13.5042012,9.0277295]},"properties":{"shop":"convenience"}},
{"type":"Feature","geometry":{"type":"Point","coordinates":[13.5020019,9.0274908]},"properties":{"shop":"convenience"}},
{"type":"Feature","geometry":{"type":"Point","coordinates":[13.5068519,9.0289148]},"properties":{"shop":"convenience"}},
{"type":"Feature","geometry":{"type":"Point","coordinates":[13.5072361,9.0287046]},"properties":{"shop":"convenience"}},
{"type":"Feature","geometry":{"type":"Point","coordinates":[13.5246286,9.031905]},"properties":{"shop":"convenience"}},
{"type":"Feature","geometry":{"type":"Point","coordinates":[13.509874,9.0437281]},"properties":{"shop":"convenience"}},
{"type":"Feature","geometry":{"type":"Point","coordinates":[13.5098735,9.0436838]},"properties":{"shop":"convenience"}},
{"type":"Feature","geometry":{"type":"Point","coordinates":[13.5086637,9.0808836]},"properties":{"shop":"convenience"}},
{"type":"Feature","geometry":{"type":"Point","coordinates":[13.5040218,9.0942599]},"properties":{"shop":"convenience"}},
{"type":"Feature","geometry":{"type":"Point","coordinates":[13.514335,9.0306778]},"properties":{"shop":"convenience"}},
{"type":"Feature","geometry":{"type":"Point","coordinates":[13.5148981,9.0311402]},"properties":{"shop":"convenience"}},
{"type":"Feature","geometry":{"type":"Point","coordinates":[13.5095083,9.0262574]},"properties":{"name":"Alimentation kader","shop":"convenience"}},
{"type":"Feature","geometry":{"type":"Point","coordinates":[13.5076228,9.0261891]},"properties":{"shop":"convenience"}},
{"type":"Feature","geometry":{"type":"Point","coordinates":[13.5097949,9.026089]},"properties":{"shop":"convenience"}},
{"type":"Feature","geometry":{"type":"Point","coordinates":[13.5098174,9.0240062]},"properties":{"shop":"convenience"}},
{"type":"Feature","geometry":{"type":"Point","coordinates":[13.5070984,9.0271391]},"properties":{"shop":"convenience"}},
{"type":"Feature","geometry":{"type":"Point","coordinates":[13.509877,9.0240987]},"properties":{"shop":"convenience"}},
{"type":"Feature","geometry":{"type":"Point","coordinates":[13.5098258,9.0253802]},"properties":{"shop":"convenience"}},
{"type":"Feature","geometry":{"type":"Point","coordinates":[13.5094611,9.0258818]},"properties":{"shop":"convenience"}},
{"type":"Feature","geometry":{"type":"Point","coordinates":[13.5098463,9.0255381]},"properties":{"shop":"convenience"}},
{"type":"Feature","geometry":{"type":"Point","coordinates":[13.5080065,9.0261642]},"properties":{"shop":"convenience"}},
{"type":"Feature","geometry":{"type":"Point","coordinates":[13.509177,9.0258986]},"properties":{"shop":"convenience"}},
{"type":"Feature","geometry":{"type":"Point","coordinates":[13.513083,9.0288031]},"properties":{"shop":"convenience"}},
{"type":"Feature","geometry":{"type":"Point","coordinates":[13.5098041,9.0316698]},"properties":{"shop":"convenience"}},
{"type":"Feature","geometry":{"type":"Point","coordinates":[13.509795,9.0303912]},"properties":{"shop":"convenience"}},
{"type":"Feature","geometry":{"type":"Point","coordinates":[13.5095343,9.0308441]},"properties":{"shop":"convenience"}},
{"type":"Feature","geometry":{"type":"Point","coordinates":[13.5097937,9.0302867]},"properties":{"shop":"convenience"}},
{"type":"Feature","geometry":{"type":"Point","coordinates":[13.5128261,9.0304125]},"properties":{"shop":"convenience"}},
{"type":"Feature","geometry":{"type":"Point","coordinates":[13.5131723,9.0301857]},"properties":{"shop":"convenience"}},
{"type":"Feature","geometry":{"type":"Point","coordinates":[13.5094998,9.0266063]},"properties":{"name":"Alliance alimentation","shop":"convenience"}},
{"type":"Feature","geometry":{"type":"Point","coordinates":[13.5104549,9.0280103]},"properties":{"name":"Magasin","shop":"convenience"}},
{"type":"Feature","geometry":{"type":"Point","coordinates":[13.5091967,9.0275376]},"properties":{"shop":"convenience"}},
{"type":"Feature","geometry":{"type":"Point","coordinates":[13.5095205,9.027977]},"properties":{"shop":"convenience"}},
{"type":"Feature","geometry":{"type":"Point","coordinates":[13.5097853,9.0271398]},"properties":{"shop":"convenience"}},
{"type":"Feature","geometry":{"type":"Point","coordinates":[13.5095377,9.0297389]},"properties":{"shop":"convenience"}},
{"type":"Feature","geometry":{"type":"Point","coordinates":[13.5097807,9.0290303]},"properties":{"shop":"convenience"}},
{"type":"Feature","geometry":{"type":"Point","coordinates":[13.509505,9.0285831]},"properties":{"shop":"convenience"}},
{"type":"Feature","geometry":{"type":"Point","coordinates":[13.5106178,9.0272608]},"properties":{"shop":"convenience"}},
{"type":"Feature","geometry":{"type":"Point","coordinates":[13.5022227,9.0123175]},"properties":{"shop":"convenience"}},
{"type":"Feature","geometry":{"type":"Point","coordinates":[13.5038147,9.0143295]},"properties":{"shop":"convenience"}},
{"type":"Feature","geometry":{"type":"Point","coordinates":[13.5039902,9.0147493]},"properties":{"shop":"convenience"}},
{"type":"Feature","geometry":{"type":"Point","coordinates":[13.5038074,9.0146717]},"properties":{"shop":"convenience"}},
{"type":"Feature","geometry":{"type":"Point","coordinates":[13.5038105,9.0145844]},"properties":{"shop":"convenience"}},
{"type":"Feature","geometry":{"type":"Point","coordinates":[13.5079316,9.0140434]},"properties":{"shop":"convenience"}},
{"type":"Feature","geometry":{"type":"Point","coordinates":[13.5079317,9.0136286]},"properties":{"shop":"convenience"}},
{"type":"Feature","geometry":{"type":"Point","coordinates":[13.5078965,9.014614]},"properties":{"shop":"convenience"}},
{"type":"Feature","geometry":{"type":"Point","coordinates":[13.5075436,9.014334]},"properties":{"shop":"convenience"}},
{"type":"Feature","geometry":{"type":"Point","coordinates":[13.5079179,9.0149001]},"properties":{"shop":"convenience"}},
{"type":"Feature","geometry":{"type":"Point","coordinates":[13.5075727,9.0133522]},"properties":{"shop":"convenience"}},
{"type":"Feature","geometry":{"type":"Point","coordinates":[13.5094173,9.0188758]},"properties":{"shop":"convenience"}},
{"type":"Feature","geometry":{"type":"Point","coordinates":[13.5093947,9.0188237]},"properties":{"shop":"convenience"}},
{"type":"Feature","geometry":{"type":"Point","coordinates":[13.5088351,9.0182869]},"properties":{"shop":"convenience"}},
{"type":"Feature","geometry":{"type":"Point","coordinates":[13.5087876,9.0180783]},"properties":{"shop":"convenience"}},
{"type":"Feature","geometry":{"type":"Point","coordinates":[13.5093085,9.0185852]},"properties":{"shop":"convenience"}},
{"type":"Feature","geometry":{"type":"Point","coordinates":[13.5093198,9.018604]},"properties":{"shop":"convenience"}},
{"type":"Feature","geometry":{"type":"Point","coordinates":[13.509516,9.0236244]},"properties":{"shop":"convenience"}},
{"type":"Feature","geometry":{"type":"Point","coordinates":[13.5095127,9.0235367]},"properties":{"shop":"convenience"}},
{"type":"Feature","geometry":{"type":"Point","coordinates":[13.5094701,9.0230134]},"properties":{"name":"Chez tawaha ousman","shop":"convenience"}},
{"type":"Feature","geometry":{"type":"Point","coordinates":[13.2411708,9.0053308]},"properties":{"shop":"convenience"}},
{"type":"Feature","geometry":{"type":"Point","coordinates":[13.2414034,9.0055666]},"properties":{"shop":"convenience"}},
{"type":"Feature","geometry":{"type":"Point","coordinates":[13.2406068,9.0058874]},"properties":{"shop":"convenience"}},
{"type":"Feature","geometry":{"type":"Point","coordinates":[13.511701,9.020923]},"properties":{"shop":"convenience"}},
{"type":"Feature","geometry":{"type":"Point","coordinates":[13.2941075,8.9845439]},"properties":{"shop":"convenience"}},
{"type":"Feature","geometry":{"type":"Point","coordinates":[13.5113435,9.0233682]},"properties":{"shop":"convenience"}},
{"type":"Feature","geometry":{"type":"Point","coordinates":[13.5124816,9.0234748]},"properties":{"shop":"convenience"}},
{"type":"Feature","geometry":{"type":"Point","coordinates":[13.3430704,8.9652746]},"properties":{"shop":"convenience"}},
{"type":"Feature","geometry":{"type":"Point","coordinates":[13.5164033,9.0162987]},"properties":{"shop":"convenience"}},
{"type":"Feature","geometry":{"type":"Point","coordinates":[13.522181,9.0203593]},"properties":{"shop":"convenience"}},
{"type":"Feature","geometry":{"type":"Point","coordinates":[13.5184705,9.0158191]},"properties":{"shop":"convenience"}},
{"type":"Feature","geometry":{"type":"Point","coordinates":[13.5040285,9.0942182]},"properties":{"shop":"bakery"}},
{"type":"Feature","geometry":{"type":"Point","coordinates":[13.5100777,9.0267153]},"properties":{"amenity":"marketplace","name":"Marché des vivres et vetements"}},
{"type":"Feature","geometry":{"type":"Point","coordinates":[13.510066,9.0271045]},"properties":{"amenity":"marketplace","name":"Marché cereale"}},
{"type":"Feature","geometry":{"type":"Point","coordinates":[13.246404,9.0017563]},"properties":{"amenity":"marketplace","name":"Marché de mafa tcheboa"}},
{"type":"Feature","geometry":{"type":"Point","coordinates":[13.1853255,9.0240957]},"properties":{"amenity":"marketplace","name":"Marché de bili bili"}},
{"type":"Feature","geometry":{"type":"Point","coordinates":[13.1876964,9.0293202]},"properties":{"amenity":"marketplace","name":"Marché à bétail"}},
{"type":"Feature","geometry":{"type":"Point","coordinates":[13.1841694,9.0279723]},"properties":{"amenity":"marketplace","name":"Marché de tcheboa"}},
{"type":"Feature","geometry":{"type":"Point","coordinates":[13.5030093,9.0967298]},"properties":{"amenity":"marketplace","name":"Marché ndjola"}},
{"type":"Feature","geometry":{"type":"Point","coordinates":[13.5169431,9.0353538]},"properties":{"amenity":"marketplace","name":"Marché périodique de Ngong daba"}},
{"type":"Feature","geometry":{"type":"Point","coordinates":[13.5266801,9.0291117]},"properties":{"amenity":"marketplace","name":"Petit marché"}},
{"type":"Feature","geometry":{"type":"Point","coordinates":[13.5102735,9.025563]},"properties":{"amenity":"marketplace","name":"Marché"}},
{"type":"Feature","geometry":{"type":"Point","coordinates":[13.5141599,9.0245741]},"properties":{"amenity":"marketplace","name":"Marché de cereale"}},
{"type":"Feature","geometry":{"type":"Point","coordinates":[13.5129621,9.024367]},"properties":{"amenity":"marketplace","name":"Marché poissons"}},
{"type":"Feature","geometry":{"type":"Point","coordinates":[13.5124342,9.0240166]},"properties":{"amenity":"marketplace","name":"Marché d'habits"}},
{"type":"Feature","geometry":{"type":"Point","coordinates":[13.513254,9.0230983]},"properties":{"amenity":"marketplace","name":"Marché de bœufs de Ngong"}},
{"type":"Feature","geometry":{"type":"Point","coordinates":[13.5095235,9.0293375]},"properties":{"shop":"supermarket"}},
{"type":"Feature","geometry":{"type":"Point","coordinates":[13.5098233,9.0252882]},"properties":{"shop":"supermarket"}},
{"type":"Feature","geometry":{"type":"Point","coordinates":[13.6819298,4.5814955]},"properties":{"name":"Pain d'or","shop":"supermarket"}},
{"type":"Feature","geometry":{"type":"Point","coordinates":[13.3915186,9.2995621]},"properties":{"name":"Boucherie","shop":"butcher"}},
{"type":"Feature","geometry":{"type":"Point","coordinates":[13.3949203,9.3024482]},"properties":{"shop":"butcher"}},
{"type":"Feature","geometry":{"type":"Point","coordinates":[13.3989765,9.3050101]},"properties":{"shop":"butcher"}},
{"type":"Feature","geometry":{"type":"Point","coordinates":[13.4000735,9.3036887]},"properties":{"name":"Mini Boucherie","shop":"butcher"}},
{"type":"Feature","geometry":{"type":"Point","coordinates":[13.3561456,9.315904]},"properties":{"contact:phone":"(+237) 6","name":"Boulangerie Pâtisserie Du Petit Marché","shop":"bakery"}},
{"type":"Feature","geometry":{"type":"Point","coordinates":[13.3740306,9.294779]},"properties":{"contact:phone":"(+237) 6","shop":"bakery"}},
{"type":"Feature","geometry":{"type":"Point","coordinates":[13.3800723,9.2997169]},"properties":{"contact:phone":"(+237) 6","name":"Boulnagerie Patisseria Africaine","shop":"bakery"}},
{"type":"Feature","geometry":{"type":"Point","coordinates":[13.3856647,9.2929076]},"properties":{"name":"Boulangerie Artisanale","shop":"bakery"}},
{"type":"Feature","geometry":{"type":"Point","coordinates":[13.390203,9.2989255]},"properties":{"name":"Boulnagerie Patisserie Du Petit Marché Yelwa","shop":"bakery"}},
{"type":"Feature","geometry":{"type":"Point","coordinates":[13.3740306,9.2947684]},"properties":{"contact:phone":"(+237) 6","shop":"bakery"}},
{"type":"Feature","geometry":{"type":"Point","coordinates":[13.3800709,9.2997189]},"properties":{"contact:phone":"(+237) 6","name":"Boulnagerie Patisseria Africaine","shop":"bakery"}},
{"type":"Feature","geometry":{"type":"Point","coordinates":[13.3902097,9.2989255]},"properties":{"name":"Boulnagerie Patisserie Du Petit Marché Yelwa","shop":"bakery"}},
{"type":"Feature","geometry":{"type":"Point","coordinates":[13.397056,9.3068265]},"properties":{"name":"Boulangerie Pâtisserie Du Lamidat","shop":"bakery"}},
{"type":"Feature","geometry":{"type":"Point","coordinates":[11.5068832,3.8961238]},"properties":{"name":"M market","shop":"convenience"}},
{"type":"Feature","geometry":{"type":"Point","coordinates":[13.3490948,9.3179724]},"properties":{"shop":"convenience"}},
{"type":"Feature","geometry":{"type":"Point","coordinates":[13.3481789,9.3160456]},"properties":{"name":"Alimentation Fall Cherif","shop":"convenience"}},
{"type":"Feature","geometry":{"type":"Point","coordinates":[13.3520122,9.3131874]},"properties":{"shop":"convenience"}},
{"type":"Feature","geometry":{"type":"Point","coordinates":[13.3510128,9.3124905]},"properties":{"shop":"convenience"}},
{"type":"Feature","geometry":{"type":"Point","coordinates":[13.347537,9.3159577]},"properties":{"shop":"convenience"}},
{"type":"Feature","geometry":{"type":"Point","coordinates":[13.3484153,9.31604]},"properties":{"shop":"convenience"}},
{"type":"Feature","geometry":{"type":"Point","coordinates":[13.3549666,9.3163238]},"properties":{"shop":"convenience"}},
{"type":"Feature","geometry":{"type":"Point","coordinates":[13.352291,9.3170103]},"properties":{"shop":"convenience"}},
{"type":"Feature","geometry":{"type":"Point","coordinates":[13.3489001,9.3169059]},"properties":{"shop":"convenience"}},
{"type":"Feature","geometry":{"type":"Point","coordinates":[13.3549417,9.3159456]},"properties":{"shop":"convenience"}},
{"type":"Feature","geometry":{"type":"Point","coordinates":[13.3549677,9.3160926]},"properties":{"shop":"convenience"}},
{"type":"Feature","geometry":{"type":"Point","coordinates":[13.3523887,9.3170078]},"properties":{"shop":"convenience"}},
{"type":"Feature","geometry":{"type":"Point","coordinates":[13.3532199,9.3169574]},"properties":{"shop":"convenience"}},
{"type":"Feature","geometry":{"type":"Point","coordinates":[13.3535242,9.3131403]},"properties":{"shop":"convenience"}},
{"type":"Feature","geometry":{"type":"Point","coordinates":[13.3560137,9.3161147]},"properties":{"shop":"convenience"}},
{"type":"Feature","geometry":{"type":"Point","coordinates":[13.3530646,9.3154986]},"properties":{"shop":"convenience"}},
{"type":"Feature","geometry":{"type":"Point","coordinates":[13.3544624,9.3131391]},"properties":{"shop":"convenience"}},
{"type":"Feature","geometry":{"type":"Point","coordinates":[13.3524356,9.3131655]},"properties":{"shop":"convenience"}},
{"type":"Feature","geometry":{"type":"Point","coordinates":[13.3581394,9.3187776]},"properties":{"shop":"convenience"}},
{"type":"Feature","geometry":{"type":"Point","coordinates":[13.3582657,9.3181141]},"properties":{"shop":"convenience"}},
{"type":"Feature","geometry":{"type":"Point","coordinates":[13.3556759,9.3159354]},"properties":{"shop":"convenience"}},
{"type":"Feature","geometry":{"type":"Point","coordinates":[13.3558741,9.3159215]},"properties":{"shop":"convenience"}},
{"type":"Feature","geometry":{"type":"Point","coordinates":[13.3476392,9.3134759]},"properties":{"shop":"convenience"}},
{"type":"Feature","geometry":{"type":"Point","coordinates":[13.3562399,9.3178576]},"properties":{"shop":"convenience"}},
{"type":"Feature","geometry":{"type":"Point","coordinates":[13.3570161,9.3190173]},"properties":{"shop":"convenience"}},
{"type":"Feature","geometry":{"type":"Point","coordinates":[13.3480457,9.3086111]},"properties":{"shop":"convenience"}},
{"type":"Feature","geometry":{"type":"Point","coordinates":[13.348272,9.3103406]},"properties":{"shop":"convenience"}},
{"type":"Feature","geometry":{"type":"Point","coordinates":[13.3513746,9.3112461]},"properties":{"shop":"convenience"}},
{"type":"Feature","geometry":{"type":"Point","coordinates":[13.3522605,9.3074313]},"properties":{"shop":"convenience"}},
{"type":"Feature","geometry":{"type":"Point","coordinates":[13.3486702,9.3077124]},"properties":{"name":"Boutique D'alimentation","shop":"convenience"}},
{"type":"Feature","geometry":{"type":"Point","coordinates":[13.34804,9.3098063]},"properties":{"shop":"convenience"}},
{"type":"Feature","geometry":{"type":"Point","coordinates":[13.3542949,9.3055172]},"properties":{"shop":"convenience"}},
{"type":"Feature","geometry":{"type":"Point","coordinates":[13.3460687,9.3006561]},"properties":{"shop":"convenience"}},
{"type":"Feature","geometry":{"type":"Point","coordinates":[13.3494442,9.2966258]},"properties":{"name":"Boutique Alimentation","shop":"convenience"}},
{"type":"Feature","geometry":{"type":"Point","coordinates":[13.3455736,9.3005235]},"properties":{"shop":"convenience"}},
{"type":"Feature","geometry":{"type":"Point","coordinates":[13.3458988,9.300329]},"properties":{"shop":"convenience"}},
{"type":"Feature","geometry":{"type":"Point","coordinates":[13.3458984,9.3004248]},"properties":{"shop":"convenience"}},
{"type":"Feature","geometry":{"type":"Point","coordinates":[13.3557009,9.296926]},"properties":{"shop":"convenience"}},
{"type":"Feature","geometry":{"type":"Point","coordinates":[13.356469,9.3010388]},"properties":{"name":"Boutique D'alimentation","shop":"convenience"}},
{"type":"Feature","geometry":{"type":"Point","coordinates":[13.3542773,9.3036459]},"properties":{"shop":"convenience"}},
{"type":"Feature","geometry":{"type":"Point","coordinates":[13.3545177,9.3045697]},"properties":{"shop":"convenience"}},
{"type":"Feature","geometry":{"type":"Point","coordinates":[13.355261,9.2989695]},"properties":{"shop":"convenience"}},
{"type":"Feature","geometry":{"type":"Point","coordinates":[13.3560291,9.3030823]},"properties":{"name":"Boutique D'alimentation","shop":"convenience"}},
{"type":"Feature","geometry":{"type":"Point","coordinates":[13.3538347,9.3056258]},"properties":{"shop":"convenience"}},
{"type":"Feature","geometry":{"type":"Point","coordinates":[13.3540778,9.3066132]},"properties":{"shop":"convenience"}},
{"type":"Feature","geometry":{"type":"Point","coordinates":[13.3622028,9.301632]},"properties":{"name":"Boutique D'alimentation","shop":"convenience"}},
{"type":"Feature","geometry":{"type":"Point","coordinates":[13.3617829,9.3018332]},"properties":{"name":"Boutique D'alimentation","shop":"convenience"}},
{"type":"Feature","geometry":{"type":"Point","coordinates":[13.3690334,9.3046366]},"properties":{"name":"Boutique D'alimentation","shop":"convenience"}},
{"type":"Feature","geometry":{"type":"Point","coordinates":[13.3691269,9.3046109]},"properties":{"name":"Mokolo Boutique","shop":"convenience"}},
{"type":"Feature","geometry":{"type":"Point","coordinates":[13.3682855,9.3045967]},"properties":{"name":"Boutique D'alimentation","shop":"convenience"}},
{"type":"Feature","geometry":{"type":"Point","coordinates":[13.3685075,9.3046084]},"properties":{"name":"Boutique D'alimentation","shop":"convenience"}},
{"type":"Feature","geometry":{"type":"Point","coordinates":[13.3644305,9.304592]},"properties":{"name":"Boutique D'alimentation","shop":"convenience"}},
{"type":"Feature","geometry":{"type":"Point","coordinates":[13.3705644,9.3038666]},"properties":{"name":"Boutique D'alimentation","shop":"convenience"}},
{"type":"Feature","geometry":{"type":"Point","coordinates":[13.3737816,9.3051359]},"properties":{"name":"Boutique D'alimentation","shop":"convenience"}},
{"type":"Feature","geometry":{"type":"Point","coordinates":[13.3702082,9.3041229]},"properties":{"name":"Boutique D'alimentation","shop":"convenience"}},
{"type":"Feature","geometry":{"type":"Point","coordinates":[13.3669635,9.3049718]},"properties":{"name":"Boutique D'alimentation","shop":"convenience"}},
{"type":"Feature","geometry":{"type":"Point","coordinates":[13.3676416,9.3048021]},"properties":{"name":"Boutique D'alimentation","shop":"convenience"}},
{"type":"Feature","geometry":{"type":"Point","coordinates":[13.3755033,9.3039749]},"properties":{"name":"Boutique D'alimentation","shop":"convenience"}},
{"type":"Feature","geometry":{"type":"Point","coordinates":[13.3726925,9.3032819]},"properties":{"name":"Boutique D'alimentation","shop":"convenience"}},
{"type":"Feature","geometry":{"type":"Point","coordinates":[13.3739757,9.303145]},"properties":{"name":"Boutique Alimentation","shop":"convenience"}},
{"type":"Feature","geometry":{"type":"Point","coordinates":[13.3746586,9.3034372]},"properties":{"name":"Boutique D'alimentation","shop":"convenience"}},
{"type":"Feature","geometry":{"type":"Point","coordinates":[13.3719249,9.3012536]},"properties":{"name":"Boutique Alimentation","shop":"convenience"}},
{"type":"Feature","geometry":{"type":"Point","coordinates":[13.3733789,9.3016003]},"properties":{"name":"Boutique Alimentation","shop":"convenience"}},
{"type":"Feature","geometry":{"type":"Point","coordinates":[13.3734544,9.3022804]},"properties":{"name":"Boutique Alimentation","shop":"convenience"}},
{"type":"Feature","geometry":{"type":"Point","coordinates":[13.3754165,9.3023365]},"properties":{"name":"Boutique D'alimentation","shop":"convenience"}},
{"type":"Feature","geometry":{"type":"Point","coordinates":[13.3742481,9.3018592]},"properties":{"name":"Boutique D'alimentation","shop":"convenience"}},
{"type":"Feature","geometry":{"type":"Point","coordinates":[13.3736009,9.3012161]},"properties":{"name":"Boutique Alimentation","shop":"convenience"}},
{"type":"Feature","geometry":{"type":"Point","coordinates":[13.3788174,9.3077097]},"properties":{"shop":"convenience"}},
{"type":"Feature","geometry":{"type":"Point","coordinates":[13.3790565,9.3084607]},"properties":{"shop":"convenience"}},
{"type":"Feature","geometry":{"type":"Point","coordinates":[13.3781591,9.3077585]},"properties":{"shop":"convenience"}},
{"type":"Feature","geometry":{"type":"Point","coordinates":[13.3813879,9.3037363]},"properties":{"shop":"convenience"}},
{"type":"Feature","geometry":{"type":"Point","coordinates":[13.3799016,9.303269]},"properties":{"shop":"convenience"}},
{"type":"Feature","geometry":{"type":"Point","coordinates":[13.3796304,9.3032598]},"properties":{"shop":"convenience"}},
{"type":"Feature","geometry":{"type":"Point","coordinates":[13.3806931,9.3027765]},"properties":{"shop":"convenience"}},
{"type":"Feature","geometry":{"type":"Point","coordinates":[13.3782597,9.3051695]},"properties":{"shop":"convenience"}},
{"type":"Feature","geometry":{"type":"Point","coordinates":[13.383153,9.3027742]},"properties":{"shop":"convenience"}},
{"type":"Feature","geometry":{"type":"Point","coordinates":[13.3780812,9.3046574]},"properties":{"shop":"convenience"}},
{"type":"Feature","geometry":{"type":"Point","coordinates":[13.3838598,9.3028778]},"properties":{"shop":"convenience"}},
{"type":"Feature","geometry":{"type":"Point","coordinates":[13.3773549,9.3040031]},"properties":{"name":"Boutique Julie","shop":"convenience"}},
{"type":"Feature","geometry":{"type":"Point","coordinates":[13.3814365,9.3043434]},"properties":{"shop":"convenience"}},
{"type":"Feature","geometry":{"type":"Point","coordinates":[13.3802236,9.3049264]},"properties":{"name":"Alimentation Le Bourgeois","shop":"convenience"}},
{"type":"Feature","geometry":{"type":"Point","coordinates":[13.3793733,9.3050689]},"properties":{"shop":"convenience"}},
{"type":"Feature","geometry":{"type":"Point","coordinates":[13.3807072,9.2999182]},"properties":{"shop":"convenience"}},
{"type":"Feature","geometry":{"type":"Point","coordinates":[13.3808649,9.3003015]},"properties":{"shop":"convenience"}},
{"type":"Feature","geometry":{"type":"Point","coordinates":[13.3815178,9.2999652]},"properties":{"shop":"convenience"}},
{"type":"Feature","geometry":{"type":"Point","coordinates":[13.3825218,9.300315]},"properties":{"shop":"convenience"}},
{"type":"Feature","geometry":{"type":"Point","coordinates":[13.3800708,9.2995711]},"properties":{"shop":"convenience"}},
{"type":"Feature","geometry":{"type":"Point","coordinates":[13.3804544,9.3001316]},"properties":{"shop":"convenience"}},
{"type":"Feature","geometry":{"type":"Point","coordinates":[13.3797012,9.3002065]},"properties":{"shop":"convenience"}},
{"type":"Feature","geometry":{"type":"Point","coordinates":[13.3799749,9.3015702]},"properties":{"shop":"convenience"}},
{"type":"Feature","geometry":{"type":"Point","coordinates":[13.3795411,9.3015308]},"properties":{"shop":"convenience"}},
{"type":"Feature","geometry":{"type":"Point","coordinates":[13.3789626,9.3015353]},"properties":{"shop":"convenience"}},
{"type":"Feature","geometry":{"type":"Point","coordinates":[13.3789282,9.3017024]},"properties":{"shop":"convenience"}},
{"type":"Feature","geometry":{"type":"Point","coordinates":[13.3824185,9.3013377]},"properties":{"shop":"convenience"}},
{"type":"Feature","geometry":{"type":"Point","coordinates":[13.3811603,9.3015433]},"properties":{"shop":"convenience"}},
{"type":"Feature","geometry":{"type":"Point","coordinates":[13.3829189,9.3004368]},"properties":{"shop":"convenience"}},
{"type":"Feature","geometry":{"type":"Point","coordinates":[13.3835655,9.3004787]},"properties":{"shop":"convenience"}},
{"type":"Feature","geometry":{"type":"Point","coordinates":[13.3842606,9.3005801]},"properties":{"shop":"convenience"}},
{"type":"Feature","geometry":{"type":"Point","coordinates":[13.383959,9.3014067]},"properties":{"shop":"convenience"}},
{"type":"Feature","geometry":{"type":"Point","coordinates":[13.3818469,9.2985951]},"properties":{"shop":"convenience"}},
{"type":"Feature","geometry":{"type":"Point","coordinates":[13.3819777,9.2988619]},"properties":{"shop":"convenience"}},
{"type":"Feature","geometry":{"type":"Point","coordinates":[13.381828,9.2969165]},"properties":{"shop":"convenience"}},
{"type":"Feature","geometry":{"type":"Point","coordinates":[13.3816027,9.2984251]},"properties":{"shop":"convenience"}},
{"type":"Feature","geometry":{"type":"Point","coordinates":[13.3816792,9.2985377]},"properties":{"shop":"convenience"}},
{"type":"Feature","geometry":{"type":"Point","coordinates":[13.3825759,9.2960874]},"properties":{"shop":"convenience"}},
{"type":"Feature","geometry":{"type":"Point","coordinates":[13.382976,9.296107]},"properties":{"shop":"convenience"}},
{"type":"Feature","geometry":{"type":"Point","coordinates":[13.3672553,9.2981698]},"properties":{"name":"Boutique D'alimentation","shop":"convenience"}},
{"type":"Feature","geometry":{"type":"Point","coordinates":[13.3665196,9.3023212]},"properties":{"shop":"convenience"}},
{"type":"Feature","geometry":{"type":"Point","coordinates":[13.365031,9.301901]},"properties":{"name":"Boutique Alimentation","shop":"convenience"}},
{"type":"Feature","geometry":{"type":"Point","coordinates":[13.3648475,9.301848]},"properties":{"name":"Boutique D'alimentation","shop":"convenience"}},
{"type":"Feature","geometry":{"type":"Point","coordinates":[13.3683068,9.3019339]},"properties":{"name":"Boutique D'alimentation","shop":"convenience"}},
{"type":"Feature","geometry":{"type":"Point","coordinates":[13.3696457,9.2995142]},"properties":{"shop":"convenience"}},
{"type":"Feature","geometry":{"type":"Point","coordinates":[13.3689473,9.3002557]},"properties":{"name":"Boutique D'alimentation","shop":"convenience"}},
{"type":"Feature","geometry":{"type":"Point","coordinates":[13.368303299999999,9.3007124]},"properties":{"name":"Boutique D'alimentation","shop":"convenience"}},
{"type":"Feature","geometry":{"type":"Point","coordinates":[13.3685923,9.3004997]},"properties":{"shop":"convenience"}},
{"type":"Feature","geometry":{"type":"Point","coordinates":[13.3680997,9.3007693]},"properties":{"name":"Boutique Alimentation","shop":"convenience"}},
{"type":"Feature","geometry":{"type":"Point","coordinates":[13.3687507,9.3002308]},"properties":{"name":"Boutique D'alimentation","shop":"convenience"}},
{"type":"Feature","geometry":{"type":"Point","coordinates":[13.3706577,9.2987219]},"properties":{"name":"Boutique D'alimentation","shop":"convenience"}},
{"type":"Feature","geometry":{"type":"Point","coordinates":[13.3739756,9.2972894]},"properties":{"name":"Boutique D'alimentation","shop":"convenience"}},
{"type":"Feature","geometry":{"type":"Point","coordinates":[13.3733929,9.2975693]},"properties":{"shop":"convenience"}},
{"type":"Feature","geometry":{"type":"Point","coordinates":[13.3714816,9.2983538]},"properties":{"name":"Boutique D'alimentation","shop":"convenience"}},
{"type":"Feature","geometry":{"type":"Point","coordinates":[13.3716719,9.2981786]},"properties":{"name":"Boutique D'alimentation","shop":"convenience"}},
{"type":"Feature","geometry":{"type":"Point","coordinates":[13.3715674,9.2980102]},"properties":{"name":"Boutique Alimentation","shop":"convenience"}},
{"type":"Feature","geometry":{"type":"Point","coordinates":[13.3766064,9.2972701]},"properties":{"shop":"convenience"}},
{"type":"Feature","geometry":{"type":"Point","coordinates":[13.3743998,9.2972642]},"properties":{"shop":"convenience"}},
{"type":"Feature","geometry":{"type":"Point","coordinates":[13.3678315,9.2940873]},"properties":{"shop":"convenience"}},
{"type":"Feature","geometry":{"type":"Point","coordinates":[13.3673175,9.2934589]},"properties":{"shop":"convenience"}},
{"type":"Feature","geometry":{"type":"Point","coordinates":[13.3775979,9.2943396]},"properties":{"shop":"convenience"}},
{"type":"Feature","geometry":{"type":"Point","coordinates":[13.3750933,9.295314]},"properties":{"shop":"convenience"}},
{"type":"Feature","geometry":{"type":"Point","coordinates":[13.37576,9.2953258]},"properties":{"shop":"convenience"}},
{"type":"Feature","geometry":{"type":"Point","coordinates":[13.3762681,9.2953827]},"properties":{"name":"Boutique D'alimentation","shop":"convenience"}},
{"type":"Feature","geometry":{"type":"Point","coordinates":[13.3767515,9.2954528]},"properties":{"shop":"convenience"}},
{"type":"Feature","geometry":{"type":"Point","coordinates":[13.3756717,9.2950634]},"properties":{"shop":"convenience"}},
{"type":"Feature","geometry":{"type":"Point","coordinates":[13.3776939,9.2952858]},"properties":{"shop":"convenience"}},
{"type":"Feature","geometry":{"type":"Point","coordinates":[13.3734071,9.2947054]},"properties":{"shop":"convenience"}},
{"type":"Feature","geometry":{"type":"Point","coordinates":[13.3732894,9.2946729]},"properties":{"shop":"convenience"}},
{"type":"Feature","geometry":{"type":"Point","coordinates":[13.3690243,9.2942853]},"properties":{"shop":"convenience"}},
{"type":"Feature","geometry":{"type":"Point","coordinates":[13.3737349,9.294729]},"properties":{"name":"Gic Cossam Woïla","shop":"convenience"}},
{"type":"Feature","geometry":{"type":"Point","coordinates":[13.3738442,9.2947433]},"properties":{"shop":"convenience"}},
{"type":"Feature","geometry":{"type":"Point","coordinates":[13.3690122,9.2942866]},"properties":{"shop":"convenience"}},
{"type":"Feature","geometry":{"type":"Point","coordinates":[13.3718922,9.2943765]},"properties":{"shop":"convenience"}},
{"type":"Feature","geometry":{"type":"Point","coordinates":[13.3717732,9.294346]},"properties":{"shop":"convenience"}},
{"type":"Feature","geometry":{"type":"Point","coordinates":[13.3720484,9.2946398]},"properties":{"shop":"convenience"}},
{"type":"Feature","geometry":{"type":"Point","coordinates":[13.3716572,9.2943787]},"properties":{"name":"Dépôt Pain Magique","shop":"convenience"}},
{"type":"Feature","geometry":{"type":"Point","coordinates":[13.3710572,9.2942748]},"properties":{"shop":"convenience"}},
{"type":"Feature","geometry":{"type":"Point","coordinates":[13.3705196,9.2941823]},"properties":{"shop":"convenience"}},
{"type":"Feature","geometry":{"type":"Point","coordinates":[13.3722044,9.2927303]},"properties":{"shop":"convenience"}},
{"type":"Feature","geometry":{"type":"Point","coordinates":[13.3726837,9.291899]},"properties":{"shop":"convenience"}},
{"type":"Feature","geometry":{"type":"Point","coordinates":[13.3734962,9.2930036]},"properties":{"shop":"convenience"}},
{"type":"Feature","geometry":{"type":"Point","coordinates":[13.3739789,9.2926924]},"properties":{"shop":"convenience"}},
{"type":"Feature","geometry":{"type":"Point","coordinates":[13.3753797,9.2921128]},"properties":{"shop":"convenience"}},