{"type":"FeatureCollection","features":[
{"type":"Feature","geometry":{"type":"Point","coordinates":[15.4116138,-4.4048519]},"properties":{"amenity":"marketplace"}},
{"type":"Feature","geometry":{"type":"Point","coordinates":[15.3145794,-4.3013727]},"properties":{"name":"Espace Hasson","shop":"supermarket"}},
{"type":"Feature","geometry":{"type":"Point","coordinates":[15.3106789,-4.3005798]},"properties":{"access:covid19":"yes","addr:city":"Kinshasa","addr:housenumber":"713","addr:street":"Avenue des Aviateurs","brand":"City Market","brand:wikidata":"Q5123299","brand:wikipedia":"en:City Market (US grocery store chain)","name":"City Market","opening_hours":"Mo-Su 08:00-22:00","phone":"+243018888550","shop":"supermarket"}},
{"type":"Feature","geometry":{"type":"Point","coordinates":[15.3090672,-4.3040929]},"properties":{"check_date":"2023-05-19","name":"Mûnû-Prix","shop":"supermarket"}},
{"type":"Feature","geometry":{"type":"Point","coordinates":[15.3145454,-4.3053754]},"properties":{"check_date":"2023-05-06","name":"Libre Service","shop":"supermarket"}},
{"type":"Feature","geometry":{"type":"Point","coordinates":[15.3137792,-4.30557]},"properties":{"check_date":"2023-05-19","name":"Pick&Pay","shop":"supermarket"}},
{"type":"Feature","geometry":{"type":"Point","coordinates":[15.3044376,-4.3053762]},"properties":{"addr:housenumber":"30","addr:street":"Boulevard du 30 juin","check_date":"2023-05-13","name":"Kin Marche","opening_hours:covid19":"Mo-Su 09:00-20:30","shop":"supermarket"}},
{"type":"Feature","geometry":{"type":"Point","coordinates":[15.2713034,-4.3228829]},"properties":{"name":"Cantine","shop":"supermarket"}},
{"type":"Feature","geometry":{"type":"Point","coordinates":[15.3029432,-4.305094]},"properties":{"addr:housenumber":"54","addr:street":"Boulevard du 30 juin","delivery:covid19":"yes","name":"Supermarché Régal","opening_hours":"Mo-Sa 08:00-22:00","opening_hours:covid19":"Mo-Sa 09:00-19:00","shop":"supermarket"}},
{"type":"Feature","geometry":{"type":"Point","coordinates":[15.3369048,-4.3815015]},"properties":{"name":"Vivres surgélés","shop":"convenience"}},
{"type":"Feature","geometry":{"type":"Point","coordinates":[15.3204459,-4.3685149]},"properties":{"name":"Savon Marsavco","shop":"convenience","source":"local_knowledge"}},
{"type":"Feature","geometry":{"type":"Point","coordinates":[15.5159367,-4.3246356]},"properties":{"addr:city":"Kinkole","addr:street":"Avenue Etonga","name":"Alimentation","shop":"convenience"}},
{"type":"Feature","geometry":{"type":"Point","coordinates":[15.3212094,-4.3544288]},"properties":{"name":"Supermarché Effort","shop":"supermarket"}},
{"type":"Feature","geometry":{"type":"Point","coordinates":[15.3194173,-4.3686907]},"properties":{"addr:city":"Kalamu","addr:housenumber":"R 130","addr:street":"Camp Pinzi","name":"Pétrol","shop":"convenience"}},
{"type":"Feature","geometry":{"type":"Point","coordinates":[15.2745044,-4.318701]},"properties":{"addr:housenumber":"88","addr:place":"Kin Plazza Mall","addr:street":"Croisement des avenues de la Justice et Ouganda","air_conditioning":"yes","amenity":"restaurant","check_date":"2024-02-18","cuisine":"sandwich;ice_cream;burger","delivery":"yes","delivery:covid19":"yes","internet_access":"yes","name":"Eric Kayser","opening_hours":"Mo-Sa 07:00-22:00; Su 08:00-22:00","opening_hours:covid19":"Mo-Sa 09:00-16:00","outdoor_seating":"yes","phone":"00243970021125","shop":"bakery"}},
{"type":"Feature","geometry":{"type":"Point","coordinates":[15.3109388,-4.3010059]},"properties":{"amenity":"restaurant","delivery":"yes","name":"Patisserie Nouvelle","note:covid19":"Sunday opening_hours to be confirmed after official communication","opening_hours:covid19":"09:00-16:00","phone":"+243819989000","shop":"bakery","takeaway":"yes"}},
{"type":"Feature","geometry":{"type":"Point","coordinates":[29.214197,-5.8909497]},"properties":{"amenity":"marketplace"}},
{"type":"Feature","geometry":{"type":"Point","coordinates":[29.193941,-5.9094166]},"properties":{"amenity":"marketplace"}},
{"type":"Feature","geometry":{"type":"Point","coordinates":[15.269959,-4.3224522]},"properties":{"disused":"yes","fixme":"road rebuilt with rural bldgs","name":"MONUSCO PX","operator":"United Nations Organization Stabilization Mission in the Democratic Republic of the Congo","operator:short":"MONUSCO","operator:wikidata":"Q1501987","operator:wikipedia":"en:MONUSCO","shop":"convenience"}},
{"type":"Feature","geometry":{"type":"Point","coordinates":[27.5408149,-11.6401417]},"properties":{"shop":"convenience"}},
{"type":"Feature","geometry":{"type":"Point","coordinates":[13.4537995,-5.8407212]},"properties":{"name":"Oriental","shop":"convenience"}},
{"type":"Feature","geometry":{"type":"Point","coordinates":[15.3096633,-4.3037738]},"properties":{"check_date":"2023-05-19","name":"Bam","shop":"convenience"}},
{"type":"Feature","geometry":{"type":"Point","coordinates":[15.2630405,-4.3412468]},"properties":{"amenity":"marketplace","name":"Wenze"}},
{"type":"Feature","geometry":{"type":"Point","coordinates":[25.1927367,0.5099809]},"properties":{"shop":"supermarket"}},
{"type":"Feature","geometry":{"type":"Point","coordinates":[25.1989386,0.5125423]},"properties":{"name":"BELTEXCO","shop":"supermarket"}},
{"type":"Feature","geometry":{"type":"Point","coordinates":[25.1969829,0.5155239]},"properties":{"check_date":"2023-05-08","name":"Alimentation Kin-Soir M.S.S","opening_hours":"Mo-Sa 07:30-22:00; Su 14:00-22:00","shop":"supermarket"}},
{"type":"Feature","geometry":{"type":"Point","coordinates":[25.1947749,0.5096163]},"properties":{"name":"MEERA","shop":"convenience"}},
{"type":"Feature","geometry":{"type":"Point","coordinates":[25.1996072,0.509943]},"properties":{"name":"AFINET","shop":"supermarket"}},
{"type":"Feature","geometry":{"type":"Point","coordinates":[25.194629,0.5128825]},"properties":{"check_date":"2023-05-08","name":"Galerie Phoenix I","shop":"convenience"}},
{"type":"Feature","geometry":{"type":"Point","coordinates":[25.1930948,0.5134833]},"properties":{"check_date":"2023-05-08","name":"Galarie Phoenix II","shop":"convenience"}},
{"type":"Feature","geometry":{"type":"Point","coordinates":[25.1873143,0.5120558]},"properties":{"name":"ex. Maison Pars","shop":"convenience"}},
{"type":"Feature","geometry":{"type":"Point","coordinates":[15.2751695,-4.3289069]},"properties":{"addr:city":"Kinshasa","addr:housenumber":"11268","addr:street":"Avenue de l'OUA","name":"Shoprite","opening_hours":"Mo-Su closed","phone":"00243821838393","shop":"supermarket"}},
{"type":"Feature","geometry":{"type":"Point","coordinates":[15.2787857,-4.3167519]},"properties":{"check_date":"2023-05-08","delivery:covid19":"only","name":"Patachoux","shop":"bakery"}},
{"type":"Feature","geometry":{"type":"Point","coordinates":[15.2703018,-4.3237643]},"properties":{"addr:street":"Avenue Colonel Mondjiba","air_conditioning":"yes","amenity":"restaurant","cuisine":"sandwich;bakery;ice_cream;coffee","delivery":"yes","name":"Patisserie Nouvelle","note:covid19":"Sunday opening_hours to be confirmed after official communication","opening_hours:covid19":"09:00-16:00","outdoor_seating":"yes","phone":"+243814226640","shop":"bakery","takeaway":"yes"}},
{"type":"Feature","geometry":{"type":"Point","coordinates":[15.2912128,-4.3144336]},"properties":{"addr:city":"Kinshasa","addr:housenumber":"2","addr:street":"Avenue des Citronniers","name":"Café Mozart","opening_hours":"Mo-Su 7:00-20:00","phone":"+243 815 092 894","shop":"bakery"}},
{"type":"Feature","geometry":{"type":"Point","coordinates":[15.3056318,-4.3243454]},"properties":{"shop":"convenience"}},
{"type":"Feature","geometry":{"type":"Point","coordinates":[15.3055957,-4.3243885]},"properties":{"shop":"convenience"}},
{"type":"Feature","geometry":{"type":"Point","coordinates":[15.3050479,-4.3275403]},"properties":{"check_date":"2023-05-08","shop":"bakery"}},
{"type":"Feature","geometry":{"type":"Point","coordinates":[15.2588097,-4.333026]},"properties":{"name":"Hasson et Frères","shop":"supermarket"}},
{"type":"Feature","geometry":{"type":"Point","coordinates":[15.3104858,-4.3014524]},"properties":{"addr:housenumber":"208","addr:street":"Avenue de l'Équateur","amenity":"restaurant","check_date":"2023-05-06","name":"Eric Kayser","shop":"bakery","website":"https://www.maison-kayser.com/"}},
{"type":"Feature","geometry":{"type":"Point","coordinates":[15.3092766,-4.3562963]},"properties":{"amenity":"marketplace","name":"Marché Kalé Banzazi"}},
{"type":"Feature","geometry":{"type":"Point","coordinates":[15.3712006,-4.3995983]},"properties":{"name":"Boulangerie Africa","shop":"bakery"}},
{"type":"Feature","geometry":{"type":"Point","coordinates":[15.3720464,-4.3980814]},"properties":{"amenity":"marketplace","name":"Marché Q7"}},
{"type":"Feature","geometry":{"type":"Point","coordinates":[15.2770662,-4.3413325]},"properties":{"amenity":"marketplace"}},
{"type":"Feature","geometry":{"type":"Point","coordinates":[18.2639452,0.0605832]},"properties":{"name":"Maman Matondo","shop":"convenience"}},
{"type":"Feature","geometry":{"type":"Point","coordinates":[18.2624049,0.0616479]},"properties":{"name":"Alimentation SIFCO","shop":"convenience"}},
{"type":"Feature","geometry":{"type":"Point","coordinates":[18.2762088,0.062434]},"properties":{"amenity":"marketplace","name":"Marché Basoko"}},
{"type":"Feature","geometry":{"type":"Point","coordinates":[15.2558521,-4.406861]},"properties":{"amenity":"marketplace","name":"Marché UPN"}},
{"type":"Feature","geometry":{"type":"Point","coordinates":[14.8591704,-5.2576231]},"properties":{"amenity":"marketplace","name":"Marché Central","source":"GPS"}},
{"type":"Feature","geometry":{"type":"Point","coordinates":[29.2354877,-1.6879924]},"properties":{"name":"Shoppers","operator":"Shoppers","shop":"supermarket"}},
{"type":"Feature","geometry":{"type":"Point","coordinates":[15.3129219,-4.3030111]},"properties":{"addr:city":"Gombe","addr:housenumber":"11","addr:street":"Avenue de la Presse","check_date":"2023-05-06","name":"Kin Marche","opening_hours:covid19":"Mo-Su 09:00-20:30","shop":"supermarket"}},
{"type":"Feature","geometry":{"type":"Point","coordinates":[15.269674,-4.3238303]},"properties":{"addr:city":"Kintambo","addr:housenumber":"374","addr:street":"Avenue Colonel Mondjiba","contact:phone":"+243 854203189","name":"Nettys","shop":"supermarket"}},
{"type":"Feature","geometry":{"type":"Point","coordinates":[15.321267,-4.3040154]},"properties":{"addr:city":"Gombe","addr:housenumber":"6","addr:postcode":"BP3307","addr:street":"Avenue Lokonga","check_date":"2023-05-19","name":"Sieco","shop":"supermarket"}},
{"type":"Feature","geometry":{"type":"Point","coordinates":[27.1120423,-1.6313672]},"properties":{"shop":"supermarket"}},
{"type":"Feature","geometry":{"type":"Point","coordinates":[27.4685163,-11.7355722]},"properties":{"name":"Pain de Vie","shop":"convenience"}},
{"type":"Feature","geometry":{"type":"Point","coordinates":[27.346563,-2.6926427]},"properties":{"amenity":"marketplace","name":"MARCHE"}},
{"type":"Feature","geometry":{"type":"Point","coordinates":[15.3090389,-4.3438996]},"properties":{"check_date":"2023-05-19","name":"Marché Gambela","shop":"supermarket"}},
{"type":"Feature","geometry":{"type":"Point","coordinates":[15.2783142,-4.3168291]},"properties":{"check_date":"2023-05-08","name":"Alimentation du 30 Juin","shop":"convenience"}},
{"type":"Feature","geometry":{"type":"Point","coordinates":[15.2814415,-4.3159736]},"properties":{"addr:housenumber":"173","addr:street":"Boulevard du 30 Juin","check_date":"2023-05-19","name":"Boucherie-Charcuterie Ngombe","opening_hours":"Mo-Fr 09:00-18:00; Sa 09:00-16:00","opening_hours:covid19":"Mo-Fr 09:00-16:30;Sa 9:00-16:00;Su 10:00-15:00","phone":"0990000783","shop":"butcher"}},
{"type":"Feature","geometry":{"type":"Point","coordinates":[15.2796023,-4.3182207]},"properties":{"check_date":"2023-05-08","name":"Epicerie Paani","shop":"convenience"}},
{"type":"Feature","geometry":{"type":"Point","coordinates":[30.6913507,3.0068008]},"properties":{"amenity":"marketplace","name":"Marché de Nono","source":"MSF"}},
{"type":"Feature","geometry":{"type":"Point","coordinates":[29.2365913,-1.686776]},"properties":{"amenity":"restaurant","cuisine":"coffee_shop","name":"Au Bon Pain","shop":"bakery"}},
{"type":"Feature","geometry":{"type":"Point","coordinates":[29.2366362,-1.6866383]},"properties":{"name":"LITOR","shop":"convenience"}},
{"type":"Feature","geometry":{"type":"Point","coordinates":[15.2834209,-4.3152865]},"properties":{"amenity":"marketplace","check_date":"2023-05-19","name":"Marché des Valeurs","opening_hours:covid19":"off"}},
{"type":"Feature","geometry":{"type":"Point","coordinates":[15.2796629,-4.322848]},"properties":{"check_date":"2023-05-08","shop":"convenience"}},
{"type":"Feature","geometry":{"type":"Point","coordinates":[15.328895,-4.3373525]},"properties":{"check_date":"2023-05-13","name":"Peloustore","shop":"supermarket"}},
{"type":"Feature","geometry":{"type":"Point","coordinates":[19.9361054,4.5604229]},"properties":{"amenity":"marketplace"}},
{"type":"Feature","geometry":{"type":"Point","coordinates":[27.4710091,-11.6047727]},"properties":{"amenity":"marketplace","fixme":"Check exact location","name":"Marché Kansonko"}},
{"type":"Feature","geometry":{"type":"Point","coordinates":[20.7824721,3.6269823]},"properties":{"amenity":"marketplace"}},
{"type":"Feature","geometry":{"type":"Point","coordinates":[27.5284397,-11.6754038]},"properties":{"amenity":"marketplace","name":"Marché Naviundu"}},
{"type":"Feature","geometry":{"type":"Point","coordinates":[22.3952772,-7.198259]},"properties":{"amenity":"marketplace","name":"Marché"}},
{"type":"Feature","geometry":{"type":"Point","coordinates":[27.3931293,-11.6392044]},"properties":{"amenity":"marketplace","name":"Marché 2"}},
{"type":"Feature","geometry":{"type":"Point","coordinates":[27.4257452,-11.6965612]},"properties":{"amenity":"marketplace"}},
{"type":"Feature","geometry":{"type":"Point","coordinates":[27.5378051,-11.637557]},"properties":{"amenity":"marketplace","name":"Marché Central","reference_point":"yes"}},
{"type":"Feature","geometry":{"type":"Point","coordinates":[27.4838557,-11.6526272]},"properties":{"amenity":"marketplace","name":"Marché Eureka"}},
{"type":"Feature","geometry":{"type":"Point","coordinates":[20.7911545,-6.4321825]},"properties":{"amenity":"marketplace","name":"Marché"}},
{"type":"Feature","geometry":{"type":"Point","coordinates":[27.472434,-11.6538383]},"properties":{"name":"Top Market","shop":"convenience"}},
{"type":"Feature","geometry":{"type":"Point","coordinates":[22.3927521,-5.8982957]},"properties":{"name":"Tshinseleka","shop":"convenience"}},
{"type":"Feature","geometry":{"type":"Point","coordinates":[23.6385798,-6.1021199]},"properties":{"amenity":"marketplace","source":"Bing"}},
{"type":"Feature","geometry":{"type":"Point","coordinates":[28.851122,-2.5133997]},"properties":{"amenity":"marketplace","name":"Limanga"}},
{"type":"Feature","geometry":{"type":"Point","coordinates":[23.5612048,-6.1060999]},"properties":{"amenity":"marketplace","name":"Marché Maréchal","source":"Bing"}},
{"type":"Feature","geometry":{"type":"Point","coordinates":[23.5198375,-6.1106453]},"properties":{"amenity":"marketplace","source":"Bing"}},
{"type":"Feature","geometry":{"type":"Point","coordinates":[23.5532397,-6.1558449]},"properties":{"amenity":"marketplace","source":"Bing"}},
{"type":"Feature","geometry":{"type":"Point","coordinates":[23.5489907,-6.1563616]},"properties":{"amenity":"marketplace","source":"Bing"}},
{"type":"Feature","geometry":{"type":"Point","coordinates":[28.8977954,-8.4681952]},"properties":{"addr:city":"Pweto","addr:street":"Avenue Principale","amenity":"marketplace","name":"Marché Pweto"}},
{"type":"Feature","geometry":{"type":"Point","coordinates":[23.5950032,-6.1138662]},"properties":{"amenity":"marketplace","source":"Bing"}},
{"type":"Feature","geometry":{"type":"Point","coordinates":[23.6266579,-6.1437805]},"properties":{"amenity":"marketplace","source":"Bing"}},
{"type":"Feature","geometry":{"type":"Point","coordinates":[23.6448635,-6.1056223]},"properties":{"amenity":"marketplace","name":"Marché Dileji","source":"Bing"}},
{"type":"Feature","geometry":{"type":"Point","coordinates":[23.6255155,-6.1498772]},"properties":{"amenity":"marketplace","source":"Bing"}},
{"type":"Feature","geometry":{"type":"Point","coordinates":[23.5468504,-6.0810641]},"properties":{"amenity":"marketplace","source":"Bing"}},
{"type":"Feature","geometry":{"type":"Point","coordinates":[23.6293989,-6.1018558]},"properties":{"amenity":"marketplace"}},
{"type":"Feature","geometry":{"type":"Point","coordinates":[23.4996302,-6.1087559]},"properties":{"amenity":"marketplace","source":"Bing","source:date":"2010-8-3"}},
{"type":"Feature","geometry":{"type":"Point","coordinates":[27.4859897,-11.6269367]},"properties":{"name":"Irma Business","shop":"convenience"}},
{"type":"Feature","geometry":{"type":"Point","coordinates":[23.6107341,-6.1315942]},"properties":{"amenity":"marketplace","name":"Marché Bakwadjanga","source":"survey"}},
{"type":"Feature","geometry":{"type":"Point","coordinates":[23.6292313,-6.1167106]},"properties":{"amenity":"marketplace","name":"Marché Mama Yemo","source":"Bing"}},
{"type":"Feature","geometry":{"type":"Point","coordinates":[23.5848423,-6.1165623]},"properties":{"name":"Boutique La Grace","shop":"convenience","source":"survey"}},
{"type":"Feature","geometry":{"type":"Point","coordinates":[23.6114857,-6.1164412]},"properties":{"amenity":"marketplace","name":"Marché Mbuji-Mayi","old_name":"Marché Simis"}},
{"type":"Feature","geometry":{"type":"Point","coordinates":[21.5583914,-4.8470651]},"properties":{"amenity":"marketplace"}},
{"type":"Feature","geometry":{"type":"Point","coordinates":[27.482831,-11.6432108]},"properties":{"name":"La brioche","shop":"bakery"}},
{"type":"Feature","geometry":{"type":"Point","coordinates":[27.4827728,-11.6428803]},"properties":{"name":"La croisiere","shop":"convenience"}},
{"type":"Feature","geometry":{"type":"Point","coordinates":[13.0581656,-5.8571311]},"properties":{"amenity":"marketplace"}},
{"type":"Feature","geometry":{"type":"Point","coordinates":[23.5666099,-6.1463311]},"properties":{"amenity":"marketplace","name":"Marché Mulamba wa Mpoyi"}},
{"type":"Feature","geometry":{"type":"Point","coordinates":[27.5063105,-11.6764859]},"properties":{"amenity":"marketplace","name":"Marché Kaleja"}},
{"type":"Feature","geometry":{"type":"Point","coordinates":[15.3059165,-4.3276707]},"properties":{"addr:street":"Avenue Kabinda","check_date":"2023-05-08","name":"PAINVICTOIRE","opening_hours":"24/7","shop":"bakery","website":"www.painvictoire.com"}},
{"type":"Feature","geometry":{"type":"Point","coordinates":[27.4828711,-11.7309875]},"properties":{"amenity":"marketplace","name":"Marché Kalule"}},
{"type":"Feature","geometry":{"type":"Point","coordinates":[27.4652061,-11.6027454]},"properties":{"amenity":"marketplace","name":"Marché Moïse","source":"survey"}},
{"type":"Feature","geometry":{"type":"Point","coordinates":[23.5806526,-6.1128275]},"properties":{"alt_name":"Marché Tukunyema","amenity":"marketplace","name":"Marché Tukunyiema"}},
{"type":"Feature","geometry":{"type":"Point","coordinates":[23.6117881,-6.1139301]},"properties":{"amenity":"marketplace","name":"Marché Cikila"}},
{"type":"Feature","geometry":{"type":"Point","coordinates":[23.6207881,-6.1062289]},"properties":{"amenity":"marketplace","source":"Bing;survey"}},
{"type":"Feature","geometry":{"type":"Point","coordinates":[23.6058737,-6.1164049]},"properties":{"amenity":"marketplace","name":"Marché Bena Kabinda","source":"survey"}},
{"type":"Feature","geometry":{"type":"Point","coordinates":[23.5878823,-6.0891637]},"properties":{"amenity":"marketplace","source":"Bing"}},
{"type":"Feature","geometry":{"type":"Point","coordinates":[23.5866488,-6.1020322]},"properties":{"amenity":"marketplace","source":"Bing"}},
{"type":"Feature","geometry":{"type":"Point","coordinates":[23.5510046,-6.1114895]},"properties":{"amenity":"marketplace","source":"survey"}},
{"type":"Feature","geometry":{"type":"Point","coordinates":[23.5730858,-6.1105613]},"properties":{"amenity":"marketplace","description":"Marché du charbon","source":"Bing"}},
{"type":"Feature","geometry":{"type":"Point","coordinates":[23.5619583,-6.1250077]},"properties":{"amenity":"marketplace","source":"Bing"}},
{"type":"Feature","geometry":{"type":"Point","coordinates":[23.5375359,-6.1269745]},"properties":{"amenity":"marketplace","source":"Bing"}},
{"type":"Feature","geometry":{"type":"Point","coordinates":[27.5101905,-11.6324297]},"properties":{"amenity":"marketplace","name":"Marché anarchique ave. Ruashi"}},
{"type":"Feature","geometry":{"type":"Point","coordinates":[27.4362836,-11.7114387]},"properties":{"amenity":"marketplace","source":"Bing"}},
{"type":"Feature","geometry":{"type":"Point","coordinates":[27.4992277,-11.7410186]},"properties":{"amenity":"marketplace","source":"Mapbox"}},
{"type":"Feature","geometry":{"type":"Point","coordinates":[27.513772,-11.6127781]},"properties":{"amenity":"marketplace"}},
{"type":"Feature","geometry":{"type":"Point","coordinates":[27.5447014,-11.6452343]},"properties":{"amenity":"marketplace","source":"Bing"}},
{"type":"Feature","geometry":{"type":"Point","coordinates":[15.2565246,-4.4072741]},"properties":{"name":"SK","shop":"supermarket","wheelchair":"yes"}},
{"type":"Feature","geometry":{"type":"Point","coordinates":[23.6469642,-6.0966518]},"properties":{"amenity":"marketplace","name":"Marché Ndibu wa Lonji","source":"survey"}},
{"type":"Feature","geometry":{"type":"Point","coordinates":[25.9597738,-8.8628706]},"properties":{"amenity":"marketplace","name":"Marche Kizanga"}},
{"type":"Feature","geometry":{"type":"Point","coordinates":[18.4207665,-4.4287811]},"properties":{"amenity":"marketplace","description":"Bi-weekly area market","name":"Kimbulu Market"}},
{"type":"Feature","geometry":{"type":"Point","coordinates":[15.2577846,-4.4113085]},"properties":{"addr:street":"Route de Matadi","name":"Regal","name:fr":"Regal","opening_hours":"24/7","shop":"supermarket"}},
{"type":"Feature","geometry":{"type":"Point","coordinates":[21.9507929,-6.9329268]},"properties":{"amenity":"marketplace"}},
{"type":"Feature","geometry":{"type":"Point","coordinates":[21.2974652,-6.8893932]},"properties":{"amenity":"marketplace"}},
{"type":"Feature","geometry":{"type":"Point","coordinates":[15.2552661,-4.4090339]},"properties":{"name":"Supermarché Rachel","shop":"supermarket"}},
{"type":"Feature","geometry":{"type":"Point","coordinates":[15.2885743,-4.3113263]},"properties":{"check_date":"2023-05-13","name":"Diplomatic dutyfree","payment:mastercard":"yes","payment:visa":"yes","shop":"convenience","wheelchair":"yes"}},
{"type":"Feature","geometry":{"type":"Point","coordinates":[15.2963048,-4.3059141]},"properties":{"addr:housenumber":"1a","addr:street":"Avenue Mbuji-Mayi","name":"S&K Super Marché","shop":"supermarket"}},
{"type":"Feature","geometry":{"type":"Point","coordinates":[15.2922906,-4.3174067]},"properties":{"check_date":"2023-05-19","name":"Alimentation Galaxy","name:fr":"Galaxi","name:nl":"Galaxi","shop":"convenience","wheelchair":"yes"}},
{"type":"Feature","geometry":{"type":"Point","coordinates":[29.2378787,-1.6875406]},"properties":{"name:en":"Megabytes Supermarket","shop":"supermarket"}},
{"type":"Feature","geometry":{"type":"Point","coordinates":[29.2374917,-1.686348]},"properties":{"name:en":"Supermarket","shop":"supermarket"}},
{"type":"Feature","geometry":{"type":"Point","coordinates":[15.3035003,-4.3575552]},"properties":{"name":"Boulangerie Bambili","shop":"bakery"}},
{"type":"Feature","geometry":{"type":"Point","coordinates":[15.2986562,-4.3576301]},"properties":{"addr:street":"Rue de Movenda","name":"Boulangerie Avenir","shop":"bakery"}},
{"type":"Feature","geometry":{"type":"Point","coordinates":[15.3493252,-4.3909984]},"properties":{"name":"Chez Rosine","shop":"butcher"}},
{"type":"Feature","geometry":{"type":"Point","coordinates":[15.3143248,-4.3013288]},"properties":{"name:en":"Hanson Frères","name:fr":"Hanson Frères","shop":"supermarket"}},
{"type":"Feature","geometry":{"type":"Point","coordinates":[27.4818701,-11.6346502]},"properties":{"name":"Shop Christopher","shop":"convenience"}},
{"type":"Feature","geometry":{"type":"Point","coordinates":[27.4907501,-11.6266266]},"properties":{"name":"tout est grâce","shop":"convenience"}},
{"type":"Feature","geometry":{"type":"Point","coordinates":[27.4915355,-11.6269681]},"properties":{"name":"junior","shop":"convenience"}},
{"type":"Feature","geometry":{"type":"Point","coordinates":[27.4903826,-11.6264341]},"properties":{"name":"Gylin","shop":"convenience"}},
{"type":"Feature","geometry":{"type":"Point","coordinates":[27.4904147,-11.6262467]},"properties":{"name":"Yannick","shop":"convenience"}},
{"type":"Feature","geometry":{"type":"Point","coordinates":[27.4837135,-11.6302667]},"properties":{"name":"Le Bon Pain","shop":"convenience"}},
{"type":"Feature","geometry":{"type":"Point","coordinates":[27.4821523,-11.6308149]},"properties":{"addr:street":"Avenue Circulaire","name":"Alimentation Gael","shop":"convenience"}},
{"type":"Feature","geometry":{"type":"Point","coordinates":[27.4815536,-11.6281219]},"properties":{"addr:street":"Avenue Sola","description":"alimentation","shop":"convenience"}},
{"type":"Feature","geometry":{"type":"Point","coordinates":[27.4811254,-11.6289386]},"properties":{"addr:street":"Avenue de L'Eglise","shop":"convenience"}},
{"type":"Feature","geometry":{"type":"Point","coordinates":[27.4815366,-11.6308773]},"properties":{"description":"Alimentation Comptoire des pains","shop":"convenience"}},
{"type":"Feature","geometry":{"type":"Point","coordinates":[27.4814268,-11.630898]},"properties":{"addr:street":"Avenue Circulaire","name":"Alimentation La grace","shop":"convenience"}},
{"type":"Feature","geometry":{"type":"Point","coordinates":[27.4806241,-11.6299502]},"properties":{"name":"Alimentation","shop":"convenience"}},
{"type":"Feature","geometry":{"type":"Point","coordinates":[27.4811654,-11.6288955]},"properties":{"addr:street":"Avenue de L'Eglise","shop":"convenience"}},
{"type":"Feature","geometry":{"type":"Point","coordinates":[27.4815623,-11.6309879]},"properties":{"addr:street":"Avenue Circulaire","name":"Alimentation Damas","shop":"convenience"}},
{"type":"Feature","geometry":{"type":"Point","coordinates":[27.4807402,-11.6304285]},"properties":{"addr:street":"Avenue Kabwekakanda","name":"Alimentation","shop":"convenience"}},
{"type":"Feature","geometry":{"type":"Point","coordinates":[27.4802957,-11.6310501]},"properties":{"addr:street":"Avenue Circulaire","name":"Alimentation Johblan Minning","shop":"convenience"}},
{"type":"Feature","geometry":{"type":"Point","coordinates":[27.4801827,-11.6311872]},"properties":{"addr:street":"Avenue Circulaire","name":"Alimentation Boucherie","shop":"butcher"}},
{"type":"Feature","geometry":{"type":"Point","coordinates":[27.4800074,-11.6309705]},"properties":{"addr:street":"Avenue Kasangulu","name":"Alimentation Rita","shop":"convenience"}},
{"type":"Feature","geometry":{"type":"Point","coordinates":[27.4799916,-11.6312587]},"properties":{"addr:street":"Avenue Kasangulu","shop":"convenience"}},
{"type":"Feature","geometry":{"type":"Point","coordinates":[27.4825556,-11.6307975]},"properties":{"name":"Alimentation Clarte","shop":"convenience"}},
{"type":"Feature","geometry":{"type":"Point","coordinates":[27.4829754,-11.6307591]},"properties":{"name":"Alimentation Colonne Defeu","shop":"convenience"}},
{"type":"Feature","geometry":{"type":"Point","coordinates":[27.4833728,-11.6308499]},"properties":{"name":"Alimentation La Providence","shop":"convenience"}},
{"type":"Feature","geometry":{"type":"Point","coordinates":[27.4761967,-11.63079]},"properties":{"name":"Bon Courage","shop":"convenience","source":"survey"}},
{"type":"Feature","geometry":{"type":"Point","coordinates":[27.4705761,-11.6320651]},"properties":{"name":"Chez Maman Jina","shop":"convenience","source":"survey"}},
{"type":"Feature","geometry":{"type":"Point","coordinates":[27.4736278,-11.6355493]},"properties":{"name":"Alimentation du peuple","shop":"convenience","source":"survey"}},
{"type":"Feature","geometry":{"type":"Point","coordinates":[27.4736076,-11.6356189]},"properties":{"name":"Exo Shop","shop":"convenience","source":"survey"}},
{"type":"Feature","geometry":{"type":"Point","coordinates":[27.4742836,-11.6335862]},"properties":{"name":"Alimentation Razi","shop":"convenience","source":"survey"}},
{"type":"Feature","geometry":{"type":"Point","coordinates":[27.4744443,-11.6329098]},"properties":{"name":"Chez Papa","shop":"convenience","source":"survey"}},
{"type":"Feature","geometry":{"type":"Point","coordinates":[27.4750984,-11.632226]},"properties":{"name":"Rehobot","shop":"convenience","source":"survey"}},
{"type":"Feature","geometry":{"type":"Point","coordinates":[27.4756684,-11.6318759]},"properties":{"name":"Alimentation","shop":"convenience","source":"survey"}},
{"type":"Feature","geometry":{"type":"Point","coordinates":[27.4850029,-11.6274067]},"properties":{"name":"1 plus 1 egale 1","shop":"convenience"}},
{"type":"Feature","geometry":{"type":"Point","coordinates":[27.4855897,-11.6284736]},"properties":{"name":"Esaie 60 15","shop":"convenience"}},
{"type":"Feature","geometry":{"type":"Point","coordinates":[27.4860063,-11.6276515]},"properties":{"name":"Elshadai","shop":"convenience"}},
{"type":"Feature","geometry":{"type":"Point","coordinates":[27.4830262,-11.6292306]},"properties":{"name":"alimentation Mwambuyi 99","shop":"convenience"}},
{"type":"Feature","geometry":{"type":"Point","coordinates":[27.4864604,-11.6287059]},"properties":{"shop":"convenience"}},
{"type":"Feature","geometry":{"type":"Point","coordinates":[27.487287,-11.6307946]},"properties":{"name":"Top Espoir","shop":"convenience"}},
{"type":"Feature","geometry":{"type":"Point","coordinates":[27.4837752,-11.6305183]},"properties":{"name":"Alimentation Choco stick","shop":"convenience"}},
{"type":"Feature","geometry":{"type":"Point","coordinates":[27.4834113,-11.6293704]},"properties":{"name":"alimentation 45","shop":"convenience"}},
{"type":"Feature","geometry":{"type":"Point","coordinates":[27.4834559,-11.6290195]},"properties":{"name":"Alimentation Galaxy o'","shop":"convenience"}},
{"type":"Feature","geometry":{"type":"Point","coordinates":[27.4838207,-11.6280003]},"properties":{"name":"Alimentation Ma vitamine","shop":"convenience"}},
{"type":"Feature","geometry":{"type":"Point","coordinates":[27.4931936,-11.6295062]},"properties":{"name":"boulangerie royal","shop":"bakery"}},
{"type":"Feature","geometry":{"type":"Point","coordinates":[27.492916,-11.6277481]},"properties":{"name":"Alimentation tout est grâce","shop":"convenience"}},
{"type":"Feature","geometry":{"type":"Point","coordinates":[27.4920916,-11.6290048]},"properties":{"name":"alimentation bénicie","shop":"convenience"}},
{"type":"Feature","geometry":{"type":"Point","coordinates":[27.4919235,-11.6294645]},"properties":{"name":"Alimentation amanda business","shop":"convenience"}},
{"type":"Feature","geometry":{"type":"Point","coordinates":[27.4866455,-11.6666236]},"properties":{"name":"Boulangerie Ouagadougou","shop":"bakery"}},
{"type":"Feature","geometry":{"type":"Point","coordinates":[27.4833974,-11.6435451]},"properties":{"name":"Dieu est grand","shop":"convenience"}},
{"type":"Feature","geometry":{"type":"Point","coordinates":[27.4829172,-11.6428688]},"properties":{"name":"Alimetation Jehova-Nissi","shop":"convenience"}},
{"type":"Feature","geometry":{"type":"Point","coordinates":[23.762823,-6.08346]},"properties":{"amenity":"marketplace","source":"Bing"}},
{"type":"Feature","geometry":{"type":"Point","coordinates":[23.7243716,-6.109618]},"properties":{"amenity":"marketplace","source":"Bing"}},
{"type":"Feature","geometry":{"type":"Point","coordinates":[23.9495808,-6.7338178]},"properties":{"amenity":"marketplace","source":"Bing"}},
{"type":"Feature","geometry":{"type":"Point","coordinates":[23.6787171,-6.4541447]},"properties":{"amenity":"marketplace","source":"Bing"}},
{"type":"Feature","geometry":{"type":"Point","coordinates":[23.9064134,-6.3300547]},"properties":{"amenity":"marketplace","source":"Bing"}},
{"type":"Feature","geometry":{"type":"Point","coordinates":[23.6620193,-6.2981699]},"properties":{"amenity":"marketplace","source":"Bing"}},
{"type":"Feature","geometry":{"type":"Point","coordinates":[23.6336345,-6.1244099]},"properties":{"amenity":"marketplace","source":"Bing"}},
{"type":"Feature","geometry":{"type":"Point","coordinates":[23.6509079,-6.4907972]},"properties":{"amenity":"marketplace","source":"Bing"}},
{"type":"Feature","geometry":{"type":"Point","coordinates":[23.6604073,-6.4966911]},"properties":{"amenity":"marketplace","source":"Bing"}},
{"type":"Feature","geometry":{"type":"Point","coordinates":[27.3251983,-5.1387664]},"properties":{"amenity":"marketplace"}},
{"type":"Feature","geometry":{"type":"Point","coordinates":[15.317033,-4.3277689]},"properties":{"amenity":"marketplace","check_date":"2023-05-13"}},
{"type":"Feature","geometry":{"type":"Point","coordinates":[23.8034159,-6.0620581]},"properties":{"amenity":"marketplace","source":"Digital Globe Maps API"}},
{"type":"Feature","geometry":{"type":"Point","coordinates":[23.7541937,-6.4003078]},"properties":{"amenity":"marketplace","source":"Digital Globe Maps API"}},
{"type":"Feature","geometry":{"type":"Point","coordinates":[15.3040852,-4.3165259]},"properties":{"name":"Food Market","shop":"supermarket"}},
{"type":"Feature","geometry":{"type":"Point","coordinates":[23.7988027,-6.3515405]},"properties":{"amenity":"marketplace","source":"Digital Globe Maps API"}},
{"type":"Feature","geometry":{"type":"Point","coordinates":[18.5960189,4.3411259]},"properties":{"amenity":"marketplace"}},
{"type":"Feature","geometry":{"type":"Point","coordinates":[18.5948011,4.3498294]},"properties":{"amenity":"marketplace"}},
{"type":"Feature","geometry":{"type":"Point","coordinates":[23.1066148,-6.2659323]},"properties":{"amenity":"marketplace","source":"Bing"}},
{"type":"Feature","geometry":{"type":"Point","coordinates":[15.373081,-4.391716]},"properties":{"amenity":"marketplace","name":"Marché Mitraille","source":"MSF survey 2016"}},
{"type":"Feature","geometry":{"type":"Point","coordinates":[15.4125896,-4.4090046]},"properties":{"amenity":"marketplace","name":"Marche Wenzeyambila","source":"MSF survey 2016"}},
{"type":"Feature","geometry":{"type":"Point","coordinates":[15.36333,-4.426706]},"properties":{"amenity":"marketplace","name":"Marché Cecomaf","source":"MSF survey 2016"}},
{"type":"Feature","geometry":{"type":"Point","coordinates":[15.3697028,-4.4152232]},"properties":{"amenity":"marketplace","name":"Marche 6","source":"MSF survey 2016"}},
{"type":"Feature","geometry":{"type":"Point","coordinates":[15.419858,-4.4531691]},"properties":{"amenity":"marketplace","source":"MSF survey 2016"}},
{"type":"Feature","geometry":{"type":"Point","coordinates":[15.41444,-4.422926]},"properties":{"amenity":"marketplace","name":"Marche de Mfu Nketo","source":"MSF survey 2016"}},
{"type":"Feature","geometry":{"type":"Point","coordinates":[15.413857,-4.405462]},"properties":{"amenity":"marketplace","name":"Marché Kabila","name_alt":"market","source":"MSF survey 2016"}},
{"type":"Feature","geometry":{"type":"Point","coordinates":[15.4319142,-4.4263781]},"properties":{"amenity":"marketplace","name":"Marche de la Police","source":"MSF survey 2016"}},
{"type":"Feature","geometry":{"type":"Point","coordinates":[15.4134541,-4.4397828]},"properties":{"amenity":"marketplace","source":"MSF survey 2016"}},
{"type":"Feature","geometry":{"type":"Point","coordinates":[15.397953,-4.43567]},"properties":{"amenity":"marketplace","name":"Marche Bayaka","source":"MSF survey 2016"}},
{"type":"Feature","geometry":{"type":"Point","coordinates":[15.376849,-4.397755]},"properties":{"amenity":"marketplace","name":"Marché Mangobo","source":"MSF survey 2016"}},
{"type":"Feature","geometry":{"type":"Point","coordinates":[15.4066155,-4.4285163]},"properties":{"amenity":"marketplace","name":"Marché Milagi","source":"MSF survey 2016"}},
{"type":"Feature","geometry":{"type":"Point","coordinates":[15.409835,-4.413751]},"properties":{"amenity":"marketplace","name":"Marché","source":"MSF survey 2016"}},
{"type":"Feature","geometry":{"type":"Point","coordinates":[15.3989469,-4.4179948]},"properties":{"amenity":"marketplace","name":"Marché Ferbois","source":"MSF survey 2016"}},
{"type":"Feature","geometry":{"type":"Point","coordinates":[15.39578,-4.401312]},"properties":{"amenity":"marketplace","source":"MSF survey 2016"}},
{"type":"Feature","geometry":{"type":"Point","coordinates":[15.2852819,-4.3115902]},"properties":{"addr:city":"Kinshasa","addr:housenumber":"60","addr:street":"Avenue de la Justice","name":"Setalus Super Marché","shop":"supermarket"}},
{"type":"Feature","geometry":{"type":"Point","coordinates":[22.7940145,3.6710225]},"properties":{"amenity":"marketplace","source":"Digital Globe"}},
{"type":"Feature","geometry":{"type":"Point","coordinates":[23.8865885,3.3655228]},"properties":{"amenity":"marketplace"}},
{"type":"Feature","geometry":{"type":"Point","coordinates":[23.9052147,3.3675269]},"properties":{"amenity":"marketplace","source":"Digital Globe"}},
{"type":"Feature","geometry":{"type":"Point","coordinates":[28.01026,-5.9577405]},"properties":{"amenity":"marketplace"}},
{"type":"Feature","geometry":{"type":"Point","coordinates":[29.1933573,-5.9303723]},"properties":{"amenity":"marketplace"}},
{"type":"Feature","geometry":{"type":"Point","coordinates":[27.003736,-5.3900645]},"properties":{"amenity":"marketplace"}},
{"type":"Feature","geometry":{"type":"Point","coordinates":[15.2904367,-4.4101257]},"properties":{"name":"Boulangerie","shop":"bakery"}},
{"type":"Feature","geometry":{"type":"Point","coordinates":[15.3131225,-4.3082557]},"properties":{"addr:street":"Avenue du Marché","check_date":"2023-05-19","name":"Galaxy","name:fr":"Galaxy","shop":"supermarket"}},
{"type":"Feature","geometry":{"type":"Point","coordinates":[27.4805929,-11.6709755]},"properties":{"name":"GENAP","shop":"convenience"}},
{"type":"Feature","geometry":{"type":"Point","coordinates":[20.4364946,-6.6936312]},"properties":{"amenity":"marketplace"}},
{"type":"Feature","geometry":{"type":"Point","coordinates":[20.474982,-6.6461394]},"properties":{"amenity":"marketplace"}},
{"type":"Feature","geometry":{"type":"Point","coordinates":[22.4169477,-5.8979004]},"properties":{"amenity":"marketplace"}},
{"type":"Feature","geometry":{"type":"Point","coordinates":[22.4551699,-5.8977414]},"properties":{"amenity":"marketplace"}},
{"type":"Feature","geometry":{"type":"Point","coordinates":[22.3954059,-5.8953648]},"properties":{"amenity":"marketplace"}},
{"type":"Feature","geometry":{"type":"Point","coordinates":[22.3940382,-5.8953446]},"properties":{"amenity":"marketplace"}},
{"type":"Feature","geometry":{"type":"Point","coordinates":[20.8489358,-7.2238257]},"properties":{"amenity":"marketplace"}},
{"type":"Feature","geometry":{"type":"Point","coordinates":[23.5857675,-6.1166923]},"properties":{"name":"Alimentation Harit","shop":"convenience"}},
{"type":"Feature","geometry":{"type":"Point","coordinates":[15.4151669,-4.4048265]},"properties":{"name":"Marché Hindou","shop":"supermarket"}},
{"type":"Feature","geometry":{"type":"Point","coordinates":[29.2044366,-1.6741168]},"properties":{"addr:city":"Goma","addr:housenumber":"225","addr:street":"Avenue du lac","email":"info@goshop.cd","internet_access":"wlan","name":"GoShop","name:en":"GoShop","name:fr":"GoShop","opening_hours":"24/7","phone":"+243999249007","shop":"supermarket","website":"https://www.goshop.cd/"}},
{"type":"Feature","geometry":{"type":"Point","coordinates":[27.4554172,-11.6900921]},"properties":{"addr:street":"Rue 1","name":"Mimbulu","name:fr":"Mimbulu","opening_hours":"24/7","shop":"supermarket"}},
{"type":"Feature","geometry":{"type":"Point","coordinates":[14.6944606,-5.5036388]},"properties":{"amenity":"marketplace"}},
{"type":"Feature","geometry":{"type":"Point","coordinates":[15.2785621,-4.4336351]},"properties":{"addr:city":"kinshasa","addr:street":"Avenue de la Foire","name":"Boulangerie Pain de Grace","shop":"bakery"}},
{"type":"Feature","geometry":{"type":"Point","coordinates":[26.0105503,-4.2736548]},"properties":{"amenity":"marketplace","fixme":"precise location unknown"}},
{"type":"Feature","geometry":{"type":"Point","coordinates":[29.0428251,-4.2035772]},"properties":{"amenity":"marketplace","source":"MSFsurvey","source:date":"2017-07"}},
{"type":"Feature","geometry":{"type":"Point","coordinates":[29.0377266,-4.2024637]},"properties":{"amenity":"marketplace","name":"Marché du mercredi","source":"MSFsurvey","source:date":"2017-07"}},
{"type":"Feature","geometry":{"type":"Point","coordinates":[29.0498149,-4.1915302]},"properties":{"amenity":"marketplace","name":"Marche Kasoko de Katanga 6","source":"MSFsurvey","source:date":"2017-07"}},
{"type":"Feature","geometry":{"type":"Point","coordinates":[28.9980883,-4.4751367]},"properties":{"amenity":"marketplace","is_in:village":"Lekesha","name":"Petit marché de Lekesha","source":"MSFsurvey","source:date":"2017-07"}},
{"type":"Feature","geometry":{"type":"Point","coordinates":[29.0908605,-4.108723]},"properties":{"amenity":"marketplace","name":"Marché Maison Escale","source":"MSFsurvey","source:date":"2017-07"}},
{"type":"Feature","geometry":{"type":"Point","coordinates":[29.041725,-4.2609267]},"properties":{"amenity":"marketplace","is_in:village":"Katalukulu","source":"MSFsurvey","source:date":"2017-07"}},
{"type":"Feature","geometry":{"type":"Point","coordinates":[29.2619277,-4.1084532]},"properties":{"amenity":"marketplace","is_in:village":"Dine","name":"Petit marché Dine","source":"MSFsurvey","source:date":"2017-07"}},
{"type":"Feature","geometry":{"type":"Point","coordinates":[29.0945652,-4.1226748]},"properties":{"amenity":"marketplace","source":"MSFsurvey","source:date":"2017-07"}},
{"type":"Feature","geometry":{"type":"Point","coordinates":[27.4805156,-11.6442315]},"properties":{"addr:city":"Lubumbashi","addr:country":"CD","addr:housenumber":"1621","addr:province":"Haut Katanga","addr:street":"Avenue de la Révolution","contact:phone":"+243 992022222","name":"Boulangerie Hassan","shop":"bakery","source":"survey"}},
{"type":"Feature","geometry":{"type":"Point","coordinates":[27.5350277,-11.6234469]},"properties":{"name":"Chez da Patience","shop":"convenience"}},
{"type":"Feature","geometry":{"type":"Point","coordinates":[27.5544886,-11.634373]},"properties":{"name":"Kiosque La Grace","shop":"convenience"}},
{"type":"Feature","geometry":{"type":"Point","coordinates":[29.2513484,-4.1890046]},"properties":{"amenity":"marketplace","is_in:village":"Lubomo","name":"Petit marché Kariako","source":"MSFsurvey","source:date":"2017-07"}},
{"type":"Feature","geometry":{"type":"Point","coordinates":[29.2518434,-4.1844712]},"properties":{"amenity":"marketplace","is_in:village":"Lubomo","name":"Petit marché Kariako 2","source":"MSFsurvey","source:date":"2017-07"}},
{"type":"Feature","geometry":{"type":"Point","coordinates":[28.8217383,-4.3052833]},"properties":{"amenity":"marketplace","is_in:village":"Bwala","name":"Marché de Bwala","source":"MSFsurvey","source:date":"2017-07"}},
{"type":"Feature","geometry":{"type":"Point","coordinates":[29.2595689,-4.0945017]},"properties":{"amenity":"marketplace","is_in:village":"Kalongwe","name":"Marché Mjinga","source":"MSFsurvey","source:date":"2017-07"}},
{"type":"Feature","geometry":{"type":"Point","coordinates":[29.2400552,-4.2473306]},"properties":{"amenity":"marketplace","is_in:village":"Mwayenga centre","name":"Marché Mwayenga","source":"MSFsurvey","source:date":"2017-07"}},
{"type":"Feature","geometry":{"type":"Point","coordinates":[29.204624,-4.5213341]},"properties":{"amenity":"marketplace","is_in:village":"Karamba mahembe","source":"MSFsurvey","source:date":"2017-07"}},
{"type":"Feature","geometry":{"type":"Point","coordinates":[29.2284799,-4.2924458]},"properties":{"amenity":"marketplace","is_in:village":"Kihimino 2","name":"Petit marché Kihimino","source":"MSFsurvey","source:date":"2017-07"}},
{"type":"Feature","geometry":{"type":"Point","coordinates":[29.2198121,-4.3458728]},"properties":{"amenity":"marketplace","is_in:village":"Lobilo","name":"Petit marché Lobilo","source":"MSFsurvey","source:date":"2017-07"}},
{"type":"Feature","geometry":{"type":"Point","coordinates":[15.2887341,-4.3564585]},"properties":{"addr:city":"Kinshasa","amenity":"marketplace","name":"Marché Bambole"}},
{"type":"Feature","geometry":{"type":"Point","coordinates":[15.2762861,-4.3430216]},"properties":{"addr:city":"Kinshasa","addr:street":"Avenue Kasa-Vubu","name":"Chez Michael","operator":"Restaurant et Supermarché","shop":"supermarket"}},
{"type":"Feature","geometry":{"type":"Point","coordinates":[15.2777553,-4.3424887]},"properties":{"addr:city":"Kinshasa","addr:street":"Avenue Kasa-Vubu","name":"Big Market","shop":"supermarket"}},
{"type":"Feature","geometry":{"type":"Point","coordinates":[15.2769838,-4.3427516]},"properties":{"addr:city":"Kinshasa","addr:street":"Avenue Kasa-Vubu","name":"Supermarché Galaxy","shop":"supermarket"}},
{"type":"Feature","geometry":{"type":"Point","coordinates":[15.2669042,-4.3463302]},"properties":{"addr:city":"Kinshasa","addr:street":"Avenue Kasa-Vubu","name":"Moni Shop","opening_hours":"Mo-Su 08:00-22:00","shop":"supermarket"}},
{"type":"Feature","geometry":{"type":"Point","coordinates":[15.2585353,-4.3355866]},"properties":{"name":"Kin Food","shop":"supermarket"}},
{"type":"Feature","geometry":{"type":"Point","coordinates":[15.2566637,-4.3337148]},"properties":{"addr:city":"Kinshasa","addr:street":"Route Matadi","air_conditioning":"yes","name":"Kin Marché","operator":"Kin Marché","payment:cash":"yes","payment:credit_cards":"yes","shop":"supermarket","source":"local knowledge"}},
{"type":"Feature","geometry":{"type":"Point","coordinates":[15.2882037,-4.3492009]},"properties":{"addr:city":"Kinshasa","amenity":"marketplace","name":"Marché Lumumba"}},
{"type":"Feature","geometry":{"type":"Point","coordinates":[15.2960163,-4.3496991]},"properties":{"addr:city":"Kinshasa","addr:housenumber":"111","addr:street":"Avenue Kasa-Vubu","name":"UPAK","name:fr":"Usine de Panification de Kinshasa","name:ln":"Mama Poto","operator":"UPAK sprl","product":"bread","shop":"bakery"}},
{"type":"Feature","geometry":{"type":"Point","coordinates":[28.9362234,-4.1657946]},"properties":{"amenity":"marketplace","is_in:village":"Simbi","source":"MSFsurvey","source:date":"2017-07"}},
{"type":"Feature","geometry":{"type":"Point","coordinates":[28.9356681,-4.1661558]},"properties":{"amenity":"marketplace","is_in:village":"Kotongo","source":"MSFsurvey","source:date":"2017-07"}},
{"type":"Feature","geometry":{"type":"Point","coordinates":[28.8730064,-4.0953047]},"properties":{"amenity":"marketplace","is_in:village":"Kichula","source":"MSFsurvey","source:date":"2017-07"}},
{"type":"Feature","geometry":{"type":"Point","coordinates":[27.4840458,-11.6479285]},"properties":{"name":"Crist vous appelle","shop":"convenience"}},
{"type":"Feature","geometry":{"type":"Point","coordinates":[29.1117339,-4.9633104]},"properties":{"amenity":"marketplace","is_in:village":"Aoma","source":"MSFsurvey","source:date":"2017-07"}},
{"type":"Feature","geometry":{"type":"Point","coordinates":[29.156642,-4.3282306]},"properties":{"amenity":"marketplace","is_in:village":"Katenga","name":"Marché de Katenga","source":"MSFsurvey","source:date":"2017-07"}},
{"type":"Feature","geometry":{"type":"Point","coordinates":[29.221801,-1.6771525]},"properties":{"name":"Boulangerie Krishna","shop":"bakery"}},
{"type":"Feature","geometry":{"type":"Point","coordinates":[29.1068615,-4.847861]},"properties":{"amenity":"marketplace","is_in:village":"Yungu","source":"MSFsurvey","source:date":"2017-07"}},
{"type":"Feature","geometry":{"type":"Point","coordinates":[29.1678449,-1.6554777]},"properties":{"name":"Marché de Kituku","name:en":"Kituku Market","shop":"butcher"}},
{"type":"Feature","geometry":{"type":"Point","coordinates":[15.3150017,-4.3910606]},"properties":{"name":"Alimentation New Lys","opening_hours":"08:30-20:00","shop":"convenience","wheelchair":"yes"}},
{"type":"Feature","geometry":{"type":"Point","coordinates":[29.1087551,-4.6484503]},"properties":{"amenity":"marketplace","is_in:village":"Nguma","name":"Marché de Nguma","source":"MSFsurvey","source:date":"2017-07"}},
{"type":"Feature","geometry":{"type":"Point","coordinates":[29.1531409,-4.3700127]},"properties":{"amenity":"marketplace","is_in:village":"Misha 2","name":"Marché de Misha","source":"MSFsurvey","source:date":"2017-07"}},
{"type":"Feature","geometry":{"type":"Point","coordinates":[29.1525192,-4.5453434]},"properties":{"amenity":"marketplace","building":"no","is_in:village":"Kazimia","name":"Marché Kariako de Kazimia","source":"MSFsurvey","source:date":"2017-07"}},
{"type":"Feature","geometry":{"type":"Point","coordinates":[29.1681976,-4.4882483]},"properties":{"amenity":"marketplace","is_in:village":"Kibanga","name":"Marché de Kibanga","source":"MSFsurvey","source:date":"2017-07"}},
{"type":"Feature","geometry":{"type":"Point","coordinates":[29.0717326,-4.1508513]},"properties":{"amenity":"marketplace","fixme":"Check location of this POI-- This isn't obviously a marketplace location judging by aerials","name":"Marche de Kiminga","source":"MSFsurvey","source:date":"2017-07"}},
{"type":"Feature","geometry":{"type":"Point","coordinates":[15.3611244,-4.3862963]},"properties":{"addr:city":"Kinshasa","addr:country":"CD","addr:district":"Tshangu","addr:housename":"Food Market","addr:postcode":"00243","addr:province":"Kinshasa","addr:state":"Kinshasa","addr:street":"Boulevard Lumumba Quartier 1","name":"Food Market","opening_hours":"Mo-Fr 08:30-20:00, Tu-Su 08:00-15:00; Sa 08:00-12:00","payment:maestro":"yes","payment:mastercard":"yes","payment:notes":"yes","payment:visa":"yes","payment:visa_debit":"yes","payment:visa_electron":"yes","shop":"supermarket","wheelchair":"no"}},
{"type":"Feature","geometry":{"type":"Point","coordinates":[15.2880513,-4.4068874]},"properties":{"name":"Boutique Petit Bazzar","shop":"supermarket"}},
{"type":"Feature","geometry":{"type":"Point","coordinates":[29.0421085,-4.2708068]},"properties":{"amenity":"marketplace","is_in:village":"Kaseke","source":"MSFsurvey","source:date":"2017-07"}},
{"type":"Feature","geometry":{"type":"Point","coordinates":[15.2831036,-4.3492623]},"properties":{"name":"Boulangerie Hassan","shop":"bakery","wheelchair":"yes"}},
{"type":"Feature","geometry":{"type":"Point","coordinates":[15.258215999999999,-4.4335262]},"properties":{"name":"GRACE MARKET","opening_hours":"8:00-23:00","shop":"supermarket","wheelchair":"yes"}},
{"type":"Feature","geometry":{"type":"Point","coordinates":[15.2581237,-4.4419913]},"properties":{"name":"boulangerie cité verte","shop":"bakery"}},
{"type":"Feature","geometry":{"type":"Point","coordinates":[15.3149575,-4.3921491]},"properties":{"amenity":"marketplace","name":"Alimentation de Kivu","organic":"Viande rouge, poisson, lait, etc."}},
{"type":"Feature","geometry":{"type":"Point","coordinates":[28.9441842,-4.3008865]},"properties":{"amenity":"marketplace","is_in:village":"Centre commercial","source":"MSFsurvey","source:date":"2017-07"}},
{"type":"Feature","geometry":{"type":"Point","coordinates":[15.2597335,-4.3809596]},"properties":{"addr:city":"Kinshasa","addr:country":"CD","addr:street":"Route Matadi","name":"Kin Marché","payment:cash":"yes","payment:coins":"yes","payment:mastercard":"yes","payment:notes":"yes","payment:visa":"yes","shop":"supermarket","wheelchair":"yes"}},
{"type":"Feature","geometry":{"type":"Point","coordinates":[15.2566731,-4.4077028]},"properties":{"addr:city":"Kinshasa","addr:country":"CD","addr:street":"Route Matadi","name":"Super Marché S&K","shop":"supermarket","wheelchair":"yes"}},
{"type":"Feature","geometry":{"type":"Point","coordinates":[29.0903397,-4.1191134]},"properties":{"amenity":"marketplace","source":"MSFsurvey","source:date":"2017-07"}},
{"type":"Feature","geometry":{"type":"Point","coordinates":[29.0908298,-4.1179385]},"properties":{"amenity":"marketplace","source":"MSFsurvey","source:date":"2017-07"}},
{"type":"Feature","geometry":{"type":"Point","coordinates":[29.0948486,-4.1107616]},"properties":{"amenity":"marketplace","name":"Marché Matata","source":"MSFsurvey","source:date":"2017-07"}},
{"type":"Feature","geometry":{"type":"Point","coordinates":[29.0960808,-4.1057448]},"properties":{"amenity":"marketplace","name":"Marché Aebaz","source":"MSFsurvey","source:date":"2017-07"}},
{"type":"Feature","geometry":{"type":"Point","coordinates":[29.0924282,-4.0978131]},"properties":{"amenity":"marketplace","name":"Kasoko","source":"MSFsurvey","source:date":"2017-07"}},
{"type":"Feature","geometry":{"type":"Point","coordinates":[29.0919075,-4.0964985]},"properties":{"amenity":"marketplace","name":"Kasoko Kalinga nord","source":"MSFsurvey","source:date":"2017-07"}},
{"type":"Feature","geometry":{"type":"Point","coordinates":[29.0999905,-4.0946614]},"properties":{"amenity":"marketplace","name":"Marché Mwemezi 2","source":"MSFsurvey","source:date":"2017-07"}},
{"type":"Feature","geometry":{"type":"Point","coordinates":[29.0984154,-4.0922685]},"properties":{"amenity":"marketplace","name":"Marche Mwemezi 3","source":"MSFsurvey","source:date":"2017-07"}},
{"type":"Feature","geometry":{"type":"Point","coordinates":[29.0985107,-4.0928082]},"properties":{"amenity":"marketplace","name":"Marche File Maya","source":"MSFsurvey","source:date":"2017-07"}},
{"type":"Feature","geometry":{"type":"Point","coordinates":[29.0893669,-4.0849619]},"properties":{"amenity":"marketplace","source":"MSFsurvey","source:date":"2017-07"}},
{"type":"Feature","geometry":{"type":"Point","coordinates":[29.0896683,-4.0903034]},"properties":{"amenity":"marketplace","name":"Marché Ligala","source":"MSFsurvey","source:date":"2017-07"}},
{"type":"Feature","geometry":{"type":"Point","coordinates":[29.0877991,-4.0649714]},"properties":{"amenity":"marketplace","source":"MSFsurvey","source:date":"2017-07"}},
{"type":"Feature","geometry":{"type":"Point","coordinates":[29.0887604,-4.0384283]},"properties":{"amenity":"marketplace","source":"MSFsurvey","source:date":"2017-07"}},
{"type":"Feature","geometry":{"type":"Point","coordinates":[29.0897484,-4.0349765]},"properties":{"amenity":"marketplace","name":"Petit marché","source":"MSFsurvey","source:date":"2017-07"}},
{"type":"Feature","geometry":{"type":"Point","coordinates":[30.7904667,3.016455]},"properties":{"addr:county":"Ayivu","addr:district":"Arua","addr:parish":"Mite","addr:subcounty":"Adumi","addr:village":"Alivu","amenity":"marketplace","name":"Magasaba","opening_hours":"Mo-Su 09:00-17:00","operator":"Local council"}},
{"type":"Feature","geometry":{"type":"Point","coordinates":[28.854357,-2.4966171]},"properties":{"amenity":"marketplace"}},
{"type":"Feature","geometry":{"type":"Point","coordinates":[30.8438833,2.9675567]},"properties":{"addr:county":"Ayivu","addr:district":"Arua","addr:parish":"Etori","addr:subcounty":"Pajulu","amenity":"marketplace","name":"Alumasi Denis","opening_hours":"Mo-Su 09:00-17:00","shop":"convenience"}},
{"type":"Feature","geometry":{"type":"Point","coordinates":[30.7897483,3.01656]},"properties":{"addr:county":"Ayivu","addr:district":"Arua","addr:parish":"Nyiovura","addr:subcounty":"Adumi","amenity":"marketplace","name":"Magasath Produce","opening_hours":"Mo-Su 09:00-17:00","shop":"greengrocer"}},
{"type":"Feature","geometry":{"type":"Point","coordinates":[30.824365,2.9881833]},"properties":{"addr:county":"Ayivu","addr:district":"Arua","addr:parish":"Etori","addr:subcounty":"Pajulu","amenity":"marketplace","name":"Godfrey's","opening_hours":"Mo-Su 09:00-17:00","shop":"convenience"}},
{"type":"Feature","geometry":{"type":"Point","coordinates":[30.8438933,2.9677383]},"properties":{"addr:county":"Ayivu","addr:district":"Arua","addr:parish":"Etori","addr:subcounty":"Pajulu","amenity":"marketplace","name":"Georgia","opening_hours":"Mo-Su 09:00-17:00","shop":"beverages"}},
{"type":"Feature","geometry":{"type":"Point","coordinates":[30.7907117,3.0166717]},"properties":{"addr:county":"Ayivu","addr:district":"Arua","addr:parish":"Nyiovura","addr:subcounty":"Adumi","amenity":"marketplace","name":"Magasager","opening_hours":"Mo-Su 09:00-17:00","operator":"Community","shop":"convenience"}},
{"type":"Feature","geometry":{"type":"Point","coordinates":[30.8243483,2.9883867]},"properties":{"addr:county":"Ayivu","addr:district":"Arua","addr:parish":"Etori","addr:subcounty":"Pajulu","amenity":"marketplace","name":"Adam's","opening_hours":"Mo-Su 09:00-17:00","shop":"kiosk"}},
{"type":"Feature","geometry":{"type":"Point","coordinates":[30.8433833,2.9677833]},"properties":{"addr:county":"Ayivu","addr:district":"Arua","addr:parish":"Etori","addr:subcounty":"Pajulu","amenity":"marketplace","name":"Andega","opening_hours":"Mo-Su 09:00-17:00","shop":"convenience"}},
{"type":"Feature","geometry":{"type":"Point","coordinates":[30.8438683,2.9677]},"properties":{"addr:county":"Ayivu","addr:district":"Arua","addr:parish":"Etori","addr:subcounty":"Pajulu","amenity":"marketplace","name":"Francisco","opening_hours":"Mo-Su 09:00-17:00","shop":"convenience"}},
{"type":"Feature","geometry":{"type":"Point","coordinates":[30.844705,2.9699517]},"properties":{"addr:county":"Ayivu","addr:district":"Arua","addr:parish":"Etori","addr:subcounty":"Pajulu","name":"George Aria","opening_hours":"Mo-Su 09:00-17:00","shop":"convenience"}},
{"type":"Feature","geometry":{"type":"Point","coordinates":[30.8432467,2.967915]},"properties":{"addr:county":"Ayivu","addr:district":"Arua","addr:parish":"Etori","addr:subcounty":"Pajulu","amenity":"marketplace","name":"Dawa's","opening_hours":"Mo-Su 09:00-17:00","shop":"alcohol"}},
{"type":"Feature","geometry":{"type":"Point","coordinates":[30.7897767,3.0165383]},"properties":{"addr:county":"Ayivu","addr:district":"Arua","addr:parish":"Nyiovura","addr:subcounty":"Adumi","amenity":"marketplace","name":"Erick Shalon","opening_hours":"24/7","shop":"hairdresser"}},
{"type":"Feature","geometry":{"type":"Point","coordinates":[30.824355,2.9880683]},"properties":{"addr:county":"Ayivu","addr:district":"Arua","addr:parish":"Etori","addr:subcounty":"Pajulu","amenity":"marketplace","name":"Godfrey","opening_hours":"Mo-Su 09:00-17:00","shop":"kiosk"}},
{"type":"Feature","geometry":{"type":"Point","coordinates":[30.8438867,2.9676467]},"properties":{"addr:county":"Ayivu","addr:district":"Arua","addr:parish":"Etori","addr:subcounty":"Pajulu","amenity":"marketplace","name":"Atibo","opening_hours":"Mo-Su 09:00-17:00","shop":"convenience"}},
{"type":"Feature","geometry":{"type":"Point","coordinates":[30.8439233,2.96785]},"properties":{"addr:county":"Ayivu","addr:district":"Arua","addr:parish":"Etori","addr:subcounty":"Pajulu","amenity":"marketplace","name":"Cosmas","opening_hours":"Mo-Su 09:00-17:00","shop":"convenience"}},
{"type":"Feature","geometry":{"type":"Point","coordinates":[29.0963459,-4.00876]},"properties":{"amenity":"marketplace","name":"Petit marché","source":"MSFsurvey","source:date":"2017-07"}},
{"type":"Feature","geometry":{"type":"Point","coordinates":[29.2118607,-4.1322799]},"properties":{"amenity":"marketplace","fixme":"approximate location","is_in:village":"Some, Kinginga, Kapara, Kalole","name":"Marché de Some","source":"MSFsurvey","source:date":"2017-07"}},
{"type":"Feature","geometry":{"type":"Point","coordinates":[29.2287979,-4.2943382]},"properties":{"amenity":"marketplace","is_in:village":"Mwijombo/Kaza roho","name":"Marché Bijombo","source":"MSFsurvey","source:date":"2017-07"}},
{"type":"Feature","geometry":{"type":"Point","coordinates":[21.6880345,-6.9562024]},"properties":{"amenity":"marketplace"}},
{"type":"Feature","geometry":{"type":"Point","coordinates":[20.965914,-5.3666241]},"properties":{"amenity":"marketplace"}},
{"type":"Feature","geometry":{"type":"Point","coordinates":[15.2584541,-4.3785848]},"properties":{"name":"Sokin","shop":"convenience"}},
{"type":"Feature","geometry":{"type":"Point","coordinates":[29.095678,-4.1063886]},"properties":{"amenity":"marketplace","is_in:village":"Majengo 1","name":"Marché Aebaz","source":"MSFsurvey","source:date":"2017-07"}},
{"type":"Feature","geometry":{"type":"Point","coordinates":[15.2891466,-4.3121502]},"properties":{"check_date":"2023-05-08","name":"Alimentation Jiji","shop":"convenience","wheelchair":"yes"}},
{"type":"Feature","geometry":{"type":"Point","coordinates":[15.2917537,-4.3165687]},"properties":{"addr:city":"Kinshasa","addr:country":"CD","addr:subdistrict":"Linguala","check_date":"2023-05-08","name":"Super Marché Swissmart","payment:coins":"yes","payment:mastercard":"yes","payment:visa":"yes","shop":"supermarket","wheelchair":"yes"}},
{"type":"Feature","geometry":{"type":"Point","coordinates":[15.2971235,-4.3268819]},"properties":{"addr:city":"Kinshasa","addr:country":"CD","addr:subdistrict":"Linguala","check_date":"2023-05-08","name":"Super Marché KinMarché","payment:american_express":"yes","payment:coins":"yes","payment:maestro":"yes","payment:mastercard":"yes","payment:visa":"yes","payment:visa_debit":"no","shop":"supermarket","wheelchair":"yes"}},
{"type":"Feature","geometry":{"type":"Point","coordinates":[15.2835385,-4.3742588]},"properties":{"amenity":"marketplace","name":"Marché Selembao"}},
{"type":"Feature","geometry":{"type":"Point","coordinates":[21.8842418,-5.2480196]},"properties":{"amenity":"marketplace"}},
{"type":"Feature","geometry":{"type":"Point","coordinates":[15.314822,-4.3365718]},"properties":{"name":"Kin marché","opening_hours":"Mo-Su 08:30-22:00","shop":"supermarket"}},
{"type":"Feature","geometry":{"type":"Point","coordinates":[15.2608198,-4.3901701]},"properties":{"addr:suburb":"Ngaliema","name":"Alimentation du Kivu","shop":"supermarket","wheelchair":"yes"}},
{"type":"Feature","geometry":{"type":"Point","coordinates":[12.3769763,-5.9213433]},"properties":{"amenity":"marketplace","name":"marché malongo"}},
{"type":"Feature","geometry":{"type":"Point","coordinates":[15.3310776,-4.3518565]},"properties":{"addr:city":"Kinshasa","addr:street":"Avenue Yolo","addr:subdistrict":"Limete","check_date":"2023-05-13","name":"Kin Marché","payment:cash":"yes","payment:notes":"yes","payment:visa":"yes","shop":"supermarket","wheelchair":"yes"}},
{"type":"Feature","geometry":{"type":"Point","coordinates":[12.3833827,-5.9227149]},"properties":{"name":"Boulangerie Panzu","shop":"bakery"}},
{"type":"Feature","geometry":{"type":"Point","coordinates":[28.8842861,-2.4998304]},"properties":{"addr:city":"Bukavu","addr:street":"Avenue President Mobutu","name":"Mangaza","opening_hours":"Mo-Sa 08:00-18:00","payment:FC":"yes","payment:cash":"yes","shop":"supermarket","wheelchair":"yes"}},
{"type":"Feature","geometry":{"type":"Point","coordinates":[18.2595161,0.0372773]},"properties":{"amenity":"marketplace","name":"Marché Mbandaka III","name:ln":"Wenze ya Mbandaka III","source":"WFP;UrbaCongo","source:date":"2018-05-21"}},
{"type":"Feature","geometry":{"type":"Point","coordinates":[18.1206436,-0.7392325]},"properties":{"amenity":"marketplace","name":"Debonhomme","source":"MSF","source:date":"2018-05-22"}},
{"type":"Feature","geometry":{"type":"Point","coordinates":[18.13261,-0.7306233]},"properties":{"amenity":"marketplace","name":"Marché Central","source":"MSF","source:date":"2018-05-22"}},
{"type":"Feature","geometry":{"type":"Point","coordinates":[18.245514,0.0423643]},"properties":{"addr:street":"Avenue Itela","amenity":"marketplace","name":"Marché de Mbandaka2"}},
{"type":"Feature","geometry":{"type":"Point","coordinates":[18.1332909,-0.7408718]},"properties":{"amenity":"marketplace","name":"Entrée Omongo"}},
{"type":"Feature","geometry":{"type":"Point","coordinates":[18.1218217,-0.7363338]},"properties":{"amenity":"marketplace","name":"Territoire"}},
{"type":"Feature","geometry":{"type":"Point","coordinates":[15.3407362,-4.4100134]},"properties":{"name":"GRD","shop":"bakery"}},
{"type":"Feature","geometry":{"type":"Point","coordinates":[27.48368,-11.6683385]},"properties":{"name":"JAMBO MARKET","shop":"supermarket"}},
{"type":"Feature","geometry":{"type":"Point","coordinates":[15.3321907,-4.4051182]},"properties":{"amenity":"marketplace","name":"Kale"}},
{"type":"Feature","geometry":{"type":"Point","coordinates":[15.3543085,-4.4016593]},"properties":{"name":"La promesse de Dieu","shop":"convenience"}},
{"type":"Feature","geometry":{"type":"Point","coordinates":[15.3520652,-4.3976676]},"properties":{"shop":"convenience"}},
{"type":"Feature","geometry":{"type":"Point","coordinates":[15.3520712,-4.3979236]},"properties":{"name":"Boutique du peuple","shop":"convenience"}},
{"type":"Feature","geometry":{"type":"Point","coordinates":[15.3520887,-4.3980614]},"properties":{"name":"Etoile de Vainqueur","shop":"convenience"}},
{"type":"Feature","geometry":{"type":"Point","coordinates":[15.3522161,-4.3992661]},"properties":{"name":"Boutique Harlem","shop":"convenience"}},
{"type":"Feature","geometry":{"type":"Point","coordinates":[15.3522861,-4.3996689]},"properties":{"name":"Tout Vient de Dieu","shop":"convenience"}},
{"type":"Feature","geometry":{"type":"Point","coordinates":[15.3523855,-4.400962]},"properties":{"name":"Mwema Ni Mwema","shop":"butcher"}},
{"type":"Feature","geometry":{"type":"Point","coordinates":[15.3416884,-4.4044255]},"properties":{"name":"Boulangerie Communautaire la FLeure","shop":"bakery"}},
{"type":"Feature","geometry":{"type":"Point","coordinates":[15.3500747,-4.3978992]},"properties":{"shop":"convenience"}},
{"type":"Feature","geometry":{"type":"Point","coordinates":[15.3501112,-4.3980413]},"properties":{"shop":"convenience"}},
{"type":"Feature","geometry":{"type":"Point","coordinates":[15.3501531,-4.3984919]},"properties":{"shop":"convenience"}},
{"type":"Feature","geometry":{"type":"Point","coordinates":[15.3501632,-4.3985508]},"properties":{"shop":"convenience"}},
{"type":"Feature","geometry":{"type":"Point","coordinates":[15.3501793,-4.3993066]},"properties":{"shop":"convenience"}},
{"type":"Feature","geometry":{"type":"Point","coordinates":[15.3502834,-4.3995862]},"properties":{"shop":"convenience"}},
{"type":"Feature","geometry":{"type":"Point","coordinates":[15.3502289,-4.399685]},"properties":{"shop":"convenience"}},
{"type":"Feature","geometry":{"type":"Point","coordinates":[15.3502577,-4.4000295]},"properties":{"name":"La grace","shop":"convenience"}},
{"type":"Feature","geometry":{"type":"Point","coordinates":[15.3471293,-4.3981566]},"properties":{"shop":"convenience"}},
{"type":"Feature","geometry":{"type":"Point","coordinates":[15.3470448,-4.3982853]},"properties":{"shop":"convenience"}},
{"type":"Feature","geometry":{"type":"Point","coordinates":[15.3470863,-4.3988255]},"properties":{"shop":"convenience"}},
{"type":"Feature","geometry":{"type":"Point","coordinates":[15.355142,-4.4125088]},"properties":{"amenity":"marketplace"}},
{"type":"Feature","geometry":{"type":"Point","coordinates":[15.3527847,-4.4081157]},"properties":{"name":"UDSPHC","shop":"bakery"}},
{"type":"Feature","geometry":{"type":"Point","coordinates":[15.3480627,-4.4115164]},"properties":{"name":"Les Vainquers","shop":"bakery"}},
{"type":"Feature","geometry":{"type":"Point","coordinates":[15.3287494,-4.4225429]},"properties":{"amenity":"marketplace","name":"Babou"}},
{"type":"Feature","geometry":{"type":"Point","coordinates":[15.3266945,-4.4181983]},"properties":{"name":"Bénédiction","shop":"bakery"}},
{"type":"Feature","geometry":{"type":"Point","coordinates":[15.3551217,-4.4124818]},"properties":{"amenity":"marketplace"}},
{"type":"Feature","geometry":{"type":"Point","coordinates":[15.3546911,-4.413163]},"properties":{"shop":"bakery"}},
{"type":"Feature","geometry":{"type":"Point","coordinates":[25.2421625,1.0017967]},"properties":{"amenity":"marketplace"}},
{"type":"Feature","geometry":{"type":"Point","coordinates":[25.3184988,1.5565191]},"properties":{"amenity":"marketplace"}},
{"type":"Feature","geometry":{"type":"Point","coordinates":[25.2717576,1.1055578]},"properties":{"amenity":"marketplace"}},
{"type":"Feature","geometry":{"type":"Point","coordinates":[28.3757759,3.9061377]},"properties":{"amenity":"marketplace"}},
{"type":"Feature","geometry":{"type":"Point","coordinates":[26.0544844,3.645504]},"properties":{"amenity":"marketplace"}},
{"type":"Feature","geometry":{"type":"Point","coordinates":[27.8917024,3.6932067]},"properties":{"amenity":"marketplace"}},
{"type":"Feature","geometry":{"type":"Point","coordinates":[27.3971287,2.7077751]},"properties":{"amenity":"marketplace"}},
{"type":"Feature","geometry":{"type":"Point","coordinates":[20.5216884,2.3743091]},"properties":{"amenity":"marketplace"}},
{"type":"Feature","geometry":{"type":"Point","coordinates":[28.5695165,3.6182336]},"properties":{"amenity":"marketplace","name":"Mwenze","name:de":"Markt","name:fr":"Marché"}},
{"type":"Feature","geometry":{"type":"Point","coordinates":[26.9038226,3.1611629]},"properties":{"amenity":"marketplace"}},
{"type":"Feature","geometry":{"type":"Point","coordinates":[19.2060937,2.7796307]},"properties":{"amenity":"marketplace"}},
{"type":"Feature","geometry":{"type":"Point","coordinates":[19.2057742,2.9247003]},"properties":{"amenity":"marketplace"}},
{"type":"Feature","geometry":{"type":"Point","coordinates":[18.4075112,2.7222697]},"properties":{"amenity":"marketplace"}},
{"type":"Feature","geometry":{"type":"Point","coordinates":[23.4459023,-7.0037236]},"properties":{"amenity":"marketplace"}},
{"type":"Feature","geometry":{"type":"Point","coordinates":[23.3928248,-6.2109682]},"properties":{"amenity":"marketplace"}},
{"type":"Feature","geometry":{"type":"Point","coordinates":[26.7916825,-8.0448321]},"properties":{"amenity":"marketplace","name":"Marché de Malemba-Nkulu","name:fr":"Marché de Malemba-Nkulu"}},
{"type":"Feature","geometry":{"type":"Point","coordinates":[26.92258,-8.2213525]},"properties":{"amenity":"marketplace"}},
{"type":"Feature","geometry":{"type":"Point","coordinates":[27.1226787,-8.0237636]},"properties":{"amenity":"marketplace","name":"Marché de Kyolo","name:fr":"Marché de Kyolo"}},
{"type":"Feature","geometry":{"type":"Point","coordinates":[27.0527976,-8.1088175]},"properties":{"amenity":"marketplace"}},
{"type":"Feature","geometry":{"type":"Point","coordinates":[26.9956163,-7.832256]},"properties":{"amenity":"marketplace","name":"Marché de Mulongo","name:fr":"Marché de Mulongo"}},
{"type":"Feature","geometry":{"type":"Point","coordinates":[27.3995745,-7.3021098]},"properties":{"amenity":"marketplace"}},
{"type":"Feature","geometry":{"type":"Point","coordinates":[28.5569171,3.6075537]},"properties":{"amenity":"marketplace"}},
{"type":"Feature","geometry":{"type":"Point","coordinates":[23.3663728,-2.2820078]},"properties":{"amenity":"marketplace"}},
{"type":"Feature","geometry":{"type":"Point","coordinates":[25.5240789,3.2730176]},"properties":{"amenity":"marketplace"}},
{"type":"Feature","geometry":{"type":"Point","coordinates":[15.3205639,-4.3462821]},"properties":{"addr:city":"Kinshasa","addr:street":"Hôpital","amenity":"marketplace","check_date":"2023-05-13","name":"Wenze Makolo Ngulu (Marché KAUKA)"}},
{"type":"Feature","geometry":{"type":"Point","coordinates":[26.5833826,-0.7435796]},"properties":{"amenity":"marketplace"}},
{"type":"Feature","geometry":{"type":"Point","coordinates":[25.1852998,0.5319292]},"properties":{"amenity":"marketplace"}},
{"type":"Feature","geometry":{"type":"Point","coordinates":[29.7151709,0.0426353]},"properties":{"amenity":"marketplace"}},
{"type":"Feature","geometry":{"type":"Point","coordinates":[27.4836037,2.0956032]},"properties":{"amenity":"marketplace"}},
{"type":"Feature","geometry":{"type":"Point","coordinates":[29.147443,1.0549306]},"properties":{"amenity":"marketplace"}},
{"type":"Feature","geometry":{"type":"Point","coordinates":[29.1920529,0.9773294]},"properties":{"amenity":"marketplace"}},
{"type":"Feature","geometry":{"type":"Point","coordinates":[30.4666867,3.0187397]},"properties":{"amenity":"marketplace"}},
{"type":"Feature","geometry":{"type":"Point","coordinates":[30.3014951,3.0114021]},"properties":{"amenity":"marketplace"}},
{"type":"Feature","geometry":{"type":"Point","coordinates":[28.1473328,2.6013834]},"properties":{"amenity":"marketplace"}},
{"type":"Feature","geometry":{"type":"Point","coordinates":[28.2486494,2.5712308]},"properties":{"amenity":"marketplace"}},
{"type":"Feature","geometry":{"type":"Point","coordinates":[29.700005,3.4629913]},"properties":{"amenity":"marketplace"}},
{"type":"Feature","geometry":{"type":"Point","coordinates":[30.1348603,0.915287]},"properties":{"amenity":"marketplace","source":"MSFsurvey"}},
{"type":"Feature","geometry":{"type":"Point","coordinates":[30.2205482,1.0200895]},"properties":{"amenity":"marketplace","name":"Marché Burasi","source":"MSFsurvey"}},
{"type":"Feature","geometry":{"type":"Point","coordinates":[29.5598406,3.1269461]},"properties":{"amenity":"marketplace"}},
{"type":"Feature","geometry":{"type":"Point","coordinates":[23.2533011,-5.9890074]},"properties":{"amenity":"marketplace","source":"Bing"}},
{"type":"Feature","geometry":{"type":"Point","coordinates":[15.310416,-4.302598]},"properties":{"check_date":"2023-05-06","name":"La cave de Bacchus","shop":"supermarket"}},
{"type":"Feature","geometry":{"type":"Point","coordinates":[29.6224102,0.428613]},"properties":{"amenity":"marketplace"}},
{"type":"Feature","geometry":{"type":"Point","coordinates":[29.42871,0.55423]},"properties":{"amenity":"marketplace"}},
{"type":"Feature","geometry":{"type":"Point","coordinates":[29.46989,0.47104]},"properties":{"amenity":"marketplace","check_date":"2023-04-11"}},
{"type":"Feature","geometry":{"type":"Point","coordinates":[29.40795,0.61047]},"properties":{"Altitude":"994","Latitude":"0.61047","Longitude":"29.40795","amenity":"marketplace","name":"Petit Marche Mapemba"}},
{"type":"Feature","geometry":{"type":"Point","coordinates":[29.46603,0.51963]},"properties":{"amenity":"marketplace","check_date":"2023-04-14"}},
{"type":"Feature","geometry":{"type":"Point","coordinates":[29.474341,0.4932723]},"properties":{"amenity":"marketplace","check_date":"2023-06-06","name":"Kasoko Limanga"}},
{"type":"Feature","geometry":{"type":"Point","coordinates":[29.45772,0.50782]},"properties":{"amenity":"marketplace","name":"Kabalaka"}},
{"type":"Feature","geometry":{"type":"Point","coordinates":[29.45484,0.49913]},"properties":{"amenity":"marketplace","check_date":"2023-04-12"}},
{"type":"Feature","geometry":{"type":"Point","coordinates":[29.4960486,0.5248185]},"properties":{"amenity":"marketplace","check_date":"2023-04-11","name":"Marché Boikene","source":"OSM-RDC","vaccination":"yes"}},
{"type":"Feature","geometry":{"type":"Point","coordinates":[29.4808251,0.5032278]},"properties":{"amenity":"marketplace","check_date":"13/06/2023","name":"Marche De Camping","opening_hours":"Mo-Su,PH 06:00-18:00","source":"OSM RDC"}},
{"type":"Feature","geometry":{"type":"Point","coordinates":[29.4927668,0.523896]},"properties":{"Nom":"Abattoir Publique","check_date":"2023-04-23","shop":"butcher"}},
{"type":"Feature","geometry":{"type":"Point","coordinates":[15.3400952,-4.3335201]},"properties":{"name":"Pain Vimba","shop":"bakery"}},
{"type":"Feature","geometry":{"type":"Point","coordinates":[15.3457077,-4.3330507]},"properties":{"name":"Ami de Tous","shop":"convenience"}},
{"type":"Feature","geometry":{"type":"Point","coordinates":[15.345702,-4.3329371]},"properties":{"name":"Christelle","shop":"convenience"}},
{"type":"Feature","geometry":{"type":"Point","coordinates":[15.341506,-4.3306824]},"properties":{"name":"Pain d'or","shop":"bakery"}},
{"type":"Feature","geometry":{"type":"Point","coordinates":[15.3461958,-4.3312033]},"properties":{"name":"La Jolie","shop":"convenience"}},
{"type":"Feature","geometry":{"type":"Point","coordinates":[15.3411807,-4.3367402]},"properties":{"name":"Pétit Marché de Bois","shop":"convenience"}},
{"type":"Feature","geometry":{"type":"Point","coordinates":[15.3481458,-4.3366854]},"properties":{"shop":"convenience"}},
{"type":"Feature","geometry":{"type":"Point","coordinates":[15.3508669,-4.3391379]},"properties":{"name":"Mwana","shop":"convenience"}},
{"type":"Feature","geometry":{"type":"Point","coordinates":[15.3452658,-4.332131]},"properties":{"shop":"convenience"}},
{"type":"Feature","geometry":{"type":"Point","coordinates":[15.3468032,-4.3382806]},"properties":{"name":"Jurlate","shop":"bakery"}},
{"type":"Feature","geometry":{"type":"Point","coordinates":[15.3455334,-4.3394068]},"properties":{"name":"RAMA","shop":"bakery"}},
{"type":"Feature","geometry":{"type":"Point","coordinates":[15.3452592,-4.3392377]},"properties":{"name":"M P K","shop":"convenience"}},
{"type":"Feature","geometry":{"type":"Point","coordinates":[15.3449586,-4.3307941]},"properties":{"name":"100% Jesus","shop":"convenience"}},
{"type":"Feature","geometry":{"type":"Point","coordinates":[15.3464447,-4.330008]},"properties":{"name":"Marie","shop":"convenience"}},
{"type":"Feature","geometry":{"type":"Point","coordinates":[15.3460771,-4.3302511]},"properties":{"name":"Cadette","shop":"convenience"}},
{"type":"Feature","geometry":{"type":"Point","coordinates":[15.3490685,-4.340383]},"properties":{"name":"Markaf","shop":"convenience"}},
{"type":"Feature","geometry":{"type":"Point","coordinates":[15.34427,-4.3367824]},"properties":{"name":"Chez Bébé Safi","shop":"convenience"}},
{"type":"Feature","geometry":{"type":"Point","coordinates":[15.3439421,-4.3365196]},"properties":{"name":"Tanicha","shop":"convenience","shop:boutique":"yes"}},
{"type":"Feature","geometry":{"type":"Point","coordinates":[15.346463,-4.3299439]},"properties":{"name":"God wil's","shop":"convenience"}},
{"type":"Feature","geometry":{"type":"Point","coordinates":[15.3532809,-4.3448306]},"properties":{"amenity":"marketplace","name":"Songi Songi"}},
{"type":"Feature","geometry":{"type":"Point","coordinates":[15.3523957,-4.3414755]},"properties":{"amenity":"marketplace","name":"Angenga"}},
{"type":"Feature","geometry":{"type":"Point","coordinates":[15.3480549,-4.3366224]},"properties":{"name":"La Grace","shop":"convenience"}},
{"type":"Feature","geometry":{"type":"Point","coordinates":[15.3518147,-4.3409225]},"properties":{"name":"Les Laboureurs","shop":"convenience"}},
{"type":"Feature","geometry":{"type":"Point","coordinates":[15.3509092,-4.3429083]},"properties":{"shop":"convenience"}},
{"type":"Feature","geometry":{"type":"Point","coordinates":[15.3524655,-4.3425948]},"properties":{"name":"Mère supreme","shop":"convenience"}},
{"type":"Feature","geometry":{"type":"Point","coordinates":[15.3528893,-4.3421952]},"properties":{"name":"Dieu est bon","shop":"convenience"}},
{"type":"Feature","geometry":{"type":"Point","coordinates":[15.3521235,-4.3424551]},"properties":{"name":"Elisée","shop":"convenience"}},
{"type":"Feature","geometry":{"type":"Point","coordinates":[15.3516099,-4.3404351]},"properties":{"name":"La mal cachée","shop":"convenience"}},
{"type":"Feature","geometry":{"type":"Point","coordinates":[15.3509474,-4.3429665]},"properties":{"name":"Don de Dieu","shop":"convenience"}},
{"type":"Feature","geometry":{"type":"Point","coordinates":[15.3514624,-4.3430334]},"properties":{"name":"Gauthier","shop":"convenience"}},
{"type":"Feature","geometry":{"type":"Point","coordinates":[15.353002,-4.344392]},"properties":{"name":"La Croyance","shop":"convenience"}},
{"type":"Feature","geometry":{"type":"Point","coordinates":[15.3541258,-4.3436606]},"properties":{"name":"Mon pere avait raison","shop":"convenience"}},
{"type":"Feature","geometry":{"type":"Point","coordinates":[15.3529906,-4.3445003]},"properties":{"name":"Caves","shop":"convenience"}},
{"type":"Feature","geometry":{"type":"Point","coordinates":[15.3467685,-4.3378769]},"properties":{"name":"Beth Elle","shop":"convenience"}},
{"type":"Feature","geometry":{"type":"Point","coordinates":[15.3474243,-4.3379056]},"properties":{"shop":"convenience"}},
{"type":"Feature","geometry":{"type":"Point","coordinates":[29.2426503,-1.6814875]},"properties":{"amenity":"marketplace"}},
{"type":"Feature","geometry":{"type":"Point","coordinates":[15.3480598,-4.336702]},"properties":{"shop":"butcher"}},
{"type":"Feature","geometry":{"type":"Point","coordinates":[29.288325,0.1339226]},"properties":{"check_date":"2023-04-23","is_in:health_level10":"Baye","is_in:health_level8":"Maman Musayi","name":"Super Marché et Salle polyvalente AMI CLIENT","shop":"supermarket","source":"OSM RDC;BCZ;AS"}},
{"type":"Feature","geometry":{"type":"Point","coordinates":[17.370062,-3.3231035]},"properties":{"amenity":"marketplace","name":"Marché Bitula"}},
{"type":"Feature","geometry":{"type":"Point","coordinates":[17.3709887,-3.3175071]},"properties":{"amenity":"marketplace","name":"Marché central de Bandundu"}},
{"type":"Feature","geometry":{"type":"Point","coordinates":[17.3893779,-3.3288231]},"properties":{"amenity":"marketplace","name":"Marché Malebo"}},
{"type":"Feature","geometry":{"type":"Point","coordinates":[17.3901826,-3.3145724]},"properties":{"amenity":"marketplace","name":"Marché Office"}},
{"type":"Feature","geometry":{"type":"Point","coordinates":[17.3786813,-3.3270612]},"properties":{"amenity":"marketplace","name":"Marché Collège"}},
{"type":"Feature","geometry":{"type":"Point","coordinates":[17.3778391,-3.3159621]},"properties":{"name":"Ets. Philguy","shop":"supermarket"}},
{"type":"Feature","geometry":{"type":"Point","coordinates":[17.3823157,-3.300707]},"properties":{"amenity":"marketplace","name":"Marché Ebico"}},
{"type":"Feature","geometry":{"type":"Point","coordinates":[17.3678076,-3.3319774]},"properties":{"amenity":"marketplace","name":"Marché de la gare"}},
{"type":"Feature","geometry":{"type":"Point","coordinates":[17.3810792,-3.316029]},"properties":{"amenity":"marketplace","name":"Marché de la gare"}},
{"type":"Feature","geometry":{"type":"Point","coordinates":[17.379958,-3.3063839]},"properties":{"name":"Boulangerie Excellence","shop":"bakery"}},
{"type":"Feature","geometry":{"type":"Point","coordinates":[17.375748,-3.3004747]},"properties":{"name":"Full Business","shop":"convenience"}},
{"type":"Feature","geometry":{"type":"Point","coordinates":[15.3057736,-4.3232279]},"properties":{"check_date":"2023-05-08","shop":"supermarket"}},
{"type":"Feature","geometry":{"type":"Point","coordinates":[15.3421057,-4.4164138]},"properties":{"addr:city":"Kinshasa","addr:housenumber":"30","addr:street":"Avenue Bumba","building":"yes","building:condition":"poor","building:levels":"1","building:material":"metal","name":"Boulangerie Talamaku","shop":"bakery"}},
{"type":"Feature","geometry":{"type":"Point","coordinates":[15.3530288,-4.4317977]},"properties":{"addr:city":"Kinshasa","addr:street":"Bulungu","building":"yes","building:condition":"average","building:levels":"1","building:material":"brick","fixme":"préciser l'emplacement du bâtiment","is_in:admin_level7":"Kisenso","name":"Boulangerie Christ Vainqueur","office":"yes","shop":"bakery"}},
{"type":"Feature","geometry":{"type":"Point","coordinates":[15.3447441,-4.3984318]},"properties":{"addr:city":"Kinshasa","addr:housenumber":"95","addr:street":"Mamba Kilenda","building":"commercial","building:condition":"poor","building:levels":"1","building:material":"metal","fixme":"Indicate building right position","name":"Boulangerie la Sagesse","shop":"bakery"}},
{"type":"Feature","geometry":{"type":"Point","coordinates":[15.3413646,-4.406946]},"properties":{"addr:city":"Kinshasa","addr:housenumber":"42","addr:street":"Kimbenza","building":"yes","building:condition":"poor","building:levels":"1","building:material":"metal","fixme":"préciser la position réelle de ce batiment","name":"Boulangerie la Grace","shop":"bakery"}},
{"type":"Feature","geometry":{"type":"Point","coordinates":[15.3407311,-4.4170597]},"properties":{"addr:city":"Kinshasa","addr:housenumber":"1","addr:street":"Avenue de l école","building":"yes","building:condition":"average","building:levels":"2","building:material":"brick","name":"Boulangerie Talamaku","shop":"bakery"}},
{"type":"Feature","geometry":{"type":"Point","coordinates":[13.0540196,-5.8501969]},"properties":{"name":"Supermarche Rehoboth","name:en":"Rehoboth Supermarket","shop":"supermarket"}},
{"type":"Feature","geometry":{"type":"Point","coordinates":[30.2489702,1.5529014]},"properties":{"amenity":"marketplace","check_date":"2023-05-24","name":"Marché Monusco"}},
{"type":"Feature","geometry":{"type":"Point","coordinates":[29.2378136,-1.6882679]},"properties":{"amenity":"marketplace","name":"Marché aux fruits et légumes","name:en":"Fruits and Vegetables market"}},
{"type":"Feature","geometry":{"type":"Point","coordinates":[29.2340559,-1.68406]},"properties":{"name":"Charcuterie","shop":"butcher"}},
{"type":"Feature","geometry":{"type":"Point","coordinates":[15.2908498,-4.3140972]},"properties":{"check_date":"2023-05-08","name":"Maison Tecno Djamil","shop":"supermarket"}},
{"type":"Feature","geometry":{"type":"Point","coordinates":[15.2916223,-4.3149531]},"properties":{"name":"Infity tour","shop":"supermarket"}},
{"type":"Feature","geometry":{"type":"Point","coordinates":[29.4484467,-0.023475]},"properties":{"amenity":"marketplace","name":"Marché de Kamiriki"}},
{"type":"Feature","geometry":{"type":"Point","coordinates":[29.45079,-0.0781533]},"properties":{"amenity":"marketplace","name":"Marché de Vurusi"}},
{"type":"Feature","geometry":{"type":"Point","coordinates":[29.4035383,0.0053467]},"properties":{"amenity":"marketplace","name":"Marché Central de Kyondo"}},
{"type":"Feature","geometry":{"type":"Point","coordinates":[23.451068,-7.012584]},"properties":{"amenity":"marketplace","name":"Labodite"}},
{"type":"Feature","geometry":{"type":"Point","coordinates":[23.454296,-7.0314276]},"properties":{"amenity":"marketplace","name":"Maché Koloboyi"}},
{"type":"Feature","geometry":{"type":"Point","coordinates":[15.3100312,-4.3531186]},"properties":{"amenity":"marketplace","name":"Marché Mariano"}},
{"type":"Feature","geometry":{"type":"Point","coordinates":[29.408652,-0.056395]},"properties":{"amenity":"marketplace","name":"MARCHE KAVOHA"}},
{"type":"Feature","geometry":{"type":"Point","coordinates":[29.3862785,-0.1018467]},"properties":{"amenity":"marketplace","name":"MARCHE NGITSE"}},
{"type":"Feature","geometry":{"type":"Point","coordinates":[15.354445,-4.4140409]},"properties":{"addr:city":"kinshasa","addr:housenumber":"1","addr:street":"Bantandu","building":"commercial","building:condition":"poor","building:levels":"1","building:material":"metal","fixme":"indiquez le batiment correspondant","name":"Boulangerie la Charité","shop":"bakery"}},
{"type":"Feature","geometry":{"type":"Point","coordinates":[15.3265285,-4.4182127]},"properties":{"addr:city":"Kinshasa","addr:housenumber":"29","addr:street":"Lukula","building":"yes","building:condition":"poor","building:levels":"1","building:material":"brick","is_in:admin_level7":"Kisenso","is_in:admin_level8":"Libération","name":"Boulangérie Benedicte","shop":"bakery"}},
{"type":"Feature","geometry":{"type":"Point","coordinates":[15.3308435,-4.4233946]},"properties":{"addr:city":"kinshasa","addr:street":"Musamba","building":"yes","building:condition":"poor","building:levels":"1","building:material":"brick","fixme":"Localisation du Bâtiment","name":"Alimentation Lumière","shop":"supermarket"}},
{"type":"Feature","geometry":{"type":"Point","coordinates":[15.3586232,-4.3898345]},"properties":{"addr:city":"Kinshasa","addr:street":"Avenue Lumière","is_in:admin_level7":"Matete","is_in:admin_level8":"Malemba","name":"Ets K.k. : Boutique de mama","shop":"convenience"}},
{"type":"Feature","geometry":{"type":"Point","coordinates":[15.3567016,-4.385117]},"properties":{"addr:city":"Kinshasa","addr:housenumber":"97","addr:street":"Routes des Poids Lourds","building":"commercial","building:condition":"average","building:levels":"1","building:material":"metal","is_in:admin_level7":"Matete","is_in:admin_level8":"Malemba","name":"Maison JMK","shop":"convenience"}},
{"type":"Feature","geometry":{"type":"Point","coordinates":[15.3595334,-4.3874174]},"properties":{"addr:city":"Kinshasa","addr:street":"2ème rue lumière","building":"commercial","building:condition":"average","building:levels":"2","building:material":"brick","name":"Boutique La Sagesse","shop":"convenience"}},
{"type":"Feature","geometry":{"type":"Point","coordinates":[15.3601385,-4.3858734]},"properties":{"addr:city":"Kinshasa","addr:housenumber":"162","addr:street":"avenue 1ère rue","building":"commercial","building:condition":"average","building:levels":"3","building:material":"brick","name":"R S Congo","shop":"convenience"}},
{"type":"Feature","geometry":{"type":"Point","coordinates":[15.3567734,-4.3849359]},"properties":{"addr:city":"Kinshasa","addr:housenumber":"31","addr:street":"Avenue Tolingana","building":"commercial","building:condition":"average","building:levels":"1","building:material":"brick","fixme":"Préciser l'emplacement du bâtiment","is_in:admin_level7":"Matete","is_in:admin_level8":"Malemba","name":"Boutique La Restauration","shop":"convenience"}},
{"type":"Feature","geometry":{"type":"Point","coordinates":[15.358617,-4.3898786]},"properties":{"addr:city":"Kinshasa","addr:street":"Avenue Lumière","is_in:admin_level7":"Matete","is_in:admin_level8":"Malemba","name":"Ets K.k. : Boutique JKM","shop":"convenience"}},
{"type":"Feature","geometry":{"type":"Point","coordinates":[15.3591392,-4.3880662]},"properties":{"addr:city":"Kinshasa","addr:housenumber":"105","addr:street":"2ème Rue lumière","building":"commercial","building:condition":"average","building:levels":"1","building:material":"brick","name":"Boutique Higlons","shop":"convenience"}},
{"type":"Feature","geometry":{"type":"Point","coordinates":[15.3698657,-4.3916312]},"properties":{"addr:city":"Kinshasa","addr:street":"Dianga","building":"commercial","building:condition":"poor","building:levels":"1","building:material":"brick","fixme":"Verify building name and nature","is_in:admin_level7":"N'djili","is_in:admin_level8":"Quartier 8; Ubangi","name":"Place commerciale","shop":"convenience","wall":"no"}},
{"type":"Feature","geometry":{"type":"Point","coordinates":[15.3679525,-4.3892216]},"properties":{"addr:city":"Kinshasa","addr:street":"Direction Masevu","amenity":"marketplace","building":"commercial","building:condition":"poor","building:levels":"1","building:material":"wood","fixme":"Verify market position","is_in:admin_level7":"N'djili","is_in:admin_level8":"Quartier 8; Ubangi","name":"Marché Songisongi","wall":"no"}},
{"type":"Feature","geometry":{"type":"Point","coordinates":[15.3814686,-4.4211502]},"properties":{"addr:city":"Kinshasa","addr:housenumber":"103","addr:street":"Savuvu","building":"yes","building:condition":"average","building:levels":"1","building:material":"brick","fixme":"Precision du batiment","name":"Selipa","shop":"convenience"}},
{"type":"Feature","geometry":{"type":"Point","coordinates":[15.3742075,-4.4124577]},"properties":{"addr:city":"kinshasa","addr:housenumber":"18","addr:street":"Menkao","building":"commercial","building:condition":"average","building:levels":"1","building:material":"brick","fixme":"préciser la position","name":"Boulangerie","shop":"bakery"}},
{"type":"Feature","geometry":{"type":"Point","coordinates":[15.3162364,-4.4097168]},"properties":{"addr:city":"Kinshasa","addr:housenumber":"58","addr:street":"Université","building":"yes","building:condition":"average","building:levels":"1","building:material":"brick","fixme":"Localisation du Dépôt","is_in:admin_level7":"Lemba","is_in:admin_level8":"Livulu","name":"Dépôt Relais Pain Victoire","shop":"bakery"}},
{"type":"Feature","geometry":{"type":"Point","coordinates":[15.3479512,-4.3691674]},"properties":{"addr:city":"Kinshasa","addr:street":"16ème Rue Industriel","addr:ward":"industriel","building":"commercial","building:condition":"average","building:levels":"1","building:material":"brick","cuisine":"regional","is_in:admin_level7":"Limete","is_in:admin_level8":"Industriel","man_made":"oui","name":"Plazza","shop":"supermarket","tourism":"attraction"}},
{"type":"Feature","geometry":{"type":"Point","coordinates":[15.3179103,-4.4112787]},"properties":{"addr:city":"Kinshasa","addr:street":"Kinal","building":"yes","building:condition":"average","building:material":"metal","building:min_level":"1","fixme":"Localisation du shop","is_in:admin_level7":"Lemba","is_in:admin_level8":"Livulu","name":"Bénédiction","shop":"convenience"}},
{"type":"Feature","geometry":{"type":"Point","coordinates":[15.3728825,-4.4074274]},"properties":{"addr:city":"Kinshasa","addr:street":"Mama Mobutu","building":"mixed","building:condition":"poor","building:levels":"1","building:material":"metal","fixme":"vérifier le nom et l'emplacement","shop":"bakery","wall":"yes"}},
{"type":"Feature","geometry":{"type":"Point","coordinates":[15.3725593,-4.4081815]},"properties":{"addr:city":"Kinshasa","addr:street":"Nguma","building":"mixed","building:condition":"average","building:levels":"1","building:material":"cement_block","fixme":"vérifier l'emplacemen du batiment","name":"Boulangerie Alpha","shop":"bakery","wall":"no"}},
{"type":"Feature","geometry":{"type":"Point","coordinates":[15.3540884,-4.3999602]},"properties":{"addr:city":"Kinshasa","addr:housenumber":"1","addr:street":"Sasa","building":"yes","building:condition":"average","building:levels":"1","building:material":"brick","is_in:admin_level7":"Kisenso","name":"Jev Business","shop":"convenience"}},
{"type":"Feature","geometry":{"type":"Point","coordinates":[15.3802686,-4.3968277]},"properties":{"addr:city":"Kinshasa","addr:housenumber":"1","addr:street":"Akuta","amenity":"bar","building":"commercial","building:condition":"poor","building:levels":"1","building:material":"brick","fixme":"Verify building position","is_in:admin_level7":"N'djili","is_in:admin_level8":"Quartier 2; Bilombe","name":"Place commerciale","shop":"convenience","wall":"no"}},
{"type":"Feature","geometry":{"type":"Point","coordinates":[15.3757281,-4.3939679]},"properties":{"addr:city":"Kinshasa","addr:housenumber":"9","addr:street":"Nsonapangu","amenity":"bar","building":"yes","building:condition":"average","building:levels":"1","building:material":"brick","fixme":"Verify building complete name and position","is_in:admin_level7":"N'djili","name":"Bar at Hôtel Ndombe","shop":"convenience","wall":"no"}},
{"type":"Feature","geometry":{"type":"Point","coordinates":[15.3162188,-4.4089758]},"properties":{"addr:city":"Kinshasa","addr:housenumber":"50","addr:street":"Université","building":"yes","building:condition":"average","building:material":"brick","building:min_level":"1","is_in:admin_level7":"Lemba","is_in:admin_level8":"Livulu","name":"Maison Kimpa Vita","shop":"convenience"}},
{"type":"Feature","geometry":{"type":"Point","coordinates":[15.3163073,-4.4115927]},"properties":{"addr:city":"Kinshasa","addr:housenumber":"67","addr:street":"Université","addr:ward":"livulu","name":"La Main de Dieu","shop":"convenience"}},
{"type":"Feature","geometry":{"type":"Point","coordinates":[15.3831983,-4.3935237]},"properties":{"addr:city":"Kinshasa","addr:housenumber":"16","addr:street":"Dibaya","building":"yes","building:condition":"good","building:levels":"1","building:material":"brick","fixme":"Verify building position","is_in:admin_level7":"N'djili","is_in:admin_level8":"Quartier 1; Bandunduu","name":"Boulangerie Hassan","shop":"bakery","wall":"yes"}},
{"type":"Feature","geometry":{"type":"Point","coordinates":[15.3818604,-4.3944528]},"properties":{"addr:city":"Kinshasa","addr:street":"Africain","amenity":"marketplace","building":"commercial","fixme":"Verify building name and amenity","is_in:admin_level7":"N'djili","is_in:admin_level8":"Quartier 1; Bandundu","name":"Le Marché de Bois","office":"yes"}},
{"type":"Feature","geometry":{"type":"Point","coordinates":[15.3518043,-4.3953456]},"properties":{"addr:city":"Kinshasa","addr:street":"Lokele 5ème Rue","addr:ward":"dondo","shop":"convenience"}},
{"type":"Feature","geometry":{"type":"Point","coordinates":[15.3478823,-4.3812379]},"properties":{"addr:city":"Kinshasa","addr:housenumber":"2","addr:street":"Banunu 2","amenity":"pub","fixme":"Verify building name, nature, amenity and position","name":"Supermarché","shop":"supermarket"}},
{"type":"Feature","geometry":{"type":"Point","coordinates":[15.3186342,-4.4048837]},"properties":{"addr:city":"Kinshasa","addr:street":"Popo","building":"yes","building:condition":"average","building:levels":"1","building:material":"brick","fixme":"Préciser emplacement du bâtiment","name":"Raph ka","shop":"convenience"}},
{"type":"Feature","geometry":{"type":"Point","coordinates":[15.3194475,-4.4069594]},"properties":{"addr:city":"Kinshasa","addr:street":"Kwilu","building":"yes","building:condition":"average","building:levels":"1","building:material":"brick","name":"Masaka","shop":"convenience"}},
{"type":"Feature","geometry":{"type":"Point","coordinates":[15.3190393,-4.4049664]},"properties":{"addr:city":"Kinshasa","addr:municipality":"Lemba","addr:street":"Kasai","addr:ward":"Livulu","fixme":"Préciser emplacement du bâtiment","name":"Maison Gradi","shop":"convenience"}},
{"type":"Feature","geometry":{"type":"Point","coordinates":[15.3177965,-4.404888]},"properties":{"addr:city":"Kinshasa","addr:municipality":"lemba","addr:street":"Mwana Wuta","addr:ward":"livulu","name":"Boutique chancel","shop":"convenience"}},
{"type":"Feature","geometry":{"type":"Point","coordinates":[15.3195787,-4.4068356]},"properties":{"addr:city":"Kinshasa","addr:street":"Kwilu","building":"yes","building:condition":"average","building:levels":"1","building:material":"brick","name":"Souzy Business","shop":"convenience"}},
{"type":"Feature","geometry":{"type":"Point","coordinates":[15.3178205,-4.4043392]},"properties":{"addr:city":"Kinshasa","addr:street":"Mwana Wuta","building":"yes","building:condition":"average","building:levels":"1","building:material":"metal","name":"Jésus sauve","shop":"convenience"}},
{"type":"Feature","geometry":{"type":"Point","coordinates":[15.3189716,-4.407208]},"properties":{"addr:city":"Kinshasa","addr:housenumber":"49","addr:street":"Oasis","building":"yes","building:condition":"average","building:levels":"1","building:material":"brick","name":"Les frères Nkenko","shop":"bakery"}},
{"type":"Feature","geometry":{"type":"Point","coordinates":[15.3175976,-4.4066113]},"properties":{"addr:city":"Kinshasa","addr:housenumber":"22","addr:street":"Mwana Wuta","building":"yes","building:condition":"average","building:levels":"1","building:material":"brick","name":"Tout est grâce","shop":"convenience"}},
{"type":"Feature","geometry":{"type":"Point","coordinates":[15.3194904,-4.4067035]},"properties":{"addr:city":"Kinshasa","addr:street":"Kwilu","building":"yes","building:condition":"average","building:levels":"1","building:material":"brick","fixme":"The name","shop":"convenience"}},
{"type":"Feature","geometry":{"type":"Point","coordinates":[15.3194714,-4.405111]},"properties":{"addr:city":"Kinshasa","addr:municipality":"Lemba","addr:street":"Kwilu","addr:ward":"Livulu","fixme":"Préciser emplacement du bâtiment","name":"Mère FUMU","shop":"convenience"}},
{"type":"Feature","geometry":{"type":"Point","coordinates":[15.3177264,-4.4068182]},"properties":{"addr:city":"Kinshasa","addr:street":"Mwana Wuta","name":"Deux jeux","shop":"convenience"}},
{"type":"Feature","geometry":{"type":"Point","coordinates":[15.3489214,-4.3953468]},"properties":{"addr:city":"Kinshasa","addr:street":"Mpudi","addr:ward":"Dondo","building":"yes","name":"La Main de Dieu","shop":"butcher"}},
{"type":"Feature","geometry":{"type":"Point","coordinates":[15.3772706,-4.3777584]},