{"type":"FeatureCollection","features":[
{"type":"Feature","geometry":{"type":"Point","coordinates":[11.8612655,-4.7911543]},"properties":{"amenity":"fuel","brand":"Total","brand:wikidata":"Q154037","fuel:1_25":"no","fuel:1_50":"no","fuel:GTL_diesel":"no","fuel:HGV_diesel":"no","fuel:biodiesel":"no","fuel:biogas":"no","fuel:cng":"no","fuel:diesel":"yes","fuel:electricity":"no","fuel:lpg":"no","fuel:octane_100":"no","name":"Total","operator":"Total","shop":"convenience"}},
{"type":"Feature","geometry":{"type":"Point","coordinates":[11.8646237,-4.7548761]},"properties":{"amenity":"marketplace","name":"Marché Faubourg"}},
{"type":"Feature","geometry":{"type":"Point","coordinates":[11.8595208,-4.7550536]},"properties":{"name":"Epicerie Ets N Mandela","shop":"convenience"}},
{"type":"Feature","geometry":{"type":"Point","coordinates":[11.8648072,-4.7872036]},"properties":{"name":"Supermarché Régal","operator":"Sté Régal","shop":"supermarket"}},
{"type":"Feature","geometry":{"type":"Point","coordinates":[11.8669782,-4.7859156]},"properties":{"amenity":"marketplace","name":"Grand Marché"}},
{"type":"Feature","geometry":{"type":"Point","coordinates":[11.8598642,-4.7539952]},"properties":{"name":"Magasin d'alimentation générale, épicerie, droguerie","shop":"convenience"}},
{"type":"Feature","geometry":{"type":"Point","coordinates":[15.2824508,-4.2762752]},"properties":{"name":"Asia","shop":"supermarket"}},
{"type":"Feature","geometry":{"type":"Point","coordinates":[15.2504677,-4.288987]},"properties":{"amenity":"marketplace","name":"Marché Total"}},
{"type":"Feature","geometry":{"type":"Point","coordinates":[15.2868298,-4.2727735]},"properties":{"name":"Park n'Shop","shop":"supermarket"}},
{"type":"Feature","geometry":{"type":"Point","coordinates":[15.2833791,-4.2743066]},"properties":{"amenity":"marketplace","name":"Marché de la Plaine"}},
{"type":"Feature","geometry":{"type":"Point","coordinates":[15.268944,-4.2813498]},"properties":{"amenity":"marketplace","name":"工艺品市场Marché Touristique du Plateau"}},
{"type":"Feature","geometry":{"type":"Point","coordinates":[11.9048783,-4.8107276]},"properties":{"name":"Agape","shop":"supermarket"}},
{"type":"Feature","geometry":{"type":"Point","coordinates":[11.8639588,-4.7333589]},"properties":{"name":"Boulangerie Benove de Siafoumou","shop":"bakery"}},
{"type":"Feature","geometry":{"type":"Point","coordinates":[11.8807116,-4.8310623]},"properties":{"name":"Boulangerie le Moulin","shop":"bakery"}},
{"type":"Feature","geometry":{"type":"Point","coordinates":[11.6986868,-4.128468]},"properties":{"name":"Boulangerie","shop":"bakery"}},
{"type":"Feature","geometry":{"type":"Point","coordinates":[14.6278585,-4.7830992]},"properties":{"name":"Epicerie Boko","shop":"convenience"}},
{"type":"Feature","geometry":{"type":"Point","coordinates":[11.8424114,-4.7990962]},"properties":{"name":"GYF","shop":"bakery"}},
{"type":"Feature","geometry":{"type":"Point","coordinates":[11.844087,-4.799762]},"properties":{"amenity":"cafe","name":"La Citronelle","shop":"bakery"}},
{"type":"Feature","geometry":{"type":"Point","coordinates":[15.2779569,-4.2777154]},"properties":{"name":"La Mandarine","shop":"bakery"}},
{"type":"Feature","geometry":{"type":"Point","coordinates":[11.8401575,-4.794957]},"properties":{"name":"Le Cercle civil","shop":"butcher"}},
{"type":"Feature","geometry":{"type":"Point","coordinates":[11.891088,-4.7983506]},"properties":{"amenity":"marketplace","name":"Marché Savon"}},
{"type":"Feature","geometry":{"type":"Point","coordinates":[11.9036005,-4.7505633]},"properties":{"amenity":"marketplace","name":"Marché Terminus de Mokamba"}},
{"type":"Feature","geometry":{"type":"Point","coordinates":[12.2484264,-4.4822597]},"properties":{"amenity":"marketplace","name":"Marché de Bilinga"}},
{"type":"Feature","geometry":{"type":"Point","coordinates":[11.8492384,-4.6271228]},"properties":{"amenity":"marketplace","name":"Marché de Diosso"}},
{"type":"Feature","geometry":{"type":"Point","coordinates":[12.0390038,-4.6145907]},"properties":{"amenity":"marketplace","name":"Marché de Hinda"}},
{"type":"Feature","geometry":{"type":"Point","coordinates":[12.0612407,-4.1334251]},"properties":{"amenity":"marketplace","name":"Marché de Kakamoeka"}},
{"type":"Feature","geometry":{"type":"Point","coordinates":[11.6643711,-4.2687543]},"properties":{"amenity":"marketplace","name":"Marché de Kilunga"}},
{"type":"Feature","geometry":{"type":"Point","coordinates":[12.3619781,-4.3565473]},"properties":{"amenity":"marketplace","name":"Marché de Les Saras"}},
{"type":"Feature","geometry":{"type":"Point","coordinates":[11.8646232,-4.7547972]},"properties":{"amenity":"marketplace","name":"Marché de Loandjili"}},
{"type":"Feature","geometry":{"type":"Point","coordinates":[12.1423214,-4.372735]},"properties":{"amenity":"marketplace","name":"Marché de Louvoulou"}},
{"type":"Feature","geometry":{"type":"Point","coordinates":[12.6055766,-3.4864127]},"properties":{"amenity":"marketplace","name":"Marché de Makabana"}},
{"type":"Feature","geometry":{"type":"Point","coordinates":[11.7260961,-4.0283748]},"properties":{"amenity":"marketplace","name":"Marché de Nkola"}},
{"type":"Feature","geometry":{"type":"Point","coordinates":[12.1477925,-4.5398276]},"properties":{"amenity":"marketplace","name":"Marché de Tchitondi"}},
{"type":"Feature","geometry":{"type":"Point","coordinates":[11.8668286,-4.7859432]},"properties":{"amenity":"marketplace","name":"Marché de la cité"}},
{"type":"Feature","geometry":{"type":"Point","coordinates":[11.8971407,-4.8042475]},"properties":{"alt_name":"Marché Gare de Tié Tié","amenity":"marketplace","name":"Marché de la liberté"}},
{"type":"Feature","geometry":{"type":"Point","coordinates":[11.8929255,-4.7631675]},"properties":{"name":"Patisserie Denisia","shop":"bakery"}},
{"type":"Feature","geometry":{"type":"Point","coordinates":[11.8666258,-4.7860522]},"properties":{"name":"Poulets vivants","shop":"butcher"}},
{"type":"Feature","geometry":{"type":"Point","coordinates":[12.6719751,-4.1990588]},"properties":{"long_name":"Societe Africaine de Boulangerie","name":"SAB","shop":"bakery","source_date":"2013","source_type":"GPS"}},
{"type":"Feature","geometry":{"type":"Point","coordinates":[11.8607066,-4.7916454]},"properties":{"name":"Supermarché Cité royale","shop":"supermarket"}},
{"type":"Feature","geometry":{"type":"Point","coordinates":[11.8664317,-4.7858134]},"properties":{"name":"Viande de Brousse","shop":"butcher"}},
{"type":"Feature","geometry":{"type":"Point","coordinates":[11.8641814,-4.7328116]},"properties":{"amenity":"marketplace"}},
{"type":"Feature","geometry":{"type":"Point","coordinates":[11.8622199,-4.7427689]},"properties":{"shop":"bakery"}},
{"type":"Feature","geometry":{"type":"Point","coordinates":[11.8941267,-4.7622028]},"properties":{"shop":"bakery"}},
{"type":"Feature","geometry":{"type":"Point","coordinates":[11.8846382,-4.764519]},"properties":{"amenity":"marketplace"}},
{"type":"Feature","geometry":{"type":"Point","coordinates":[11.9213852,-4.8626616]},"properties":{"amenity":"marketplace"}},
{"type":"Feature","geometry":{"type":"Point","coordinates":[15.2886576,-4.271426]},"properties":{"name":"Park'n Shop","shop":"supermarket"}},
{"type":"Feature","geometry":{"type":"Point","coordinates":[15.2890334,-4.2718195]},"properties":{"shop":"bakery"}},
{"type":"Feature","geometry":{"type":"Point","coordinates":[15.2853774,-4.2739865]},"properties":{"shop":"bakery"}},
{"type":"Feature","geometry":{"type":"Point","coordinates":[15.2775837,-4.27755]},"properties":{"name":"La Mie Dorée","shop":"bakery"}},
{"type":"Feature","geometry":{"type":"Point","coordinates":[15.2776244,-4.2776149]},"properties":{"name":"Byblos","shop":"supermarket"}},
{"type":"Feature","geometry":{"type":"Point","coordinates":[15.2835356,-4.2737391]},"properties":{"shop":"supermarket"}},
{"type":"Feature","geometry":{"type":"Point","coordinates":[15.2686445,-4.2812653]},"properties":{"amenity":"marketplace","name":"Marché Plateau Ville","name:zh":"工艺品市场"}},
{"type":"Feature","geometry":{"type":"Point","coordinates":[15.2789622,-4.2583344]},"properties":{"amenity":"marketplace","name":"Marché Moungali"}},
{"type":"Feature","geometry":{"type":"Point","coordinates":[15.2862126,-4.2631421]},"properties":{"amenity":"marketplace","name":"Marché Poto-Poto"}},
{"type":"Feature","geometry":{"type":"Point","coordinates":[15.2654388,-4.2600391]},"properties":{"amenity":"marketplace","name":"Marché Plateau des 15 ans"}},
{"type":"Feature","geometry":{"type":"Point","coordinates":[11.8606452,-4.7917198]},"properties":{"name":"La Cité","shop":"bakery"}},
{"type":"Feature","geometry":{"type":"Point","coordinates":[11.8540607,-4.7974184]},"properties":{"amenity":"nightclub","name":"MB;Boulangerie Patisserie L'Orchidée","opening_hours":"22:00-05:00; 07:00-22:00","shop":"bakery","smoking":"yes"}},
{"type":"Feature","geometry":{"type":"Point","coordinates":[11.8724995,-4.7621308]},"properties":{"name":"Boulangerie Moulin Roouge 2","shop":"bakery"}},
{"type":"Feature","geometry":{"type":"Point","coordinates":[11.872,-4.7633254]},"properties":{"name":"Boulangerie","shop":"bakery"}},
{"type":"Feature","geometry":{"type":"Point","coordinates":[11.8641816,-4.7316736]},"properties":{"addr:postcode":"242","email":"panierdelamenegere242@gmail.com","internet_access":"wlan","name":"Panier de la Ménagère","opening_hours":"Mo-Su 07:00-22:00","operator":"Airtel","phone":"044605445","shop":"convenience","website":"http://www.facebook.com/panierdelamenagere"}},
{"type":"Feature","geometry":{"type":"Point","coordinates":[12.6851581,-4.2135296]},"properties":{"name":"Marché du lundi","shop":"supermarket"}},
{"type":"Feature","geometry":{"type":"Point","coordinates":[12.5640374,-4.1999128]},"properties":{"name":"Marché Les Bandas","shop":"supermarket"}},
{"type":"Feature","geometry":{"type":"Point","coordinates":[15.2652283,-4.2594211]},"properties":{"name":"Boulangerie","shop":"bakery"}},
{"type":"Feature","geometry":{"type":"Point","coordinates":[15.2823538,-4.2770018]},"properties":{"name":"Géant Casino","shop":"supermarket"}},
{"type":"Feature","geometry":{"type":"Point","coordinates":[15.2652367,-4.25956]},"properties":{"name":"Boulangerie les délices de Brazza","shop":"bakery"}},
{"type":"Feature","geometry":{"type":"Point","coordinates":[11.8972648,-4.8418519]},"properties":{"name":"La Manne","shop":"bakery"}},
{"type":"Feature","geometry":{"type":"Point","coordinates":[15.2783983,-4.2504025]},"properties":{"name:zh":"鱼缸店 金鱼","shop":"convenience"}},
{"type":"Feature","geometry":{"type":"Point","coordinates":[15.2779514,-4.2508104]},"properties":{"name:zh":"玻璃鱼缸","shop":"convenience"}},
{"type":"Feature","geometry":{"type":"Point","coordinates":[15.2700853,-4.2796566]},"properties":{"name:zh":"保安公司","shop":"convenience"}},
{"type":"Feature","geometry":{"type":"Point","coordinates":[11.8569493,-4.8128501]},"properties":{"description":"supermarché en ligne","email":"contact@ka-bien.com","name":"ka-bien","operator":"ets ka-bien","shop":"supermarket"}},
{"type":"Feature","geometry":{"type":"Point","coordinates":[11.9069194,-4.8164786]},"properties":{"name":"Marché de Mpaka","name:en":"Mpaka's Market","name:fr":"Marché de Mpaka","shop":"supermarket"}},
{"type":"Feature","geometry":{"type":"Point","coordinates":[15.2759205,-4.2733337]},"properties":{"name":"Ets Iriji","shop":"convenience"}},
{"type":"Feature","geometry":{"type":"Point","coordinates":[15.2390405,-4.2811608]},"properties":{"name":"Boulangerie du Chateau d'eau","name:fr":"Boulangerie du Chateau d'eau","shop":"bakery"}},
{"type":"Feature","geometry":{"type":"Point","coordinates":[11.8999437,-4.7522705]},"properties":{"name":"B13 shop","name:fr":"B13 shop","phone":"066821778","shop":"convenience"}},
{"type":"Feature","geometry":{"type":"Point","coordinates":[11.8990003,-4.7914586]},"properties":{"name":"À","name:fr":"Marché de Voungou","shop":"supermarket"}},
{"type":"Feature","geometry":{"type":"Point","coordinates":[12.6715162,-4.2003818]},"properties":{"name":"Park'n'Shop","shop":"supermarket"}},
{"type":"Feature","geometry":{"type":"Point","coordinates":[11.8848936,-4.7646873]},"properties":{"name":"Le marché de kouikou","name:en":"Market of kouikou","name:fr":"Le marché de kouikou","shop":"supermarket"}},
{"type":"Feature","geometry":{"type":"Point","coordinates":[11.9029075,-4.794216]},"properties":{"name":"Marché de Voungou","name:en":"Voungou market","shop":"supermarket"}},
{"type":"Feature","geometry":{"type":"Point","coordinates":[11.8857175,-4.7652363]},"properties":{"name":"Le dépôt de manioc de nelly","name:fr":"Le dépôt de manioc de nelly","shop":"convenience"}},
{"type":"Feature","geometry":{"type":"Point","coordinates":[11.8644194,-4.7866449]},"properties":{"name":"Sundeep2","name:fr":"Sundeep2","shop":"butcher"}},
{"type":"Feature","geometry":{"type":"Point","coordinates":[11.8632658,-4.7895721]},"properties":{"name":"Sundeep","name:fr":"Sundeep","shop":"butcher"}},
{"type":"Feature","geometry":{"type":"Point","coordinates":[12.6856671,-4.2301825]},"properties":{"amenity":"marketplace","name":"Marché de Mpassi-Ngolo"}},
{"type":"Feature","geometry":{"type":"Point","coordinates":[12.6864988,-4.2111162]},"properties":{"amenity":"marketplace","name":"Marché Mboukou"}},
{"type":"Feature","geometry":{"type":"Point","coordinates":[18.5174446,3.0630228]},"properties":{"amenity":"marketplace","name":"Marché Ca Mètre"}},
{"type":"Feature","geometry":{"type":"Point","coordinates":[18.5175759,3.0575423]},"properties":{"addr:city":"Betou","addr:street":"Grande Avenue","amenity":"marketplace","name":"Grand Marche de Betou"}},
{"type":"Feature","geometry":{"type":"Point","coordinates":[15.2848747,-4.2449731]},"properties":{"name":"Asia","shop":"supermarket"}},
{"type":"Feature","geometry":{"type":"Point","coordinates":[15.2917517,-4.2467669]},"properties":{"shop":"convenience"}},
{"type":"Feature","geometry":{"type":"Point","coordinates":[15.2883681,-4.2490328]},"properties":{"shop":"convenience"}},
{"type":"Feature","geometry":{"type":"Point","coordinates":[15.2937311,-4.2136204]},"properties":{"shop":"convenience"}},
{"type":"Feature","geometry":{"type":"Point","coordinates":[15.2938816,-4.2471499]},"properties":{"addr:street":"Rue Makoko","shop":"convenience"}},
{"type":"Feature","geometry":{"type":"Point","coordinates":[15.2906083,-4.2483268]},"properties":{"shop":"convenience"}},
{"type":"Feature","geometry":{"type":"Point","coordinates":[15.2896533,-4.248502]},"properties":{"addr:street":"Rue Louingui","shop":"convenience"}},
{"type":"Feature","geometry":{"type":"Point","coordinates":[15.2888537,-4.2466968]},"properties":{"shop":"convenience"}},
{"type":"Feature","geometry":{"type":"Point","coordinates":[15.2798776,-4.2323414]},"properties":{"shop":"bakery"}},
{"type":"Feature","geometry":{"type":"Point","coordinates":[15.2878983,-4.2419358]},"properties":{"shop":"convenience"}},
{"type":"Feature","geometry":{"type":"Point","coordinates":[15.2882105,-4.2424379]},"properties":{"shop":"convenience"}},
{"type":"Feature","geometry":{"type":"Point","coordinates":[11.8780201,-4.8279316]},"properties":{"name":"Super marché arrêt colonel","shop":"supermarket"}},
{"type":"Feature","geometry":{"type":"Point","coordinates":[15.2596132,-4.159901]},"properties":{"name":"Boulangerie des rêves","shop":"bakery"}},
{"type":"Feature","geometry":{"type":"Point","coordinates":[15.2937461,-4.2545915]},"properties":{"name:zh":"中国城","shop":"convenience"}},
{"type":"Feature","geometry":{"type":"Point","coordinates":[11.8478416,-4.8108848]},"properties":{"name":"Supermarche Yahya","shop":"supermarket"}},
{"type":"Feature","geometry":{"type":"Point","coordinates":[15.2506364,-4.2863681]},"properties":{"name":"Genin","shop":"butcher"}},
{"type":"Feature","geometry":{"type":"Point","coordinates":[11.8678666,-4.7758698]},"properties":{"name":"Semeuse","shop":"bakery"}},
{"type":"Feature","geometry":{"type":"Point","coordinates":[15.251418,-4.2654432]},"properties":{"name:zh":"阿清超市","shop":"convenience"}},
{"type":"Feature","geometry":{"type":"Point","coordinates":[11.9281637,-4.7240047]},"properties":{"name":"Coco pain & soco vin","shop":"bakery"}},
{"type":"Feature","geometry":{"type":"Point","coordinates":[11.8678998,-4.7458429]},"properties":{"amenity":"marketplace","description":"Marché de Tchiali","name":"Marché de Tchiali"}},
{"type":"Feature","geometry":{"type":"Point","coordinates":[11.8601395,-4.8106]},"properties":{"name":"Super Marché","shop":"convenience"}},
{"type":"Feature","geometry":{"type":"Point","coordinates":[11.8621974,-4.8096373]},"properties":{"amenity":"marketplace","name":"Marché de Mpita"}},
{"type":"Feature","geometry":{"type":"Point","coordinates":[11.8718888,-4.7984919]},"properties":{"name":"Boulangerie bon choix","shop":"bakery"}},
{"type":"Feature","geometry":{"type":"Point","coordinates":[11.8610104,-4.796826]},"properties":{"amenity":"office","name":"Taman industries limited","shop":"convenience"}},
{"type":"Feature","geometry":{"type":"Point","coordinates":[11.8601168,-4.796886]},"properties":{"name":"Mini marche","shop":"convenience"}},
{"type":"Feature","geometry":{"type":"Point","coordinates":[11.8601036,-4.7967072]},"properties":{"amenity":"office","name":"Scpfe","shop":"convenience"}},
{"type":"Feature","geometry":{"type":"Point","coordinates":[11.8596831,-4.7950554]},"properties":{"amenity":"office","name":"Ets brillant aluminium","shop":"convenience"}},
{"type":"Feature","geometry":{"type":"Point","coordinates":[11.8595643,-4.7943032]},"properties":{"amenity":"office","name":"Acs","shop":"convenience"}},
{"type":"Feature","geometry":{"type":"Point","coordinates":[11.8603265,-4.7941238]},"properties":{"amenity":"office","name":"Sctk","shop":"convenience"}},
{"type":"Feature","geometry":{"type":"Point","coordinates":[11.8594929,-4.7940461]},"properties":{"name":"Vodacom","shop":"convenience"}},
{"type":"Feature","geometry":{"type":"Point","coordinates":[11.8479026,-4.7976915]},"properties":{"name":"Fred Boutique","shop":"convenience"}},
{"type":"Feature","geometry":{"type":"Point","coordinates":[11.8483664,-4.7984829]},"properties":{"name":"Gueye","shop":"convenience"}},
{"type":"Feature","geometry":{"type":"Point","coordinates":[11.8472662,-4.7984373]},"properties":{"name":"Ets TISIRE","shop":"convenience"}},
{"type":"Feature","geometry":{"type":"Point","coordinates":[11.8607639,-4.7912883]},"properties":{"name":"Boulangerie bonne chance","shop":"bakery"}},
{"type":"Feature","geometry":{"type":"Point","coordinates":[11.8607999,-4.7912775]},"properties":{"name":"Supermarche said","shop":"supermarket"}},
{"type":"Feature","geometry":{"type":"Point","coordinates":[11.8607175,-4.7913444]},"properties":{"name":"Ragec congo","shop":"convenience"}},
{"type":"Feature","geometry":{"type":"Point","coordinates":[11.8607332,-4.7913019]},"properties":{"name":"Glacerie","shop":"convenience"}},
{"type":"Feature","geometry":{"type":"Point","coordinates":[11.8614761,-4.7921976]},"properties":{"amenity":"restaurant","name":"Jaipur","shop":"convenience"}},
{"type":"Feature","geometry":{"type":"Point","coordinates":[11.8608647,-4.791469]},"properties":{"amenity":"office","name":"Batilux","shop":"convenience"}},
{"type":"Feature","geometry":{"type":"Point","coordinates":[11.8613276,-4.7915397]},"properties":{"name":"Societe regal","shop":"convenience"}},
{"type":"Feature","geometry":{"type":"Point","coordinates":[11.8614147,-4.7914405]},"properties":{"name":"Ste regal","shop":"convenience"}},
{"type":"Feature","geometry":{"type":"Point","coordinates":[11.8616768,-4.7924292]},"properties":{"name":"Entrepot regal","shop":"convenience"}},
{"type":"Feature","geometry":{"type":"Point","coordinates":[11.8612951,-4.7916298]},"properties":{"name":"Ets clemente","shop":"convenience"}},
{"type":"Feature","geometry":{"type":"Point","coordinates":[11.8617204,-4.7910772]},"properties":{"name":"Bimath diffusion","shop":"convenience"}},
{"type":"Feature","geometry":{"type":"Point","coordinates":[11.8617385,-4.7910672]},"properties":{"name":"Depot ragec","shop":"convenience"}},
{"type":"Feature","geometry":{"type":"Point","coordinates":[11.861517,-4.7913084]},"properties":{"name":"Devina sarl","shop":"convenience"}},
{"type":"Feature","geometry":{"type":"Point","coordinates":[11.8616674,-4.791165]},"properties":{"name":"Devina sarl","shop":"convenience"}},
{"type":"Feature","geometry":{"type":"Point","coordinates":[11.8603906,-4.7924174]},"properties":{"amenity":"office","name":"Lumeta luna","shop":"convenience"}},
{"type":"Feature","geometry":{"type":"Point","coordinates":[11.8605169,-4.7922899]},"properties":{"amenity":"office","name":"Celec","shop":"convenience"}},
{"type":"Feature","geometry":{"type":"Point","coordinates":[11.8606002,-4.7922696]},"properties":{"amenity":"office","name":"Burotop iris","shop":"convenience"}},
{"type":"Feature","geometry":{"type":"Point","coordinates":[11.8636987,-4.7893126]},"properties":{"amenity":"restaurant","name":"La mie doree","shop":"convenience"}},
{"type":"Feature","geometry":{"type":"Point","coordinates":[11.8636708,-4.7893327]},"properties":{"amenity":"office","name":"Ivoire","shop":"convenience"}},
{"type":"Feature","geometry":{"type":"Point","coordinates":[11.8640853,-4.7883729]},"properties":{"amenity":"office","name":"Z et h","shop":"convenience"}},
{"type":"Feature","geometry":{"type":"Point","coordinates":[11.8634816,-4.7894638]},"properties":{"amenity":"office","name":"Hisense","shop":"convenience"}},
{"type":"Feature","geometry":{"type":"Point","coordinates":[11.8634257,-4.7895161]},"properties":{"name":"Ets nioro du sahel","shop":"convenience"}},
{"type":"Feature","geometry":{"type":"Point","coordinates":[11.8636116,-4.7893737]},"properties":{"amenity":"office","name":"City market electromenager","shop":"convenience"}},
{"type":"Feature","geometry":{"type":"Point","coordinates":[11.863111,-4.7898604]},"properties":{"name":"Queen et elikia mariage","shop":"convenience"}},
{"type":"Feature","geometry":{"type":"Point","coordinates":[11.8620655,-4.7895089]},"properties":{"name":"Depot sundeep","shop":"convenience"}},
{"type":"Feature","geometry":{"type":"Point","coordinates":[11.8631488,-4.7879348]},"properties":{"name":"Foberd congo","shop":"convenience"}},
{"type":"Feature","geometry":{"type":"Point","coordinates":[11.8630697,-4.7875373]},"properties":{"name":"Ets tps","shop":"convenience"}},
{"type":"Feature","geometry":{"type":"Point","coordinates":[11.8629903,-4.787562]},"properties":{"name":"Ets at usa","shop":"convenience"}},
{"type":"Feature","geometry":{"type":"Point","coordinates":[11.863057,-4.7892385]},"properties":{"amenity":"office","name":"Decorama","shop":"convenience"}},
{"type":"Feature","geometry":{"type":"Point","coordinates":[11.8633637,-4.7895706]},"properties":{"amenity":"office","name":"Satguru","shop":"convenience"}},
{"type":"Feature","geometry":{"type":"Point","coordinates":[11.8635707,-4.7894072]},"properties":{"amenity":"office","name":"Lcb bank","shop":"convenience"}},
{"type":"Feature","geometry":{"type":"Point","coordinates":[11.8636571,-4.7897173]},"properties":{"amenity":"office","name":"Ste sundeep sarl","shop":"convenience"}},
{"type":"Feature","geometry":{"type":"Point","coordinates":[11.8630494,-4.7899078]},"properties":{"name":"Le ruben phil boutique","shop":"convenience"}},
{"type":"Feature","geometry":{"type":"Point","coordinates":[11.863254,-4.7896731]},"properties":{"amenity":"office","name":"Inter decor","shop":"convenience"}},
{"type":"Feature","geometry":{"type":"Point","coordinates":[11.8629597,-4.7893181]},"properties":{"name":"Beaute chinoise","shop":"convenience"}},
{"type":"Feature","geometry":{"type":"Point","coordinates":[11.8627784,-4.7901243]},"properties":{"name":"Bb informatique","shop":"convenience"}},
{"type":"Feature","geometry":{"type":"Point","coordinates":[11.8628177,-4.7900872]},"properties":{"name":"Al mini marche","shop":"convenience"}},
{"type":"Feature","geometry":{"type":"Point","coordinates":[11.8633477,-4.7900555]},"properties":{"name":"Depot sundeep sarl","shop":"convenience"}},
{"type":"Feature","geometry":{"type":"Point","coordinates":[11.8625271,-4.7898059]},"properties":{"amenity":"gambling","name":"Casino mirage","shop":"convenience","tourism":"attraction"}},
{"type":"Feature","geometry":{"type":"Point","coordinates":[11.8633646,-4.7873586]},"properties":{"name":"Bello et fils","shop":"convenience"}},
{"type":"Feature","geometry":{"type":"Point","coordinates":[11.8647513,-4.7882741]},"properties":{"amenity":"store","name":"Ets nana","shop":"convenience"}},
{"type":"Feature","geometry":{"type":"Point","coordinates":[11.8505916,-4.792707]},"properties":{"fid":"1665","full_id":"n6257868022","name":"Residence roberta","osm_id":"6257868022","shop":"convenience","tourism":"hotel"}},
{"type":"Feature","geometry":{"type":"Point","coordinates":[11.8672047,-4.8160225]},"properties":{"name":"Pâtisserie K.M.Y","shop":"bakery"}},
{"type":"Feature","geometry":{"type":"Point","coordinates":[11.8555204,-4.8141026]},"properties":{"name":"Super marche","shop":"supermarket"}},
{"type":"Feature","geometry":{"type":"Point","coordinates":[11.8389437,-4.7962267]},"properties":{"name":"Boulangerie de tez","shop":"bakery"}},
{"type":"Feature","geometry":{"type":"Point","coordinates":[11.8385796,-4.7957172]},"properties":{"name":"Ets jreife","shop":"supermarket"}},
{"type":"Feature","geometry":{"type":"Point","coordinates":[11.8371266,-4.7958016]},"properties":{"name":"Park shop","shop":"supermarket"}},
{"type":"Feature","geometry":{"type":"Point","coordinates":[11.8700718,-4.7829768]},"properties":{"name":"Ets sf alimentation","shop":"convenience"}},
{"type":"Feature","geometry":{"type":"Point","coordinates":[11.8698849,-4.7832495]},"properties":{"name":"Gassama","shop":"butcher"}},
{"type":"Feature","geometry":{"type":"Point","coordinates":[11.8689459,-4.784148]},"properties":{"name":"Ets super food","shop":"convenience"}},
{"type":"Feature","geometry":{"type":"Point","coordinates":[11.9141413,-4.7378476]},"properties":{"name":"Super marché Mohamed vall","shop":"convenience"}},
{"type":"Feature","geometry":{"type":"Point","coordinates":[11.9066446,-4.7466554]},"properties":{"name":"STE SUNDEEP S.A.R.L","shop":"convenience"}},
{"type":"Feature","geometry":{"type":"Point","coordinates":[11.866951,-4.784472]},"properties":{"name":"Et ABM","shop":"convenience"}},
{"type":"Feature","geometry":{"type":"Point","coordinates":[11.88297,-4.7847863]},"properties":{"name":"Ets BAH 2","shop":"convenience"}},
{"type":"Feature","geometry":{"type":"Point","coordinates":[11.8694013,-4.7836043]},"properties":{"name":"Debiterie halal","shop":"butcher"}},
{"type":"Feature","geometry":{"type":"Point","coordinates":[11.8693243,-4.7837698]},"properties":{"name":"Ets do","shop":"convenience"}},
{"type":"Feature","geometry":{"type":"Point","coordinates":[11.8692652,-4.7837554]},"properties":{"name":"Est zeidane","shop":"convenience"}},
{"type":"Feature","geometry":{"type":"Point","coordinates":[11.8691462,-4.783844]},"properties":{"name":"Ets mini boulangerie Yaya","shop":"bakery"}},
{"type":"Feature","geometry":{"type":"Point","coordinates":[11.8684864,-4.7845833]},"properties":{"name":"Ets ali","shop":"butcher"}},
{"type":"Feature","geometry":{"type":"Point","coordinates":[11.9218829,-4.729083]},"properties":{"name":"Ets 2M alimentation","shop":"butcher"}},
{"type":"Feature","geometry":{"type":"Point","coordinates":[11.9136132,-4.7385516]},"properties":{"name":"Ets T.M","shop":"convenience"}},
{"type":"Feature","geometry":{"type":"Point","coordinates":[11.9116461,-4.74059]},"properties":{"name":"Élker wenvir","shop":"bakery"}},
{"type":"Feature","geometry":{"type":"Point","coordinates":[11.9090809,-4.7437248]},"properties":{"name":"Najah 2","shop":"bakery"}},
{"type":"Feature","geometry":{"type":"Point","coordinates":[11.8698408,-4.78329]},"properties":{"name":"Ets super shop","shop":"convenience"}},
{"type":"Feature","geometry":{"type":"Point","coordinates":[11.8687514,-4.7843153]},"properties":{"name":"Ets B.D.F","shop":"convenience"}},
{"type":"Feature","geometry":{"type":"Point","coordinates":[11.8686479,-4.784321]},"properties":{"name":"Ets mouss.com","shop":"convenience"}},
{"type":"Feature","geometry":{"type":"Point","coordinates":[11.9028679,-4.7510702]},"properties":{"name":"BOINADJI de Thystere","shop":"convenience"}},
{"type":"Feature","geometry":{"type":"Point","coordinates":[11.902226,-4.7521196]},"properties":{"name":"Ets L.R parfumerie","shop":"convenience"}},
{"type":"Feature","geometry":{"type":"Point","coordinates":[11.8775815,-4.7758589]},"properties":{"name":"Ets Joseph","shop":"convenience"}},
{"type":"Feature","geometry":{"type":"Point","coordinates":[11.8672147,-4.784025]},"properties":{"name":"Ets Mahar","shop":"convenience"}},
{"type":"Feature","geometry":{"type":"Point","coordinates":[11.8669162,-4.7845418]},"properties":{"name":"Ets HBI","shop":"convenience"}},
{"type":"Feature","geometry":{"type":"Point","coordinates":[11.866865,-4.7846118]},"properties":{"name":"Eys HBI 2","shop":"convenience"}},
{"type":"Feature","geometry":{"type":"Point","coordinates":[11.8667027,-4.7848987]},"properties":{"name":"Ets SALEM","shop":"convenience"}},
{"type":"Feature","geometry":{"type":"Point","coordinates":[11.8646939,-4.78296]},"properties":{"name":"Ets wolove","shop":"convenience"}},
{"type":"Feature","geometry":{"type":"Point","coordinates":[11.8693061,-4.7837008]},"properties":{"name":"Est sekina","shop":"convenience"}},
{"type":"Feature","geometry":{"type":"Point","coordinates":[11.8689603,-4.7840362]},"properties":{"name":"Ets y-b","shop":"convenience"}},
{"type":"Feature","geometry":{"type":"Point","coordinates":[11.9127551,-4.73963]},"properties":{"name":"Ets STE 3","shop":"convenience"}},
{"type":"Feature","geometry":{"type":"Point","coordinates":[11.9117093,-4.7404835]},"properties":{"name":"Ets Elker","shop":"convenience"}},
{"type":"Feature","geometry":{"type":"Point","coordinates":[11.8667132,-4.7847277]},"properties":{"name":"Ets M.C","shop":"convenience"}},
{"type":"Feature","geometry":{"type":"Point","coordinates":[11.8822924,-4.7843133]},"properties":{"name":"SEFF boucherie alimentation","shop":"convenience"}},
{"type":"Feature","geometry":{"type":"Point","coordinates":[11.8811877,-4.7845263]},"properties":{"name":"Ets Sy bon Prix","shop":"convenience"}},
{"type":"Feature","geometry":{"type":"Point","coordinates":[11.8803996,-4.784629]},"properties":{"name":"Ets Ndiaye","shop":"convenience"}},
{"type":"Feature","geometry":{"type":"Point","coordinates":[11.880109,-4.7847748]},"properties":{"name":"Ets Gadiama","shop":"convenience"}},
{"type":"Feature","geometry":{"type":"Point","coordinates":[11.8815148,-4.784398]},"properties":{"name":"Ets Chloé","shop":"convenience"}},
{"type":"Feature","geometry":{"type":"Point","coordinates":[11.8802082,-4.7847602]},"properties":{"name":"Ets MB","shop":"convenience"}},
{"type":"Feature","geometry":{"type":"Point","coordinates":[11.8789988,-4.7849577]},"properties":{"name":"Ets la Persévérance","shop":"convenience"}},
{"type":"Feature","geometry":{"type":"Point","coordinates":[11.8786705,-4.7850198]},"properties":{"name":"Ets T.P.G boulangerie","shop":"bakery"}},
{"type":"Feature","geometry":{"type":"Point","coordinates":[11.8788889,-4.7862648]},"properties":{"name":"Ets Isabelle","shop":"convenience"}},
{"type":"Feature","geometry":{"type":"Point","coordinates":[11.8786285,-4.785094]},"properties":{"name":"Ets AG & frère","shop":"convenience"}},
{"type":"Feature","geometry":{"type":"Point","coordinates":[11.8785643,-4.7851068]},"properties":{"name":"Ets Seck & frère","shop":"convenience"}},
{"type":"Feature","geometry":{"type":"Point","coordinates":[11.8795487,-4.786782]},"properties":{"name":"Ets Dahra","shop":"convenience"}},
{"type":"Feature","geometry":{"type":"Point","coordinates":[11.8801099,-4.7873059]},"properties":{"name":"Ets GOOD W","shop":"convenience"}},
{"type":"Feature","geometry":{"type":"Point","coordinates":[11.8790757,-4.786327]},"properties":{"name":"Boulangerie Ami","shop":"bakery"}},
{"type":"Feature","geometry":{"type":"Point","coordinates":[11.8828576,-4.7866598]},"properties":{"name":"Ets Gospel","shop":"convenience"}},
{"type":"Feature","geometry":{"type":"Point","coordinates":[11.8829967,-4.7835159]},"properties":{"name":"Ets Agueilatt","shop":"convenience"}},
{"type":"Feature","geometry":{"type":"Point","coordinates":[11.8829141,-4.7829929]},"properties":{"name":"Ets Dibassy","shop":"convenience"}},
{"type":"Feature","geometry":{"type":"Point","coordinates":[11.8821515,-4.7819991]},"properties":{"name":"Ets Majesty","shop":"convenience"}},
{"type":"Feature","geometry":{"type":"Point","coordinates":[11.8733906,-4.7834903]},"properties":{"shop":"butcher"}},
{"type":"Feature","geometry":{"type":"Point","coordinates":[11.8826634,-4.7826706]},"properties":{"name":"Ets Ould","shop":"convenience"}},
{"type":"Feature","geometry":{"type":"Point","coordinates":[11.880507,-4.7798907]},"properties":{"name":"Ets la grande envergure","shop":"convenience"}},
{"type":"Feature","geometry":{"type":"Point","coordinates":[11.8803821,-4.779695]},"properties":{"name":"Ets Sinim","shop":"convenience"}},
{"type":"Feature","geometry":{"type":"Point","coordinates":[11.867931,-4.7759314]},"properties":{"name":"Cocopain","shop":"bakery"}},
{"type":"Feature","geometry":{"type":"Point","coordinates":[11.88283,-4.7890142]},"properties":{"name":"Ets Camar & frère","shop":"convenience"}},
{"type":"Feature","geometry":{"type":"Point","coordinates":[11.865305,-4.7734758]},"properties":{"name":"Ets m.ly","shop":"supermarket"}},
{"type":"Feature","geometry":{"type":"Point","coordinates":[11.8828794,-4.7831593]},"properties":{"name":"Boulangerie ATAKALKHAYR","shop":"bakery"}},
{"type":"Feature","geometry":{"type":"Point","coordinates":[11.867428,-4.7784676]},"properties":{"name":"Najah","shop":"bakery"}},
{"type":"Feature","geometry":{"type":"Point","coordinates":[11.8827985,-4.7869386]},"properties":{"name":"Ets Diallo","shop":"convenience"}},
{"type":"Feature","geometry":{"type":"Point","coordinates":[11.8831211,-4.7833204]},"properties":{"name":"Ets Guissé","shop":"convenience"}},
{"type":"Feature","geometry":{"type":"Point","coordinates":[11.8817629,-4.7809623]},"properties":{"name":"Boucherie El Bethel","shop":"butcher"}},
{"type":"Feature","geometry":{"type":"Point","coordinates":[11.8814613,-4.781063]},"properties":{"name":"Ets chez Ngoma","shop":"convenience"}},
{"type":"Feature","geometry":{"type":"Point","coordinates":[11.865124,-4.7731263]},"properties":{"name":"Boulangerie sympathique","shop":"bakery"}},
{"type":"Feature","geometry":{"type":"Point","coordinates":[11.88145,-4.7812168]},"properties":{"name":"Ets la Paix pour l'Afrique","shop":"convenience"}},
{"type":"Feature","geometry":{"type":"Point","coordinates":[11.8768233,-4.7817608]},"properties":{"name":"Bénédicte","shop":"butcher"}},
{"type":"Feature","geometry":{"type":"Point","coordinates":[11.8759296,-4.7775674]},"properties":{"name":"Boulangerie ica","shop":"bakery"}},
{"type":"Feature","geometry":{"type":"Point","coordinates":[11.8741969,-4.7791051]},"properties":{"name":"Ets ABF","shop":"convenience"}},
{"type":"Feature","geometry":{"type":"Point","coordinates":[11.8739735,-4.7792948]},"properties":{"name":"Ets dalande","shop":"convenience"}},
{"type":"Feature","geometry":{"type":"Point","coordinates":[11.8721403,-4.7796511]},"properties":{"name":"Cipht","shop":"convenience"}},
{"type":"Feature","geometry":{"type":"Point","coordinates":[11.8773654,-4.781393]},"properties":{"name":"Eys bakary","shop":"butcher"}},
{"type":"Feature","geometry":{"type":"Point","coordinates":[11.8758141,-4.7776786]},"properties":{"name":"Ets MS","shop":"convenience"}},
{"type":"Feature","geometry":{"type":"Point","coordinates":[11.8752732,-4.7780452]},"properties":{"name":"Tic tac","shop":"supermarket"}},
{"type":"Feature","geometry":{"type":"Point","coordinates":[11.8740315,-4.779333]},"properties":{"name":"Ets Hamate","shop":"convenience"}},
{"type":"Feature","geometry":{"type":"Point","coordinates":[11.8738669,-4.7794944]},"properties":{"name":"Boulangerie SML","shop":"bakery"}},
{"type":"Feature","geometry":{"type":"Point","coordinates":[11.8794225,-4.7802958]},"properties":{"name":"Eden boucherie","shop":"butcher"}},
{"type":"Feature","geometry":{"type":"Point","coordinates":[11.87017,-4.7791338]},"properties":{"name":"Ets Thioye & frère","shop":"convenience"}},
{"type":"Feature","geometry":{"type":"Point","coordinates":[11.8697552,-4.7796629]},"properties":{"name":"Ets Samba","shop":"convenience"}},
{"type":"Feature","geometry":{"type":"Point","coordinates":[11.8688676,-4.7813174]},"properties":{"name":"Ets Ayet","shop":"convenience"}},
{"type":"Feature","geometry":{"type":"Point","coordinates":[11.8684663,-4.781963]},"properties":{"name":"Super marché HAYATE","shop":"supermarket"}},
{"type":"Feature","geometry":{"type":"Point","coordinates":[11.8679546,-4.7826443]},"properties":{"name":"Le carrefour","shop":"convenience"}},
{"type":"Feature","geometry":{"type":"Point","coordinates":[11.8677446,-4.7829963]},"properties":{"name":"Ste REGAl","shop":"supermarket"}},
{"type":"Feature","geometry":{"type":"Point","coordinates":[11.8678273,-4.7830179]},"properties":{"name":"Ets Union","shop":"convenience"}},
{"type":"Feature","geometry":{"type":"Point","coordinates":[11.8677187,-4.7831516]},"properties":{"name":"Ets africainde","shop":"convenience"}},
{"type":"Feature","geometry":{"type":"Point","coordinates":[11.8675497,-4.7834484]},"properties":{"name":"Ets PETTEL & frère","shop":"convenience"}},
{"type":"Feature","geometry":{"type":"Point","coordinates":[11.9103725,-4.7422745]},"properties":{"name":"Ets kerdach 2","shop":"convenience"}},
{"type":"Feature","geometry":{"type":"Point","coordinates":[11.8690634,-4.7807465]},"properties":{"name":"Debiterie Sako","shop":"butcher"}},
{"type":"Feature","geometry":{"type":"Point","coordinates":[11.8689874,-4.7808809]},"properties":{"name":"Ets Agniam 2","shop":"convenience"}},
{"type":"Feature","geometry":{"type":"Point","coordinates":[11.8690265,-4.7810114]},"properties":{"name":"Ets sedo","shop":"convenience"}},
{"type":"Feature","geometry":{"type":"Point","coordinates":[11.8681693,-4.7824332]},"properties":{"name":"Ets point de rencontre","shop":"convenience"}},
{"type":"Feature","geometry":{"type":"Point","coordinates":[11.8681243,-4.7822995]},"properties":{"name":"Ets A.B","shop":"convenience"}},
{"type":"Feature","geometry":{"type":"Point","coordinates":[11.8679477,-4.7828301]},"properties":{"name":"Ets M B","shop":"convenience"}},
{"type":"Feature","geometry":{"type":"Point","coordinates":[11.870353,-4.7787086]},"properties":{"name":"Ets World market","shop":"convenience"}},
{"type":"Feature","geometry":{"type":"Point","coordinates":[11.8676557,-4.7832576]},"properties":{"name":"Ets africainde","shop":"convenience"}},
{"type":"Feature","geometry":{"type":"Point","coordinates":[11.8701013,-4.7790649]},"properties":{"name":"Boulangerie bonne chance","shop":"bakery"}},
{"type":"Feature","geometry":{"type":"Point","coordinates":[11.8698582,-4.7796188]},"properties":{"name":"Ets SF","shop":"convenience"}},
{"type":"Feature","geometry":{"type":"Point","coordinates":[11.8680328,-4.7826848]},"properties":{"name":"Ets M& H general trading","shop":"convenience"}},
{"type":"Feature","geometry":{"type":"Point","coordinates":[11.86789,-4.7827795]},"properties":{"name":"Ets D.H","shop":"convenience"}},
{"type":"Feature","geometry":{"type":"Point","coordinates":[11.867302,-4.7837058]},"properties":{"name":"Ets Sundeep","shop":"convenience"}},
{"type":"Feature","geometry":{"type":"Point","coordinates":[11.9110242,-4.7419699]},"properties":{"name":"Ets G& C","shop":"convenience"}},
{"type":"Feature","geometry":{"type":"Point","coordinates":[11.9142311,-4.7379888]},"properties":{"name":"Boulangerie la grâce","shop":"bakery"}},
{"type":"Feature","geometry":{"type":"Point","coordinates":[11.893204,-4.762779]},"properties":{"name":"Ets M.M.S","shop":"convenience"}},
{"type":"Feature","geometry":{"type":"Point","coordinates":[11.8842217,-4.7749905]},"properties":{"name":"La Sagesse","shop":"convenience"}},
{"type":"Feature","geometry":{"type":"Point","coordinates":[11.8863132,-4.768798]},"properties":{"shop":"convenience"}},
{"type":"Feature","geometry":{"type":"Point","coordinates":[11.8906375,-4.7715853]},"properties":{"name":"Ets Assane","shop":"convenience"}},
{"type":"Feature","geometry":{"type":"Point","coordinates":[11.8897374,-4.7708624]},"properties":{"shop":"convenience"}},
{"type":"Feature","geometry":{"type":"Point","coordinates":[11.886648,-4.7724952]},"properties":{"amenity":"bar","name":"Espace le max","shop":"convenience"}},
{"type":"Feature","geometry":{"type":"Point","coordinates":[11.8865985,-4.7729007]},"properties":{"name":"Ets belle rouge","shop":"convenience"}},
{"type":"Feature","geometry":{"type":"Point","coordinates":[11.8880681,-4.7737846]},"properties":{"name":"Ets Bonne Chance Frere","shop":"convenience"}},
{"type":"Feature","geometry":{"type":"Point","coordinates":[11.8862157,-4.7728669]},"properties":{"name":"Boulangerie sml","shop":"bakery"}},
{"type":"Feature","geometry":{"type":"Point","coordinates":[11.8861126,-4.7732491]},"properties":{"name":"Marche","shop":"convenience"}},
{"type":"Feature","geometry":{"type":"Point","coordinates":[11.8844624,-4.7696869]},"properties":{"name":"Ets SY","shop":"convenience"}},
{"type":"Feature","geometry":{"type":"Point","coordinates":[15.2354863,-4.280335]},"properties":{"amenity":"marketplace","name":"Marché Matouta","opening_hours":"Mo-Fr 08:00-18:00, Tu-Sa 08:00-18:00","wheelchair":"yes"}},
{"type":"Feature","geometry":{"type":"Point","coordinates":[11.9174566,-4.7343272]},"properties":{"name":"Ets SOULE","shop":"convenience"}},
{"type":"Feature","geometry":{"type":"Point","coordinates":[11.9232843,-4.7266848]},"properties":{"name":"Est nab","shop":"convenience"}},
{"type":"Feature","geometry":{"type":"Point","coordinates":[11.8928282,-4.7630063]},"properties":{"name":"Ets BA","shop":"convenience"}},
{"type":"Feature","geometry":{"type":"Point","coordinates":[11.8887566,-4.7653598]},"properties":{"name":"Boulangerie africaine","shop":"bakery"}},
{"type":"Feature","geometry":{"type":"Point","coordinates":[15.2455863,-4.2696613]},"properties":{"name":"Boulangerie de diata","shop":"bakery"}},
{"type":"Feature","geometry":{"type":"Point","coordinates":[15.2443146,-4.2720456]},"properties":{"name":"Claudy","shop":"butcher"}},
{"type":"Feature","geometry":{"type":"Point","coordinates":[15.2411042,-4.2724659]},"properties":{"name":"Boulangerie Eva","shop":"bakery"}},
{"type":"Feature","geometry":{"type":"Point","coordinates":[15.2534036,-4.2906551]},"properties":{"name":"Ets Kabala","shop":"supermarket"}},
{"type":"Feature","geometry":{"type":"Point","coordinates":[15.280237,-4.2393852]},"properties":{"addr:street":"Rue Biteven","name":"MD Boucherie","opening_hours":"Mo-Su 08:00-19:00","phone":"066355974","shop":"butcher"}},
{"type":"Feature","geometry":{"type":"Point","coordinates":[15.2897335,-4.2357201]},"properties":{"addr:street":"Talangaï","name":"Marche de l’indépendance","name:en":"Marché de l’indépendance","name:fr":"Marché de l’indépendance","shop":"supermarket"}},
{"type":"Feature","geometry":{"type":"Point","coordinates":[11.8543859,-4.7993185]},"properties":{"amenity":"restaurant","fid":"1697","full_id":"n6257868054","name":"Chez alicia","osm_id":"6257868054","shop":"convenience"}},
{"type":"Feature","geometry":{"type":"Point","coordinates":[11.8529342,-4.800347]},"properties":{"fid":"1690","full_id":"n6257868047","name":"Bcbtp","office":"government","osm_id":"6257868047","shop":"convenience"}},
{"type":"Feature","geometry":{"type":"Point","coordinates":[11.8523628,-4.8004034]},"properties":{"amenity":"restaurant","fid":"1689","full_id":"n6257868046","name":"Pinocchio","osm_id":"6257868046","shop":"convenience"}},
{"type":"Feature","geometry":{"type":"Point","coordinates":[11.852636,-4.7981606]},"properties":{"fid":"1686","full_id":"n6257868043","name":"Ob motors","osm_id":"6257868043","shop":"convenience"}},
{"type":"Feature","geometry":{"type":"Point","coordinates":[11.8507669,-4.7977706]},"properties":{"fid":"1680","full_id":"n6257868037","name":"Sodico market","osm_id":"6257868037","shop":"convenience"}},
{"type":"Feature","geometry":{"type":"Point","coordinates":[11.851043,-4.7972282]},"properties":{"fid":"1679","full_id":"n6257868036","name":"Boni selection","osm_id":"6257868036","shop":"supermarket"}},
{"type":"Feature","geometry":{"type":"Point","coordinates":[11.8546969,-4.7987788]},"properties":{"fid":"1675","full_id":"n6257868032","name":"Mahmoud 2","osm_id":"6257868032","shop":"convenience"}},
{"type":"Feature","geometry":{"type":"Point","coordinates":[11.8525523,-4.7970527]},"properties":{"fid":"1673","full_id":"n6257868030","name":"Ets mere diego","osm_id":"6257868030","shop":"supermarket"}},
{"type":"Feature","geometry":{"type":"Point","coordinates":[11.8567226,-4.7988444]},"properties":{"fid":"1637","full_id":"n6257867993","name":"Ets salem","osm_id":"6257867993","shop":"convenience"}},
{"type":"Feature","geometry":{"type":"Point","coordinates":[11.8571052,-4.7991757]},"properties":{"amenity":"restaurant","fid":"1636","full_id":"n6257867992","name":"Chez wou","osm_id":"6257867992","shop":"convenience"}},
{"type":"Feature","geometry":{"type":"Point","coordinates":[11.8566614,-4.7985765]},"properties":{"fid":"1635","full_id":"n6257867991","name":"Canal +","office":"telecommunication","osm_id":"6257867991","shop":"convenience"}},
{"type":"Feature","geometry":{"type":"Point","coordinates":[11.8566999,-4.7987486]},"properties":{"amenity":"bar","fid":"1634","full_id":"n6257867990","name":"Vie gout","osm_id":"6257867990","shop":"convenience"}},
{"type":"Feature","geometry":{"type":"Point","coordinates":[11.855349,-4.7997788]},"properties":{"amenity":"office","fid":"1628","full_id":"n6257867984","name":"Ets meaco","osm_id":"6257867984","shop":"convenience"}},
{"type":"Feature","geometry":{"type":"Point","coordinates":[11.8562545,-4.796702]},"properties":{"amenity":"bar","fid":"1624","full_id":"n6257867980","name":"Kafcc","osm_id":"6257867980","shop":"convenience"}},
{"type":"Feature","geometry":{"type":"Point","coordinates":[11.8555692,-4.7969192]},"properties":{"amenity":"bar","fid":"1620","full_id":"n6257867976","name":"Le comptoir","osm_id":"6257867976","shop":"convenience"}},
{"type":"Feature","geometry":{"type":"Point","coordinates":[11.8557492,-4.7981465]},"properties":{"amenity":"bar","fid":"1616","full_id":"n6257867972","name":"Le punch coco","osm_id":"6257867972","shop":"convenience"}},
{"type":"Feature","geometry":{"type":"Point","coordinates":[11.8554153,-4.7977946]},"properties":{"amenity":"restaurant","fid":"1615","full_id":"n6257867971","name":"Restaurant hong kong","osm_id":"6257867971","shop":"convenience"}},
{"type":"Feature","geometry":{"type":"Point","coordinates":[11.8554121,-4.7983389]},"properties":{"amenity":"restaurant","fid":"1611","full_id":"n6257867967","name":"La source","osm_id":"6257867967","shop":"convenience"}},
{"type":"Feature","geometry":{"type":"Point","coordinates":[11.8574598,-4.7941835]},"properties":{"amenity":"office","fid":"1602","full_id":"n6257867958","name":"Edvt","osm_id":"6257867958","shop":"convenience"}},
{"type":"Feature","geometry":{"type":"Point","coordinates":[11.8562208,-4.7964297]},"properties":{"amenity":"office","fid":"1594","full_id":"n6257867941","name":"Bureau echange","osm_id":"6257867941","shop":"convenience"}},
{"type":"Feature","geometry":{"type":"Point","coordinates":[11.856267,-4.7966597]},"properties":{"amenity":"bar","fid":"1592","full_id":"n6257867939","name":"Juice bar","osm_id":"6257867939","shop":"convenience"}},
{"type":"Feature","geometry":{"type":"Point","coordinates":[11.8559564,-4.7958523]},"properties":{"amenity":"office","fid":"1587","full_id":"n6257867934","name":"Vision optique","osm_id":"6257867934","shop":"convenience"}},
{"type":"Feature","geometry":{"type":"Point","coordinates":[11.8573222,-4.7945316]},"properties":{"fid":"1586","full_id":"n6257867933","name":"Ristorante italia","osm_id":"6257867933","shop":"convenience"}},
{"type":"Feature","geometry":{"type":"Point","coordinates":[11.857243799999999,-4.7942631]},"properties":{"amenity":"office","fid":"1585","full_id":"n6257867932","name":"Esprit intetieur","office":"company","osm_id":"6257867932","shop":"convenience"}},
{"type":"Feature","geometry":{"type":"Point","coordinates":[11.8554615,-4.7950322]},"properties":{"fid":"1569","full_id":"n6257867833","name":"PARK N SHOP","osm_id":"6257867833","shop":"supermarket"}},
{"type":"Feature","geometry":{"type":"Point","coordinates":[11.853274,-4.7996357]},"properties":{"fid":"1563","full_id":"n6257867827","name":"ORCA","osm_id":"6257867827","shop":"supermarket"}},
{"type":"Feature","geometry":{"type":"Point","coordinates":[11.8521305,-4.8013113]},"properties":{"fid":"1559","full_id":"n6257867823","name":"Ets Bon Choix","osm_id":"6257867823","shop":"convenience"}},
{"type":"Feature","geometry":{"type":"Point","coordinates":[11.8521291,-4.8012314]},"properties":{"fid":"1558","full_id":"n6257867822","name":"Home Market","osm_id":"6257867822","shop":"supermarket"}},
{"type":"Feature","geometry":{"type":"Point","coordinates":[11.8521974,-4.7964476]},"properties":{"fid":"1514","full_id":"n6257867569","name":"Sporafric home","office":"company","osm_id":"6257867569","shop":"convenience"}},
{"type":"Feature","geometry":{"type":"Point","coordinates":[11.8509515,-4.7972197]},"properties":{"fid":"1512","full_id":"n6257867567","name":"La pointe","osm_id":"6257867567","shop":"supermarket"}},
{"type":"Feature","geometry":{"type":"Point","coordinates":[11.8551298,-4.7951709]},"properties":{"fid":"1504","full_id":"n6257867558","name":"Burotec","office":"company","osm_id":"6257867558","shop":"convenience"}},
{"type":"Feature","geometry":{"type":"Point","coordinates":[11.8527224,-4.7970491]},"properties":{"fid":"1479","full_id":"n6257867533","name":"Kennys","osm_id":"6257867533","shop":"convenience"}},
{"type":"Feature","geometry":{"type":"Point","coordinates":[11.8529138,-4.7961068]},"properties":{"amenity":"cafe","fid":"1478","full_id":"n6257867532","name":"Chocolatebar","osm_id":"6257867532","shop":"convenience"}},
{"type":"Feature","geometry":{"type":"Point","coordinates":[11.8533563,-4.7975879]},"properties":{"amenity":"restaurant","fid":"1474","full_id":"n6257867528","name":"Hotel Orchidee","osm_id":"6257867528","shop":"convenience","tourism":"hotel"}},
{"type":"Feature","geometry":{"type":"Point","coordinates":[11.8547777,-4.795381]},"properties":{"amenity":"office","fid":"1467","full_id":"n6257867521","name":"Airtel","office":"telecommunication","osm_id":"6257867521","shop":"convenience"}},
{"type":"Feature","geometry":{"type":"Point","coordinates":[11.853481,-4.7958406]},"properties":{"amenity":"office","fid":"1454","full_id":"n6257867508","name":"Tout pour ingenierie","office":"company","osm_id":"6257867508","shop":"convenience"}},
{"type":"Feature","geometry":{"type":"Point","coordinates":[11.8538911,-4.7981385]},"properties":{"amenity":"restaurant","fid":"1436","full_id":"n6257867490","name":"Auberge restàurant","osm_id":"6257867490","shop":"convenience","tourism":"hostel"}},
{"type":"Feature","geometry":{"type":"Point","coordinates":[11.8535321,-4.7985724]},"properties":{"amenity":"restaurant","fid":"1435","full_id":"n6257867489","name":"Cabinet de soins methode chinoise","osm_id":"6257867489","shop":"convenience","tourism":"hostel"}},
{"type":"Feature","geometry":{"type":"Point","coordinates":[11.8534433,-4.7999242]},"properties":{"fid":"1430","full_id":"n6257867484","name":"Alvoz","osm_id":"6257867484","shop":"supermarket"}},
{"type":"Feature","geometry":{"type":"Point","coordinates":[11.8532623,-4.7999941]},"properties":{"fid":"1429","full_id":"n6257867483","name":"Green point","osm_id":"6257867483","shop":"convenience"}},
{"type":"Feature","geometry":{"type":"Point","coordinates":[11.858775,-4.7936266]},"properties":{"fid":"1398","full_id":"n6257867448","name":"Pedrosa","osm_id":"6257867448","shop":"convenience"}},
{"type":"Feature","geometry":{"type":"Point","coordinates":[11.8582182,-4.7940163]},"properties":{"amenity":"restaurant","fid":"1396","full_id":"n6257867446","name":"Macdo","osm_id":"6257867446","shop":"convenience"}},
{"type":"Feature","geometry":{"type":"Point","coordinates":[11.8582248,-4.7939357]},"properties":{"fid":"1394","full_id":"n6257867444","name":"Ets Pedrosa","osm_id":"6257867444","shop":"convenience"}},
{"type":"Feature","geometry":{"type":"Point","coordinates":[11.8578956,-4.7940201]},"properties":{"fid":"1393","full_id":"n6257867443","name":"Eliclem","osm_id":"6257867443","shop":"convenience"}},
{"type":"Feature","geometry":{"type":"Point","coordinates":[11.8588449,-4.793812]},"properties":{"amenity":"restaurant","fid":"1390","full_id":"n6257867440","name":"Le bungalow","osm_id":"6257867440","shop":"convenience"}},
{"type":"Feature","geometry":{"type":"Point","coordinates":[11.8593534,-4.7956889]},"properties":{"amenity":"restaurant","fid":"1378","full_id":"n6257867428","name":"La perla","osm_id":"6257867428","shop":"convenience"}},
{"type":"Feature","geometry":{"type":"Point","coordinates":[11.8535009,-4.7999051]},"properties":{"fid":"314","full_id":"n4564154209","osm_id":"4564154209","shop":"supermarket"}},
{"type":"Feature","geometry":{"type":"Point","coordinates":[11.8546636,-4.7987656]},"properties":{"fid":"313","full_id":"n4564152710","osm_id":"4564152710","shop":"supermarket"}},
{"type":"Feature","geometry":{"type":"Point","coordinates":[11.8572846,-4.7942335]},"properties":{"fid":"305","full_id":"n4557893822","name":"EDVT Home","operator":"EDVT Home","osm_id":"4557893822","shop":"convenience"}},
{"type":"Feature","geometry":{"type":"Point","coordinates":[11.8540607,-4.7974184]},"properties":{"fid":"251","full_id":"n3848579824","name":"Boulangerie Patisserie L'Orchidée","opening_hours":"22:00-05:00; 07:00-22:00","osm_id":"3848579824","shop":"bakery"}},
{"type":"Feature","geometry":{"type":"Point","coordinates":[11.855497,-4.7950681]},"properties":{"fid":"166","full_id":"n3323403419","name":"Park & shop","osm_id":"3323403419","shop":"supermarket"}},
{"type":"Feature","geometry":{"type":"Point","coordinates":[11.8561565,-4.7940319]},"properties":{"fid":"300","full_id":"n4539780925","name":"Boulangerie Mpele","operator":"Mpele","osm_id":"4539780925","shop":"bakery"}},
{"type":"Feature","geometry":{"type":"Point","coordinates":[11.8557493,-4.794215]},"properties":{"amenity":"fast_food","fid":"1731","full_id":"n6257868188","name":"Boucherie du plateau","osm_id":"6257868188","shop":"convenience"}},
{"type":"Feature","geometry":{"type":"Point","coordinates":[11.8555439,-4.7941454]},"properties":{"fid":"1730","full_id":"n6257868187","name":"Ets alya saveur du congo","osm_id":"6257868187","shop":"convenience"}},
{"type":"Feature","geometry":{"type":"Point","coordinates":[11.8555784,-4.7941344]},"properties":{"fid":"1729","full_id":"n6257868186","name":"Mini marche karim","osm_id":"6257868186","shop":"convenience"}},
{"type":"Feature","geometry":{"type":"Point","coordinates":[11.8557534,-4.7945503]},"properties":{"fid":"1727","full_id":"n6257868084","name":"Hi choice","osm_id":"6257868084","shop":"convenience"}},
{"type":"Feature","geometry":{"type":"Point","coordinates":[11.8563731,-4.7943431]},"properties":{"fid":"1724","full_id":"n6257868081","name":"Tesco","not:brand:wikidata":"Q487494","osm_id":"6257868081","shop":"supermarket"}},
{"type":"Feature","geometry":{"type":"Point","coordinates":[11.8557407,-4.7945353]},"properties":{"fid":"1722","full_id":"n6257868079","name":"Societe portugalia","osm_id":"6257868079","shop":"convenience"}},
{"type":"Feature","geometry":{"type":"Point","coordinates":[11.8563182,-4.7943709]},"properties":{"fid":"1718","full_id":"n6257868075","name":"Magasin chinois","osm_id":"6257868075","shop":"convenience"}},
{"type":"Feature","geometry":{"type":"Point","coordinates":[11.8563008,-4.7943784]},"properties":{"fid":"1717","full_id":"n6257868074","name":"Fabrini","osm_id":"6257868074","shop":"convenience"}},
{"type":"Feature","geometry":{"type":"Point","coordinates":[11.853223,-4.7949058]},"properties":{"fid":"1716","full_id":"n6257868073","name":"Hi choice","osm_id":"6257868073","shop":"convenience"}},
{"type":"Feature","geometry":{"type":"Point","coordinates":[11.8535776,-4.7951188]},"properties":{"amenity":"fast_food","fid":"1710","full_id":"n6257868067","name":"Cocopain","osm_id":"6257868067","shop":"convenience"}},
{"type":"Feature","geometry":{"type":"Point","coordinates":[11.8547765,-4.7947323]},"properties":{"amenity":"restaurant","fid":"1705","full_id":"n6257868062","name":"Royal park","osm_id":"6257868062","shop":"convenience","tourism":"hotel"}},
{"type":"Feature","geometry":{"type":"Point","coordinates":[11.8553912,-4.7940476]},"properties":{"fid":"1703","full_id":"n6257868060","name":"Univers kgr","osm_id":"6257868060","shop":"convenience"}},
{"type":"Feature","geometry":{"type":"Point","coordinates":[11.8555823,-4.7937955]},"properties":{"fid":"1702","full_id":"n6257868059","name":"La maree","osm_id":"6257868059","shop":"convenience"}},
{"type":"Feature","geometry":{"type":"Point","coordinates":[11.8554689,-4.7939882]},"properties":{"fid":"1701","full_id":"n6257868058","name":"Ets MM Super mini alimentation plateau","osm_id":"6257868058","shop":"supermarket"}},
{"type":"Feature","geometry":{"type":"Point","coordinates":[11.8509081,-4.7928213]},"properties":{"fid":"1668","full_id":"n6257868025","name":"Hotel du port","osm_id":"6257868025","shop":"convenience","tourism":"hotel"}},
{"type":"Feature","geometry":{"type":"Point","coordinates":[11.8509696,-4.7929525]},"properties":{"fid":"1667","full_id":"n6257868024","name":"Akm","osm_id":"6257868024","shop":"supermarket"}},
{"type":"Feature","geometry":{"type":"Point","coordinates":[11.85273,-4.791809]},"properties":{"fid":"1663","full_id":"n6257868020","name":"Hotel saint jacqued","osm_id":"6257868020","shop":"convenience","tourism":"hotel"}},
{"type":"Feature","geometry":{"type":"Point","coordinates":[11.8525024,-4.7900535]},"properties":{"fid":"1653","full_id":"n6257868010","name":"Hotel la cotiere","osm_id":"6257868010","shop":"convenience","tourism":"hotel"}},
{"type":"Feature","geometry":{"type":"Point","coordinates":[11.8507675,-4.7951098]},"properties":{"fid":"1651","full_id":"n6257868008","name":"Original","osm_id":"6257868008","shop":"convenience"}},
{"type":"Feature","geometry":{"type":"Point","coordinates":[11.8508878,-4.795018]},"properties":{"amenity":"restaurant","fid":"1649","full_id":"n6257868006","name":"Cafe torino","osm_id":"6257868006","shop":"convenience"}},
{"type":"Feature","geometry":{"type":"Point","coordinates":[11.8512752,-4.7948823]},"properties":{"amenity":"restaurant","fid":"1648","full_id":"n6257868005","name":"Le zanzi","osm_id":"6257868005","shop":"convenience"}},
{"type":"Feature","geometry":{"type":"Point","coordinates":[11.8511825,-4.7949257]},"properties":{"fid":"1645","full_id":"n6257868002","name":"Atlas hotel","osm_id":"6257868002","shop":"convenience","tourism":"hotel"}},
{"type":"Feature","geometry":{"type":"Point","coordinates":[11.849762,-4.7952347]},"properties":{"fid":"1644","full_id":"n6257868001","name":"Tgc","osm_id":"6257868001","shop":"convenience"}},
{"type":"Feature","geometry":{"type":"Point","coordinates":[11.8519131,-4.7937826]},"properties":{"amenity":"restaurant","fid":"1641","full_id":"n6257867998","name":"Couleur equateur","osm_id":"6257867998","shop":"convenience"}},
{"type":"Feature","geometry":{"type":"Point","coordinates":[11.8494324,-4.7933426]},"properties":{"fid":"1639","full_id":"n6257867995","name":"Sporafric motors","osm_id":"6257867995","shop":"convenience"}},
{"type":"Feature","geometry":{"type":"Point","coordinates":[11.8505223,-4.7936972]},"properties":{"fid":"1638","full_id":"n6257867994","name":"Inalca","osm_id":"6257867994","shop":"convenience"}},
{"type":"Feature","geometry":{"type":"Point","coordinates":[11.8512045,-4.7960169]},"properties":{"amenity":"office","fid":"1618","full_id":"n6257867974","name":"Casino","osm_id":"6257867974","shop":"convenience"}},
{"type":"Feature","geometry":{"type":"Point","coordinates":[11.8597483,-4.792979]},"properties":{"amenity":"office","fid":"1604","full_id":"n6257867960","name":"Gx international","office":"company","osm_id":"6257867960","shop":"convenience"}},
{"type":"Feature","geometry":{"type":"Point","coordinates":[11.860269,-4.7911019]},"properties":{"fid":"1581","full_id":"n6257867863","name":"Alimentation","osm_id":"6257867863","shop":"convenience"}},
{"type":"Feature","geometry":{"type":"Point","coordinates":[11.8603481,-4.7924604]},"properties":{"fid":"1579","full_id":"n6257867861","name":"Societe diverco","osm_id":"6257867861","shop":"convenience"}},
{"type":"Feature","geometry":{"type":"Point","coordinates":[11.8597687,-4.7925153]},"properties":{"fid":"1577","full_id":"n6257867857","name":"Assur le millenaire","office":"insurance","osm_id":"6257867857","shop":"convenience"}},
{"type":"Feature","geometry":{"type":"Point","coordinates":[11.8599133,-4.7923602]},"properties":{"fid":"1575","full_id":"n6257867855","name":"Express photo","osm_id":"6257867855","shop":"convenience"}},
{"type":"Feature","geometry":{"type":"Point","coordinates":[11.8598256,-4.7924401]},"properties":{"fid":"1574","full_id":"n6257867854","name":"Mix shop","osm_id":"6257867854","shop":"convenience"}},
{"type":"Feature","geometry":{"type":"Point","coordinates":[11.8595975,-4.7925999]},"properties":{"fid":"1571","full_id":"n6257867851","name":"Chris alvin","osm_id":"6257867851","shop":"convenience"}},
{"type":"Feature","geometry":{"type":"Point","coordinates":[11.8537909,-4.7945295]},"properties":{"fid":"1549","full_id":"n6257867805","name":"Park N Shop","osm_id":"6257867805","shop":"supermarket"}},
{"type":"Feature","geometry":{"type":"Point","coordinates":[11.849067,-4.7973804]},"properties":{"amenity":"office","fid":"1496","full_id":"n6257867550","name":"Bureautique services Xerox","office":"company","osm_id":"6257867550","shop":"convenience"}},
{"type":"Feature","geometry":{"type":"Point","coordinates":[11.8502216,-4.7966964]},"properties":{"fid":"1492","full_id":"n6257867546","name":"Canon","office":"company","osm_id":"6257867546","shop":"convenience"}},
{"type":"Feature","geometry":{"type":"Point","coordinates":[11.8501697,-4.7967865]},"properties":{"fid":"1489","full_id":"n6257867543","name":"Congo electricite","office":"company","osm_id":"6257867543","shop":"convenience"}},
{"type":"Feature","geometry":{"type":"Point","coordinates":[11.8544249,-4.7951618]},"properties":{"fid":"1468","full_id":"n6257867522","name":"LG ste regal","osm_id":"6257867522","shop":"convenience"}},
{"type":"Feature","geometry":{"type":"Point","coordinates":[11.8546096,-4.795072]},"properties":{"fid":"1466","full_id":"n6257867520","name":"Sharp Be original","osm_id":"6257867520","shop":"convenience"}},
{"type":"Feature","geometry":{"type":"Point","coordinates":[11.8545146,-4.795129]},"properties":{"fid":"1465","full_id":"n6257867519","name":"Amc telecom","office":"telecommunication","osm_id":"6257867519","shop":"convenience"}},
{"type":"Feature","geometry":{"type":"Point","coordinates":[11.8538694,-4.7953414]},"properties":{"amenity":"store","fid":"1463","full_id":"n6257867517","name":"Societe supersonic","osm_id":"6257867517","shop":"convenience"}},
{"type":"Feature","geometry":{"type":"Point","coordinates":[11.8535167,-4.7955069]},"properties":{"fid":"1460","full_id":"n6257867514","name":"Regal group congo","office":"yes","osm_id":"6257867514","shop":"convenience"}},
{"type":"Feature","geometry":{"type":"Point","coordinates":[11.8580362,-4.7931189]},"properties":{"fid":"1447","full_id":"n6257867501","name":"Ets bmy alimentation","osm_id":"6257867501","shop":"convenience"}},
{"type":"Feature","geometry":{"type":"Point","coordinates":[11.8577855,-4.7929837]},"properties":{"amenity":"office","fid":"1445","full_id":"n6257867499","name":"Solution informatique","osm_id":"6257867499","shop":"convenience"}},
{"type":"Feature","geometry":{"type":"Point","coordinates":[11.8580016,-4.7932069]},"properties":{"amenity":"restaurant","cuisine":"african","fid":"1442","full_id":"n3323403618","name":"La source du village","osm_id":"3323403618","shop":"convenience"}},
{"type":"Feature","geometry":{"type":"Point","coordinates":[11.8580907,-4.7933132]},"properties":{"fid":"1440","full_id":"n6257867494","name":"Cordonnerie cles","osm_id":"6257867494","shop":"convenience"}},
{"type":"Feature","geometry":{"type":"Point","coordinates":[11.8581347,-4.7935735]},"properties":{"amenity":"store","fid":"1439","full_id":"n6257867493","name":"Ets mby","osm_id":"6257867493","shop":"convenience"}},
{"type":"Feature","geometry":{"type":"Point","coordinates":[11.8578163,-4.793374]},"properties":{"amenity":"store","fid":"1437","full_id":"n6257867491","name":"Hk telecom","osm_id":"6257867491","shop":"convenience"}},
{"type":"Feature","geometry":{"type":"Point","coordinates":[11.8578657,-4.7881897]},"properties":{"fid":"1423","full_id":"n6257867473","name":"Velodrome anti complexe","osm_id":"6257867473","shop":"convenience"}},
{"type":"Feature","geometry":{"type":"Point","coordinates":[11.8579601,-4.7884741]},"properties":{"fid":"1420","full_id":"n6257867470","name":"Ets lmn","osm_id":"6257867470","shop":"convenience"}},
{"type":"Feature","geometry":{"type":"Point","coordinates":[11.8579256,-4.7883387]},"properties":{"fid":"1418","full_id":"n6257867468","name":"Mini boulangerie","osm_id":"6257867468","shop":"bakery"}},
{"type":"Feature","geometry":{"type":"Point","coordinates":[11.8579401,-4.7883846]},"properties":{"fid":"1417","full_id":"n6257867467","name":"El vorade","osm_id":"6257867467","shop":"convenience"}},
{"type":"Feature","geometry":{"type":"Point","coordinates":[11.8580005,-4.78863]},"properties":{"fid":"1416","full_id":"n6257867466","name":"Vision optique","osm_id":"6257867466","shop":"convenience"}},
{"type":"Feature","geometry":{"type":"Point","coordinates":[11.8580192,-4.7886703]},"properties":{"fid":"1415","full_id":"n6257867465","name":"Mouemet fleurs","osm_id":"6257867465","shop":"convenience"}},
{"type":"Feature","geometry":{"type":"Point","coordinates":[11.8579939,-4.7885986]},"properties":{"fid":"1413","full_id":"n6257867463","name":"Alimentation et boucherie","osm_id":"6257867463","shop":"convenience"}},
{"type":"Feature","geometry":{"type":"Point","coordinates":[11.8580287,-4.7886905]},"properties":{"fid":"1410","full_id":"n6257867460","name":"Ets makiessee maick","osm_id":"6257867460","shop":"convenience"}},
{"type":"Feature","geometry":{"type":"Point","coordinates":[11.8580352,-4.788701]},"properties":{"fid":"1409","full_id":"n6257867459","name":"Yiyi shop","osm_id":"6257867459","shop":"convenience"}},
{"type":"Feature","geometry":{"type":"Point","coordinates":[11.8583135,-4.7934991]},"properties":{"amenity":"restaurant","fid":"1408","full_id":"n6257867458","name":"Alicia","osm_id":"6257867458","shop":"convenience"}},
{"type":"Feature","geometry":{"type":"Point","coordinates":[11.858486,-4.7934658]},"properties":{"fid":"1407","full_id":"n6257867457","name":"Ets papa kharachi salem","osm_id":"6257867457","shop":"convenience"}},
{"type":"Feature","geometry":{"type":"Point","coordinates":[11.8585648,-4.793437]},"properties":{"fid":"1403","full_id":"n6257867453","name":"Megastore","osm_id":"6257867453","shop":"convenience"}},
{"type":"Feature","geometry":{"type":"Point","coordinates":[11.8580941,-4.7892835]},"properties":{"fid":"1374","full_id":"n6257867424","healthcare":"pharmacy","name":"Pharmacie cbb","osm_id":"6257867424","shop":"convenience"}},
{"type":"Feature","geometry":{"type":"Point","coordinates":[11.8589112,-4.7927885]},"properties":{"amenity":"office","fid":"1372","full_id":"n6257867422","name":"Jbc info","osm_id":"6257867422","shop":"convenience"}},
{"type":"Feature","geometry":{"type":"Point","coordinates":[11.8591736,-4.7925456]},"properties":{"fid":"1369","full_id":"n6257867419","name":"Sporafric batiment","osm_id":"6257867419","shop":"convenience"}},
{"type":"Feature","geometry":{"type":"Point","coordinates":[11.8589501,-4.7928845]},"properties":{"fid":"1368","full_id":"n6257867418","name":"Mamaco","osm_id":"6257867418","shop":"convenience"}},
{"type":"Feature","geometry":{"type":"Point","coordinates":[11.8589286,-4.7928962]},"properties":{"fid":"1367","full_id":"n6257867417","name":"Parisien","osm_id":"6257867417","shop":"convenience"}},
{"type":"Feature","geometry":{"type":"Point","coordinates":[11.8589501,-4.7928667]},"properties":{"amenity":"office","fid":"1365","full_id":"n6257867415","name":"Zeau society","osm_id":"6257867415","shop":"convenience"}},
{"type":"Feature","geometry":{"type":"Point","coordinates":[11.8551505,-4.7918809]},"properties":{"fid":"1356","full_id":"n6257867406","name":"Ets yahya","osm_id":"6257867406","shop":"supermarket"}},
{"type":"Feature","geometry":{"type":"Point","coordinates":[11.8550991,-4.7919689]},"properties":{"fid":"1353","full_id":"n6257867403","name":"Poisssonnerie aquarium","osm_id":"6257867403","shop":"convenience"}},
{"type":"Feature","geometry":{"type":"Point","coordinates":[11.8549548,-4.79227]},"properties":{"amenity":"office","fid":"1350","full_id":"n6257867400","name":"Trans plus international","osm_id":"6257867400","shop":"convenience"}},
{"type":"Feature","geometry":{"type":"Point","coordinates":[11.8570615,-4.7873299]},"properties":{"fid":"1335","full_id":"n6257867383","name":"Batiment industrie","osm_id":"6257867383","shop":"convenience"}},
{"type":"Feature","geometry":{"type":"Point","coordinates":[11.8563688,-4.7884745]},"properties":{"amenity":"office","fid":"1332","full_id":"n6257867380","name":"Wing wah exploration","osm_id":"6257867380","shop":"convenience"}},
{"type":"Feature","geometry":{"type":"Point","coordinates":[11.8598535,-4.7929087]},"properties":{"amenity":"office","fid":"1329","full_id":"n6257867371","name":"Twenti 12","osm_id":"6257867371","shop":"convenience"}},
{"type":"Feature","geometry":{"type":"Point","coordinates":[11.8524338,-4.7960331]},"properties":{"fid":"292","full_id":"n4530850342","name":"Optic Congo","operator":"Optic Congo","osm_id":"4530850342","shop":"convenience"}},
{"type":"Feature","geometry":{"type":"Point","coordinates":[11.855456,-4.7939257]},"properties":{"amenity":"marketplace","fid":"152","full_id":"n3323402211","name":"Marché du plateau","osm_id":"3323402211"}},
{"type":"Feature","geometry":{"type":"Point","coordinates":[11.8555727,-4.7941513]},"properties":{"fid":"85","full_id":"n3323401388","name":"Boulangerie du Plateau","osm_id":"3323401388","shop":"bakery"}},
{"type":"Feature","geometry":{"type":"Point","coordinates":[15.2885558,-4.2723766]},"properties":{"name":"St Regal","shop":"supermarket"}},
{"type":"Feature","geometry":{"type":"Point","coordinates":[11.8602954,-4.7728878]},"properties":{"name":"Bouchérie Guenin","shop":"butcher"}},
{"type":"Feature","geometry":{"type":"Point","coordinates":[16.7959788,-1.2267065]},"properties":{"name":"Zone commerciale","shop":"supermarket"}},
{"type":"Feature","geometry":{"type":"Point","coordinates":[11.8964078,-4.7677949]},"properties":{"name":"Le Marché Makouloungoulou","shop":"convenience"}},
{"type":"Feature","geometry":{"type":"Point","coordinates":[11.8837695,-4.7569626]},"properties":{"name":"Ets TAGADOU","shop":"convenience"}},
{"type":"Feature","geometry":{"type":"Point","coordinates":[11.8905007,-4.7643334]},"properties":{"name":"Boulangerie Baguette d'Excellence","shop":"bakery"}},
{"type":"Feature","geometry":{"type":"Point","coordinates":[11.8891889,-4.7646431]},"properties":{"name":"Ets OSA","shop":"convenience"}},
{"type":"Feature","geometry":{"type":"Point","coordinates":[11.8952292,-4.7678133]},"properties":{"name":"BOULANGERIE STANBOUL","shop":"bakery"}},
{"type":"Feature","geometry":{"type":"Point","coordinates":[11.8906014,-4.7642643]},"properties":{"name":"Ets AGK","shop":"convenience"}},
{"type":"Feature","geometry":{"type":"Point","coordinates":[11.8893775,-4.7645487]},"properties":{"name":"Ets CHARIKA","shop":"convenience"}},
{"type":"Feature","geometry":{"type":"Point","coordinates":[11.9171591,-4.734037]},"properties":{"name":"Boulangerie EL-WAVA","shop":"bakery"}},
{"type":"Feature","geometry":{"type":"Point","coordinates":[11.8741957,-4.7675799]},"properties":{"name":"Ets AGAPE","shop":"convenience"}},
{"type":"Feature","geometry":{"type":"Point","coordinates":[11.8662089,-4.7638671]},"properties":{"name":"Boulangerie Moderne","shop":"bakery"}},
{"type":"Feature","geometry":{"type":"Point","coordinates":[11.8838659,-4.7566701]},"properties":{"name":"Ets AYOUNE 1","shop":"convenience"}},
{"type":"Feature","geometry":{"type":"Point","coordinates":[11.8964889,-4.7757356]},"properties":{"name":"BOULANGERIE K-M-Y de Carlos","shop":"bakery"}},
{"type":"Feature","geometry":{"type":"Point","coordinates":[11.8965865,-4.7753409]},"properties":{"name":"SUPER YAOURT 2","shop":"convenience"}},
{"type":"Feature","geometry":{"type":"Point","coordinates":[11.8970412,-4.7749205]},"properties":{"name":"Boulangerie Pâtisserie Le CONTINENT","shop":"bakery"}},
{"type":"Feature","geometry":{"type":"Point","coordinates":[11.9286372,-4.722887]},"properties":{"name":"Pâtisserie & Supérette de Total","shop":"convenience"}},
{"type":"Feature","geometry":{"type":"Point","coordinates":[11.9091663,-4.7437586]},"properties":{"name":"Ets SOUMPOU","shop":"convenience"}},
{"type":"Feature","geometry":{"type":"Point","coordinates":[11.8999527,-4.7567158]},"properties":{"name":"BOULANGERIE MOUNGA-PAIN","shop":"bakery"}},
{"type":"Feature","geometry":{"type":"Point","coordinates":[11.8957326,-4.7611021]},"properties":{"name":"LCC sarl","shop":"butcher"}},
{"type":"Feature","geometry":{"type":"Point","coordinates":[11.8698621,-4.786929]},"properties":{"name":"boucherie","shop":"butcher"}},
{"type":"Feature","geometry":{"type":"Point","coordinates":[11.9030008,-4.7509351]},"properties":{"name":"Supermarché YK","shop":"convenience"}},
{"type":"Feature","geometry":{"type":"Point","coordinates":[11.9031794,-4.7507298]},"properties":{"name":"Boulangerie Lalla","shop":"bakery"}},
{"type":"Feature","geometry":{"type":"Point","coordinates":[11.9027962,-4.751158]},"properties":{"name":"Boucherie Alga","shop":"butcher"}},
{"type":"Feature","geometry":{"type":"Point","coordinates":[11.9001223,-4.7564912]},"properties":{"name":"Ets Ngaye","shop":"convenience"}},
{"type":"Feature","geometry":{"type":"Point","coordinates":[11.8991166,-4.753113]},"properties":{"name":"Boulangerie Aigle Royale","shop":"bakery"}},
{"type":"Feature","geometry":{"type":"Point","coordinates":[11.8958639,-4.7760355]},"properties":{"name":"Ets SOUMARE","shop":"convenience"}},
{"type":"Feature","geometry":{"type":"Point","coordinates":[11.864602,-4.7704664]},"properties":{"name":"Boulangerie GSD univeral","shop":"bakery"}},
{"type":"Feature","geometry":{"type":"Point","coordinates":[11.8910837,-4.7825773]},"properties":{"amenity":"marketplace","name":"Marché de Mbota"}},
{"type":"Feature","geometry":{"type":"Point","coordinates":[11.8664146,-4.7812799]},"properties":{"name":"Boulangerie Baguette d'Amour","shop":"bakery"}},
{"type":"Feature","geometry":{"type":"Point","coordinates":[11.8756154,-4.7555493]},"properties":{"name":"Marché makayabou","shop":"convenience"}},
{"type":"Feature","geometry":{"type":"Point","coordinates":[11.8782598,-4.7587433]},"properties":{"name":"Ets Fonan","shop":"convenience"}},
{"type":"Feature","geometry":{"type":"Point","coordinates":[11.8675226,-4.7785266]},"properties":{"name":"Boulangerie B.A","shop":"bakery"}},
{"type":"Feature","geometry":{"type":"Point","coordinates":[11.8657265,-4.7879574]},"properties":{"name":"Boulangerie KMY","shop":"bakery"}},
{"type":"Feature","geometry":{"type":"Point","coordinates":[15.2303844,-4.2971541]},"properties":{"name":"Boulangerie NID II","shop":"bakery"}},
{"type":"Feature","geometry":{"type":"Point","coordinates":[15.2325203,-4.2958011]},"properties":{"name":"Ets El MONA","shop":"convenience"}},
{"type":"Feature","geometry":{"type":"Point","coordinates":[11.861296,-4.7635313]},"properties":{"name":"Mini Boulangerie KMY","shop":"bakery"}},
{"type":"Feature","geometry":{"type":"Point","coordinates":[11.8909549,-4.7821909]},"properties":{"name":"Boulangerie Pâtisserie PAIN RAPHAËL","shop":"bakery"}},
{"type":"Feature","geometry":{"type":"Point","coordinates":[11.8734235,-4.7625168]},"properties":{"name":"Petit marché de Paris 2","shop":"convenience"}},
{"type":"Feature","geometry":{"type":"Point","coordinates":[11.8716586,-4.7645876]},"properties":{"name":"Saide 3","shop":"convenience"}},
{"type":"Feature","geometry":{"type":"Point","coordinates":[11.8745278,-4.762725]},"properties":{"name":"Ets M.K","shop":"convenience"}},
{"type":"Feature","geometry":{"type":"Point","coordinates":[11.8738056,-4.76238]},"properties":{"name":"Boulangerie ATAKALKHAYR","shop":"bakery"}},
{"type":"Feature","geometry":{"type":"Point","coordinates":[11.8783797,-4.7793171]},"properties":{"name":"Boulangerie Mara","shop":"bakery"}},
{"type":"Feature","geometry":{"type":"Point","coordinates":[15.2147524,-4.3041552]},"properties":{"name":"Ets Mussiri","shop":"convenience"}},
{"type":"Feature","geometry":{"type":"Point","coordinates":[15.2293196,-4.2987719]},"properties":{"name":"Boulangerie Bonne Chance 2","shop":"bakery"}},
{"type":"Feature","geometry":{"type":"Point","coordinates":[15.2364826,-4.2936002]},"properties":{"name":"Boulanger Pâtissier","shop":"bakery"}},
{"type":"Feature","geometry":{"type":"Point","coordinates":[11.8667979,-4.7874948]},"properties":{"name":"Regal (en Gros et en détail)","shop":"supermarket"}},
{"type":"Feature","geometry":{"type":"Point","coordinates":[11.8784624,-4.7588194]},"properties":{"name":"Boulangerie SOLIDARITÉ","shop":"bakery"}},
{"type":"Feature","geometry":{"type":"Point","coordinates":[11.8672091,-4.7884375]},"properties":{"name":"CENTRE COMMERCIAL MOKA","shop":"supermarket"}},
{"type":"Feature","geometry":{"type":"Point","coordinates":[11.8672294,-4.7886042]},"properties":{"name":"Centre Commercial MOKA","shop":"supermarket"}},
{"type":"Feature","geometry":{"type":"Point","coordinates":[11.866882,-4.7877399]},"properties":{"name":"Regal ( en gros)","shop":"supermarket"}},
{"type":"Feature","geometry":{"type":"Point","coordinates":[15.2315592,-4.2968656]},"properties":{"name":"Boulangerie BRAZZA 2005","shop":"bakery"}},
{"type":"Feature","geometry":{"type":"Point","coordinates":[11.8668756,-4.788354]},"properties":{"name":"AL MINI Marché","shop":"supermarket"}},
{"type":"Feature","geometry":{"type":"Point","coordinates":[15.2421676,-4.290821]},"properties":{"name":"Boulangerie Moderne SOPRESCO","shop":"bakery"}},
{"type":"Feature","geometry":{"type":"Point","coordinates":[15.2393042,-4.2919738]},"properties":{"name":"Boulangerie du Peuple","shop":"bakery"}},
{"type":"Feature","geometry":{"type":"Point","coordinates":[15.2429612,-4.2898536]},"properties":{"name":"Boulangerie","shop":"bakery"}},
{"type":"Feature","geometry":{"type":"Point","coordinates":[15.2464721,-4.2884462]},"properties":{"name":"Boulangerie Pâtisserie de L'OUA","shop":"bakery"}},
{"type":"Feature","geometry":{"type":"Point","coordinates":[15.2601943,-4.2615522]},"properties":{"name":"Ets El-Mouna","shop":"convenience"}},
{"type":"Feature","geometry":{"type":"Point","coordinates":[15.2606035,-4.2588515]},"properties":{"name":"Boulangerie Pâtisserie","shop":"bakery"}},
{"type":"Feature","geometry":{"type":"Point","coordinates":[15.2603682,-4.2589069]},"properties":{"name":"Ets Espoir","shop":"convenience"}},
{"type":"Feature","geometry":{"type":"Point","coordinates":[15.2603985,-4.2587236]},"properties":{"name":"O PLAISIRS SUCRÉS","shop":"convenience"}},
{"type":"Feature","geometry":{"type":"Point","coordinates":[15.2665447,-4.2490802]},"properties":{"name":"Ets NDITA","shop":"convenience"}},
{"type":"Feature","geometry":{"type":"Point","coordinates":[15.2602343,-4.2598458]},"properties":{"name":"Ets MULA ZAINE","shop":"convenience"}},
{"type":"Feature","geometry":{"type":"Point","coordinates":[15.2633319,-4.254881]},"properties":{"name":"Ets Sossa","shop":"convenience"}},
{"type":"Feature","geometry":{"type":"Point","coordinates":[15.2679643,-4.2476685]},"properties":{"name":"Boulangerie HOT BREAD","shop":"bakery"}},
{"type":"Feature","geometry":{"type":"Point","coordinates":[15.268365,-4.2341231]},"properties":{"name":"Boulangerie Hot Bread","shop":"bakery"}},
{"type":"Feature","geometry":{"type":"Point","coordinates":[15.2676996,-4.230362]},"properties":{"name":"Boulangerie Nationale","shop":"bakery"}},
{"type":"Feature","geometry":{"type":"Point","coordinates":[15.2652582,-4.2282676]},"properties":{"name":"PARK 'N' SHOP","shop":"supermarket"}},
{"type":"Feature","geometry":{"type":"Point","coordinates":[15.2629711,-4.2275418]},"properties":{"name":"Super Marché MINI PRIX","shop":"supermarket"}},
{"type":"Feature","geometry":{"type":"Point","coordinates":[15.2602616,-4.2600665]},"properties":{"name":"Au Bon Coin","shop":"convenience"}},
{"type":"Feature","geometry":{"type":"Point","coordinates":[15.2682744,-4.2322762]},"properties":{"name":"PARFUMERIE L'ÉTOILE du Matin","shop":"convenience"}},
{"type":"Feature","geometry":{"type":"Point","coordinates":[15.2682326,-4.2307839]},"properties":{"name":"Ets B.A.T","shop":"convenience"}},
{"type":"Feature","geometry":{"type":"Point","coordinates":[15.262037,-4.2275901]},"properties":{"name":"Boulangerie DORA-MAYA","shop":"bakery"}},
{"type":"Feature","geometry":{"type":"Point","coordinates":[15.2682785,-4.23673]},"properties":{"name":"Supérette MAKKAH","shop":"convenience"}},
{"type":"Feature","geometry":{"type":"Point","coordinates":[15.2638331,-4.2278047]},"properties":{"name":"Ets YAYA","shop":"convenience"}},
{"type":"Feature","geometry":{"type":"Point","coordinates":[15.2624665,-4.227367]},"properties":{"name":"Market de Mazala","shop":"convenience"}},
{"type":"Feature","geometry":{"type":"Point","coordinates":[15.2615541,-4.2282849]},"properties":{"name":"Ets Tovick","shop":"convenience"}},
{"type":"Feature","geometry":{"type":"Point","coordinates":[15.260895,-4.2288654]},"properties":{"name":"Ets TOVICK 2","shop":"convenience"}},
{"type":"Feature","geometry":{"type":"Point","coordinates":[15.2507119,-4.2372239]},"properties":{"name":"Alimentation","shop":"convenience"}},
{"type":"Feature","geometry":{"type":"Point","coordinates":[15.2513362,-4.236536]},"properties":{"name":"La congolaise Mini Prix","shop":"convenience"}},
{"type":"Feature","geometry":{"type":"Point","coordinates":[15.2564892,-4.2326616]},"properties":{"name":"Ets P.S","shop":"convenience"}},
{"type":"Feature","geometry":{"type":"Point","coordinates":[15.256988,-4.2321672]},"properties":{"name":"Boulangerie La Boutique de Pain","shop":"bakery"}},
{"type":"Feature","geometry":{"type":"Point","coordinates":[15.2566446,-4.2325187]},"properties":{"name":"Alimentation Parfumerie NASIRE","shop":"convenience"}},
{"type":"Feature","geometry":{"type":"Point","coordinates":[15.2640213,-4.2306942]},"properties":{"name":"MIE D'ANGE","shop":"bakery"}},
{"type":"Feature","geometry":{"type":"Point","coordinates":[15.2422907,-4.2554578]},"properties":{"name":"Mini boulangerie Chez Mabeta","shop":"bakery"}},
{"type":"Feature","geometry":{"type":"Point","coordinates":[15.2766547,-4.2310561]},"properties":{"name":"Ets IB","shop":"convenience"}},
{"type":"Feature","geometry":{"type":"Point","coordinates":[15.2771876,-4.2313179]},"properties":{"name":"Sow & frère","shop":"convenience"}},
{"type":"Feature","geometry":{"type":"Point","coordinates":[15.2764601,-4.2313986]},"properties":{"name":"Ets marie","shop":"convenience"}},
{"type":"Feature","geometry":{"type":"Point","coordinates":[15.275991,-4.2332685]},"properties":{"name":"Alimentation","shop":"convenience"}},
{"type":"Feature","geometry":{"type":"Point","coordinates":[15.2749841,-4.2340869]},"properties":{"name":"Boucherie","shop":"butcher"}},
{"type":"Feature","geometry":{"type":"Point","coordinates":[15.2761466,-4.2325504]},"properties":{"name":"Ets logique & loyauté","shop":"convenience"}},
{"type":"Feature","geometry":{"type":"Point","coordinates":[15.2757323,-4.2342392]},"properties":{"name":"Alimentation & Boucherie","shop":"convenience"}},
{"type":"Feature","geometry":{"type":"Point","coordinates":[15.2750929,-4.2345892]},"properties":{"name":"Ets AMED & Fall","shop":"convenience"}},
{"type":"Feature","geometry":{"type":"Point","coordinates":[15.2750941,-4.2340909]},"properties":{"name":"Boucherie","shop":"butcher"}},
{"type":"Feature","geometry":{"type":"Point","coordinates":[15.2618196,-4.1588303]},"properties":{"email":"scacsoprogie@gmail.com","name":"SCAC Soprigie","name:fr":"SCAC Soprigie","phone":"00242056581110","shop":"convenience"}},
{"type":"Feature","geometry":{"type":"Point","coordinates":[15.2938725,-4.267024]},"properties":{"name":"S.C.A.C","shop":"butcher"}},
{"type":"Feature","geometry":{"type":"Point","coordinates":[15.2717253,-4.2358508]},"properties":{"name":"Ets Soleil","shop":"convenience"}},
{"type":"Feature","geometry":{"type":"Point","coordinates":[15.2729956,-4.2324069]},"properties":{"name":"Ets MGi","shop":"convenience"}},
{"type":"Feature","geometry":{"type":"Point","coordinates":[15.2959754,-4.243914]},"properties":{"name":"Bon Boeuf Boucherie","shop":"butcher"}},
{"type":"Feature","geometry":{"type":"Point","coordinates":[15.2856173,-4.2442705]},"properties":{"name":"Africa Market","shop":"supermarket"}},
{"type":"Feature","geometry":{"type":"Point","coordinates":[15.2829826,-4.2342832]},"properties":{"name":"Boulangerie Moderne & Artisanale","shop":"bakery"}},
{"type":"Feature","geometry":{"type":"Point","coordinates":[15.2907117,-4.2400412]},"properties":{"name":"Boulangerie du Peuple","shop":"bakery"}},
{"type":"Feature","geometry":{"type":"Point","coordinates":[15.271046,-4.2362712]},"properties":{"name":"Boulangerie iPhone","shop":"bakery"}},
{"type":"Feature","geometry":{"type":"Point","coordinates":[15.2794625,-4.2331835]},"properties":{"name":"Boulangerie de Texaco","shop":"bakery"}},
{"type":"Feature","geometry":{"type":"Point","coordinates":[15.2844831,-4.2406834]},"properties":{"name":"Boulangerie Mimi","shop":"bakery"}},
{"type":"Feature","geometry":{"type":"Point","coordinates":[15.2729556,-4.2530464]},"properties":{"name":"Boulangerie France Moderne","shop":"bakery"}},
{"type":"Feature","geometry":{"type":"Point","coordinates":[15.2817357,-4.2389633]},"properties":{"name":"MH Boulangerie Itoumbi","shop":"bakery"}},
{"type":"Feature","geometry":{"type":"Point","coordinates":[15.2793647,-4.2605604]},"properties":{"name":"Cosmos","shop":"supermarket"}},
{"type":"Feature","geometry":{"type":"Point","coordinates":[15.2775142,-4.2588621]},"properties":{"name":"Boulangerie Salam","shop":"bakery"}},
{"type":"Feature","geometry":{"type":"Point","coordinates":[15.2800416,-4.2607201]},"properties":{"name":"Cosmos","shop":"supermarket"}},
{"type":"Feature","geometry":{"type":"Point","coordinates":[15.2672341,-4.2290029]},"properties":{"name":"Boulangerie ets El-wavha","shop":"bakery"}},
{"type":"Feature","geometry":{"type":"Point","coordinates":[11.931289,-4.7043226]},"properties":{"name":"Boulangerie DAN FOOD","shop":"bakery"}},
{"type":"Feature","geometry":{"type":"Point","coordinates":[15.2105488,-4.3095967]},"properties":{"name":"Boulangerie Patisserie","shop":"bakery"}},
{"type":"Feature","geometry":{"type":"Point","coordinates":[15.3580662,-4.118462]},"properties":{"amenity":"marketplace","name":"Marché ancien péage"}},
{"type":"Feature","geometry":{"type":"LineString","coordinates":[[15.2398039,-4.2994331],[15.2405019,-4.2982938],[15.2410494,-4.2986272],[15.240377,-4.2997812],[15.2398039,-4.2994331]]},"properties":{"amenity":"marketplace","name":"Marche Total"}},
{"type":"Feature","geometry":{"type":"LineString","coordinates":[[11.8722449,-4.7931689],[11.8719855,-4.7943989],[11.8731132,-4.7946384],[11.8733756,-4.7933788],[11.8722449,-4.7931689]]},"properties":{"alt_name":"Marché de l'Och","amenity":"marketplace","landuse":"commercial","name":"Marché OUI"}},
{"type":"Feature","geometry":{"type":"LineString","coordinates":[[11.8595836,-4.7801967],[11.8599146,-4.7801965],[11.8599144,-4.7798166],[11.8596254,-4.7798167],[11.8596254,-4.7798805],[11.85958,-4.7798805],[11.8595801,-4.7799734],[11.8595199,-4.7799735],[11.85952,-4.7800673],[11.8595836,-4.7800672],[11.8595836,-4.7801967]]},"properties":{"name":"Sunrise","shop":"supermarket"}},
{"type":"Feature","geometry":{"type":"LineString","coordinates":[[11.8539341,-4.7953691],[11.8542559,-4.7952411],[11.8541061,-4.794867],[11.8540104,-4.7949051],[11.8539594,-4.7947778],[11.8537333,-4.7948677],[11.8539341,-4.7953691]]},"properties":{"name":"Casino","shop":"supermarket"}},
{"type":"Feature","geometry":{"type":"LineString","coordinates":[[11.8832767,-4.7904932],[11.8845082,-4.7916596],[11.8840526,-4.7921373],[11.8828211,-4.7909709],[11.8832767,-4.7904932]]},"properties":{"amenity":"marketplace","name":"Marché Tié Tié"}},
{"type":"Feature","geometry":{"type":"LineString","coordinates":[[15.9026472,-0.483924],[15.9035354,-0.4841525],[15.9034138,-0.4846021],[15.9025219,-0.4843773],[15.9026472,-0.483924]]},"properties":{"amenity":"marketplace","landuse":"retail","name":"Marché d'Owando"}},
{"type":"Feature","geometry":{"type":"LineString","coordinates":[[12.2282655,-4.5111623],[12.2286653,-4.5112173],[12.228697,-4.5109877],[12.2282973,-4.5109327],[12.2282655,-4.5111623]]},"properties":{"amenity":"marketplace","name":"Marché de Bilala"}},
{"type":"Feature","geometry":{"type":"LineString","coordinates":[[16.0572554,1.6157299],[16.0568069,1.6164106],[16.0564583,1.6170133],[16.0563952,1.6171399],[16.0570261,1.6174814],[16.0578259,1.6177264],[16.0580544,1.6169765],[16.0582617,1.6164189],[16.0572554,1.6157299]]},"properties":{"amenity":"marketplace","name":"Marché de Ouésso","source_type":"Bradt"}},
{"type":"Feature","geometry":{"type":"LineString","coordinates":[[13.3516272,-3.6836149],[13.3518998,-3.6834627],[13.3523906,-3.6843105],[13.3520988,-3.6844944],[13.3516272,-3.6836149]]},"properties":{"amenity":"marketplace","name":"Marché de Sibiti"}},
{"type":"Feature","geometry":{"type":"LineString","coordinates":[[11.8664052,-4.771497],[11.8667002,-4.7717776],[11.8664266,-4.7720476],[11.8661396,-4.7717776],[11.8664052,-4.771497]]},"properties":{"amenity":"marketplace","barrier":"block","name":"Marché de Mvoumvou"}},
{"type":"Feature","geometry":{"type":"LineString","coordinates":[[11.8990093,-4.8019872],[11.8998045,-4.8028061],[11.8992302,-4.8033344],[11.8984526,-4.8024891],[11.8990093,-4.8019872]]},"properties":{"amenity":"marketplace","building":"yes","name":"Marché de la Liberté"}},
{"type":"Feature","geometry":{"type":"LineString","coordinates":[[11.8767802,-4.8266558],[11.8766381,-4.8267996],[11.8768253,-4.8270176],[11.8769787,-4.8268626],[11.8767802,-4.8266558]]},"properties":{"amenity":"marketplace","building":"yes","name":"Marche de Tchimbamba"}},
{"type":"Feature","geometry":{"type":"LineString","coordinates":[[11.8562939,-4.8044794],[11.8562925,-4.8045388],[11.8571216,-4.8045588],[11.857123,-4.8044993],[11.8567081,-4.8044893],[11.8562939,-4.8044794]]},"properties":{"amenity":"marketplace","building":"yes","name":"marché de la Gendarmerie","operator":"marché de la Gendarmerie"}},
{"type":"Feature","geometry":{"type":"LineString","coordinates":[[11.8540633,-4.7947344],[11.8541054,-4.7948338],[11.8544251,-4.7946992],[11.8546332,-4.7946116],[11.854591,-4.7945123],[11.8540633,-4.7947344]]},"properties":{"building":"yes","name":"Ste Regal Office","shop":"supermarket"}},
{"type":"Feature","geometry":{"type":"LineString","coordinates":[[12.6762727,-4.2055086],[12.6770266,-4.2061568],[12.677115,-4.2061031],[12.6770766,-4.2048833],[12.6769266,-4.2047414],[12.6762727,-4.2055086]]},"properties":{"amenity":"marketplace","building":"yes","name":"Marché de Dolisie"}},
{"type":"Feature","geometry":{"type":"LineString","coordinates":[[15.2517968,-4.1883337],[15.2519107,-4.1890016],[15.2523895,-4.1889281],[15.2523192,-4.1883438],[15.2522823,-4.188297],[15.252212,-4.1882736],[15.2517968,-4.1883337]]},"properties":{"amenity":"marketplace","name":"Marché de Nkombo"}},
{"type":"Feature","geometry":{"type":"LineString","coordinates":[[15.2474248,-4.2872331],[15.2476957,-4.2870779],[15.247795,-4.2872411],[15.2474812,-4.2874203],[15.2474356,-4.2873347],[15.2474624,-4.287316],[15.2474248,-4.2872331]]},"properties":{"name":"ASIA","shop":"supermarket","wheelchair":"yes"}},
{"type":"Feature","geometry":{"type":"LineString","coordinates":[[11.8627074,-4.7497242],[11.8627941,-4.7497217],[11.8628,-4.7499253],[11.8627133,-4.7499278],[11.8627074,-4.7497242]]},"properties":{"brand":"Total","brand:wikidata":"Q154037","brand:wikipedia":"fr:Total (entreprise)","building":"yes","cuisine":"burger;american;g","name":"Total","shop":"convenience"}},
{"type":"Feature","geometry":{"type":"LineString","coordinates":[[11.8634641,-4.7877045],[11.8637458,-4.7875959],[11.8639724,-4.7881799],[11.8636908,-4.7882885],[11.8634641,-4.7877045]]},"properties":{"amenity":"marketplace","building":"yes","name":"Marché Frontière"}},
{"type":"Feature","geometry":{"type":"LineString","coordinates":[[11.8889895,-4.8019693],[11.8890314,-4.8019774],[11.8890012,-4.8021108],[11.8889605,-4.8021003],[11.8889895,-4.8019693]]},"properties":{"building":"commercial","building:condition":"poor","building:levels":"1","building:material":"concrete","shop":"convenience"}},
{"type":"Feature","geometry":{"type":"LineString","coordinates":[[11.8877825,-4.7995618],[11.8878664,-4.7995798],[11.8878547,-4.7996333],[11.8877718,-4.7996161],[11.8877825,-4.7995618]]},"properties":{"building":"commercial","building:condition":"poor","building:levels":"1","building:material":"concrete","shop":"convenience"}},
{"type":"Feature","geometry":{"type":"LineString","coordinates":[[11.887012,-4.7984074],[11.8870371,-4.7984121],[11.8870211,-4.7984817],[11.8869966,-4.7984766],[11.887012,-4.7984074]]},"properties":{"building":"commercial","building:condition":"poor","building:levels":"1","building:material":"wood","shop":"convenience"}},
{"type":"Feature","geometry":{"type":"LineString","coordinates":[[11.886509,-4.8004496],[11.8866103,-4.8004853],[11.8865996,-4.8005252],[11.8865238,-4.8004972],[11.8865285,-4.8004821],[11.8864995,-4.8004731],[11.886509,-4.8004496]]},"properties":{"amenity":"bar","building":"commercial","building:condition":"poor","building:levels":"1","building:material":"concrete","shop":"convenience"}},
{"type":"Feature","geometry":{"type":"LineString","coordinates":[[11.8904525,-4.7999498],[11.8904246,-4.7999788],[11.8903939,-4.7999463],[11.8903838,-4.7999332],[11.8903678,-4.7998918],[11.8903921,-4.799883],[11.8904525,-4.7999498]]},"properties":{"building":"commercial","building:condition":"poor","building:levels":"1","building:material":"concrete","shop":"convenience"}},
{"type":"Feature","geometry":{"type":"LineString","coordinates":[[11.8924656,-4.8024736],[11.892441,-4.8024494],[11.8924851,-4.8024066],[11.8924638,-4.8023832],[11.8924298,-4.8024159],[11.8923895,-4.8023736],[11.8924694,-4.802291],[11.8925084,-4.8023312],[11.8924881,-4.8023502],[11.8925379,-4.8024001],[11.8924656,-4.8024736]]},"properties":{"building":"commercial","building:condition":"average","building:levels":"1","building:material":"concrete","shop":"convenience"}},
{"type":"Feature","geometry":{"type":"LineString","coordinates":[[11.8905064,-4.8002668],[11.8905463,-4.8002478],[11.8905543,-4.8002596],[11.8905168,-4.8002914],[11.8905064,-4.8002668]]},"properties":{"building":"commercial","building:condition":"average","building:levels":"1","building:material":"concrete","shop":"convenience"}},
{"type":"Feature","geometry":{"type":"LineString","coordinates":[[11.8922151,-4.8025052],[11.8922174,-4.8025027],[11.8922156,-4.8025006],[11.8922794,-4.8024414],[11.8922862,-4.80245],[11.8923149,-4.8024228],[11.8923511,-4.8024596],[11.8923193,-4.8024874],[11.892303,-4.8024696],[11.8923008,-4.8024715],[11.8923564,-4.8025317],[11.892358,-4.8025302],[11.8923819,-4.802553],[11.892351,-4.8025806],[11.8923425,-4.8025708],[11.8923094,-4.8026001],[11.8922437,-4.802529],[11.8922404,-4.8025317],[11.8922151,-4.8025052]]},"properties":{"building":"commercial","building:condition":"average","building:levels":"1","building:material":"concrete","shop":"convenience"}},
{"type":"Feature","geometry":{"type":"LineString","coordinates":[[11.8937532,-4.8008255],[11.8937981,-4.8007824],[11.8938068,-4.8007917],[11.8938338,-4.8007675],[11.8938576,-4.800792],[11.8937876,-4.8008597],[11.8937532,-4.8008255]]},"properties":{"building":"commercial","building:condition":"average","building:levels":"1","building:material":"concrete","shop":"convenience"}},
{"type":"Feature","geometry":{"type":"LineString","coordinates":[[11.8924784,-4.8022663],[11.8925471,-4.8022018],[11.8925987,-4.8022563],[11.8925291,-4.8023185],[11.8924784,-4.8022663]]},"properties":{"building":"commercial","building:condition":"average","building:levels":"2","building:material":"concrete","shop":"convenience"}},
{"type":"Feature","geometry":{"type":"LineString","coordinates":[[11.8944185,-4.8033542],[11.8945072,-4.8034558],[11.8944909,-4.8034715],[11.8944405,-4.803415],[11.8944482,-4.8034074],[11.8944084,-4.8033644],[11.8944185,-4.8033542]]},"properties":{"building":"commercial","building:condition":"poor","building:levels":"1","building:material":"wood","shop":"convenience"}},
{"type":"Feature","geometry":{"type":"LineString","coordinates":[[11.8937369,-4.8006657],[11.8938051,-4.800596],[11.8939324,-4.8007197],[11.8938595,-4.8007898],[11.8937369,-4.8006657]]},"properties":{"building":"commercial","building:condition":"average","building:levels":"1","building:material":"concrete","shop":"convenience"}},
{"type":"Feature","geometry":{"type":"LineString","coordinates":[[11.8949306,-4.8038779],[11.894943,-4.803865],[11.8949974,-4.8039227],[11.895003,-4.8039273],[11.8950684,-4.8039944],[11.8950548,-4.8040078],[11.8949306,-4.8038779]]},"properties":{"building":"commercial","building:condition":"poor","building:levels":"1","building:material":"concrete","shop":"convenience"}},
{"type":"Feature","geometry":{"type":"LineString","coordinates":[[11.8908933,-4.8011394],[11.8908733,-4.8011048],[11.8909067,-4.8010851],[11.8909302,-4.8011173],[11.8908933,-4.8011394]]},"properties":{"building":"commercial","building:condition":"average","building:levels":"1","building:material":"wood","shop":"convenience"}},
{"type":"Feature","geometry":{"type":"LineString","coordinates":[[11.8953104,-4.8028188],[11.8953224,-4.8028079],[11.8953405,-4.8028264],[11.895329,-4.8028381],[11.8953104,-4.8028188]]},"properties":{"building":"commercial","building:condition":"poor","building:levels":"1","building:material":"wood","shop":"convenience"}},
{"type":"Feature","geometry":{"type":"LineString","coordinates":[[11.8945475,-4.8019228],[11.8945662,-4.8019081],[11.8945772,-4.801922],[11.8945579,-4.8019373],[11.8945475,-4.8019228]]},"properties":{"building":"commercial","building:condition":"average","building:levels":"1","building:material":"wood","shop":"convenience"}},
{"type":"Feature","geometry":{"type":"LineString","coordinates":[[11.8932369,-4.8033893],[11.893275,-4.8034259],[11.8932214,-4.8034937],[11.8931578,-4.8034699],[11.8931574,-4.8034647],[11.8932369,-4.8033893]]},"properties":{"building":"commercial","building:condition":"average","building:levels":"1","building:material":"concrete","shop":"convenience"}},