{"type":"FeatureCollection","features":[
{"type":"Feature","geometry":{"type":"Point","coordinates":[47.5244744,-18.9208507]},"properties":{"amenity":"marketplace","designation":"Shopping","name":"Marche de Mahamasina"}},
{"type":"Feature","geometry":{"type":"Point","coordinates":[48.4176773,-18.9230049]},"properties":{"amenity":"marketplace"}},
{"type":"Feature","geometry":{"type":"Point","coordinates":[48.4180281,-18.923147]},"properties":{"shop":"convenience"}},
{"type":"Feature","geometry":{"type":"Point","coordinates":[48.4181042,-18.9233214]},"properties":{"beverage":"yes","shop":"convenience"}},
{"type":"Feature","geometry":{"type":"Point","coordinates":[47.6334008,-18.8836882]},"properties":{"beverage":"yes","name":"3 J","shop":"convenience"}},
{"type":"Feature","geometry":{"type":"Point","coordinates":[47.6714249,-18.8624391]},"properties":{"amenity":"fast_food","cuisine":"malagasy","name":"Épicerie Simpa","shop":"convenience"}},
{"type":"Feature","geometry":{"type":"Point","coordinates":[47.6709817,-18.8626689]},"properties":{"beverage":"yes","shop":"convenience"}},
{"type":"Feature","geometry":{"type":"Point","coordinates":[47.6722525,-18.8624833]},"properties":{"beverage":"yes","shop":"convenience"}},
{"type":"Feature","geometry":{"type":"Point","coordinates":[47.6734472,-18.8621306]},"properties":{"beverage":"yes","shop":"convenience"}},
{"type":"Feature","geometry":{"type":"Point","coordinates":[47.6942249,-18.9054903]},"properties":{"shop":"convenience"}},
{"type":"Feature","geometry":{"type":"Point","coordinates":[47.6857504,-18.8770087]},"properties":{"amenity":"fast_food","cuisine":"malagasy","shop":"convenience"}},
{"type":"Feature","geometry":{"type":"Point","coordinates":[47.8700927,-18.927404]},"properties":{"shop":"convenience"}},
{"type":"Feature","geometry":{"type":"Point","coordinates":[47.8827279,-18.9286775]},"properties":{"shop":"convenience"}},
{"type":"Feature","geometry":{"type":"Point","coordinates":[47.8830484,-18.9285943]},"properties":{"amenity":"fast_food","cuisine":"malagasy","name":"Epi-Hôtel Ra Jery","shop":"convenience"}},
{"type":"Feature","geometry":{"type":"Point","coordinates":[47.9537404,-18.9262501]},"properties":{"amenity":"fast_food","cuisine":"malagasy","name":"Epi-Hôtel Chez Edith","shop":"convenience"}},
{"type":"Feature","geometry":{"type":"Point","coordinates":[47.9542888,-18.9257501]},"properties":{"amenity":"fast_food","cuisine":"malagasy","name":"Lovasoa","shop":"convenience"}},
{"type":"Feature","geometry":{"type":"Point","coordinates":[47.9551956,-18.9253487]},"properties":{"amenity":"fast_food","cuisine":"malagasy","name":"Epy-Hotely Tsarafaniry","shop":"convenience"}},
{"type":"Feature","geometry":{"type":"Point","coordinates":[48.0357772,-18.8852055]},"properties":{"name":"Epicerie \"MAO\"","shop":"convenience"}},
{"type":"Feature","geometry":{"type":"Point","coordinates":[48.1357597,-18.8856324]},"properties":{"name":"Epi-Hôtel Valisoa","shop":"convenience"}},
{"type":"Feature","geometry":{"type":"Point","coordinates":[48.1352756,-18.885447]},"properties":{"beverage":"yes","name":"Epi-bar Zandry Kely","shop":"convenience"}},
{"type":"Feature","geometry":{"type":"Point","coordinates":[48.56228,-18.9679272]},"properties":{"shop":"convenience"}},
{"type":"Feature","geometry":{"type":"Point","coordinates":[48.7763471,-18.9671495]},"properties":{"shop":"convenience"}},
{"type":"Feature","geometry":{"type":"Point","coordinates":[48.8431455,-18.9605991]},"properties":{"shop":"convenience"}},
{"type":"Feature","geometry":{"type":"Point","coordinates":[48.8464663,-18.9608149]},"properties":{"shop":"convenience"}},
{"type":"Feature","geometry":{"type":"Point","coordinates":[48.8763241,-18.9699243]},"properties":{"amenity":"fast_food","cuisine":"malagasy","name":"Hôtel Cause Bonne","shop":"convenience"}},
{"type":"Feature","geometry":{"type":"Point","coordinates":[48.9413759,-18.9817903]},"properties":{"amenity":"fast_food","cuisine":"malagasy","name":"Espérance","shop":"convenience"}},
{"type":"Feature","geometry":{"type":"Point","coordinates":[48.9441726,-18.9809982]},"properties":{"shop":"convenience"}},
{"type":"Feature","geometry":{"type":"Point","coordinates":[49.0703124,-18.8223292]},"properties":{"beverage":"yes","name":"Mirandava","shop":"convenience"}},
{"type":"Feature","geometry":{"type":"Point","coordinates":[49.0691979,-18.8205053]},"properties":{"amenity":"fast_food","beverage":"yes","cuisine":"malagasy","name":"Annie","shop":"convenience"}},
{"type":"Feature","geometry":{"type":"Point","coordinates":[49.0691234,-18.8225648]},"properties":{"amenity":"fast_food","cuisine":"malagasy","name":"Mevasoa","shop":"convenience","tourism":"hotel"}},
{"type":"Feature","geometry":{"type":"Point","coordinates":[49.0701298,-18.8221243]},"properties":{"shop":"convenience"}},
{"type":"Feature","geometry":{"type":"Point","coordinates":[49.0698231,-18.8216265]},"properties":{"beverage":"yes","name":"Zanatany","shop":"convenience"}},
{"type":"Feature","geometry":{"type":"Point","coordinates":[49.0679526,-18.8198066]},"properties":{"shop":"convenience"}},
{"type":"Feature","geometry":{"type":"Point","coordinates":[49.0705598,-18.8227932]},"properties":{"shop":"convenience"}},
{"type":"Feature","geometry":{"type":"Point","coordinates":[49.1220805,-18.5909573]},"properties":{"beverage":"yes","shop":"convenience"}},
{"type":"Feature","geometry":{"type":"Point","coordinates":[49.13954,-18.4760504]},"properties":{"name":"Epicerie Franca","shop":"convenience"}},
{"type":"Feature","geometry":{"type":"Point","coordinates":[47.528366,-18.9347983]},"properties":{"name":"Katiuscha","shop":"convenience"}},
{"type":"Feature","geometry":{"type":"Point","coordinates":[47.528068,-18.9341348]},"properties":{"beverage":"yes","shop":"convenience"}},
{"type":"Feature","geometry":{"type":"Point","coordinates":[47.5263348,-18.9214489]},"properties":{"name":"Gerb'OR","shop":"bakery"}},
{"type":"Feature","geometry":{"type":"Point","coordinates":[47.5150238,-18.9082069]},"properties":{"amenity":"marketplace"}},
{"type":"Feature","geometry":{"type":"Point","coordinates":[47.5174975,-18.9083146]},"properties":{"name":"Atomic City","shop":"convenience"}},
{"type":"Feature","geometry":{"type":"Point","coordinates":[47.5214539,-18.910779]},"properties":{"name":"Epiceo","note":"chocoloat","shop":"convenience"}},
{"type":"Feature","geometry":{"type":"Point","coordinates":[47.5204919,-18.9092858]},"properties":{"shop":"convenience"}},
{"type":"Feature","geometry":{"type":"Point","coordinates":[47.5225568,-18.9078551]},"properties":{"amenity":"restaurant","name:en":"HEDIARD","operator":"Hédiard","shop":"convenience"}},
{"type":"Feature","geometry":{"type":"Point","coordinates":[49.5646629,-16.9808368]},"properties":{"shop":"convenience"}},
{"type":"Feature","geometry":{"type":"Point","coordinates":[47.527006,-18.9126506]},"properties":{"shop":"convenience"}},
{"type":"Feature","geometry":{"type":"Point","coordinates":[47.5286316,-18.913486]},"properties":{"amenity":"fast_food","cuisine":"malagasy","shop":"convenience"}},
{"type":"Feature","geometry":{"type":"Point","coordinates":[47.5269415,-18.912449]},"properties":{"name":"Ma Na Soa","shop":"convenience"}},
{"type":"Feature","geometry":{"type":"Point","coordinates":[47.5273059,-18.9131497]},"properties":{"name":"Le Coin du Fermier","shop":"butcher"}},
{"type":"Feature","geometry":{"type":"Point","coordinates":[47.52718,-18.9129743]},"properties":{"shop":"butcher"}},
{"type":"Feature","geometry":{"type":"Point","coordinates":[47.5269285,-18.911905]},"properties":{"name":"Makaty","shop":"supermarket"}},
{"type":"Feature","geometry":{"type":"Point","coordinates":[47.5255719,-18.9538445]},"properties":{"name:fr":"SCORE","operator":"Jumbo Score","shop":"supermarket"}},
{"type":"Feature","geometry":{"type":"Point","coordinates":[47.5267802,-18.9496404]},"properties":{"name":"Leader Price","name:fr":"LEADER PRICE","operator":"Leader Price","shop":"supermarket"}},
{"type":"Feature","geometry":{"type":"Point","coordinates":[47.5253684,-18.9047595]},"properties":{"shop":"convenience"}},
{"type":"Feature","geometry":{"type":"Point","coordinates":[47.5256961,-18.9067618]},"properties":{"name":"ProPain","shop":"bakery"}},
{"type":"Feature","geometry":{"type":"Point","coordinates":[47.5230189,-18.9036685]},"properties":{"shop":"convenience"}},
{"type":"Feature","geometry":{"type":"Point","coordinates":[47.5246451,-18.9055514]},"properties":{"name":"Exquis","shop":"bakery"}},
{"type":"Feature","geometry":{"type":"Point","coordinates":[47.5258274,-18.9078664]},"properties":{"name":"Transcovia","shop":"butcher"}},
{"type":"Feature","geometry":{"type":"Point","coordinates":[47.5256401,-18.9077462]},"properties":{"shop":"convenience"}},
{"type":"Feature","geometry":{"type":"Point","coordinates":[47.527365,-18.9152795]},"properties":{"shop":"convenience"}},
{"type":"Feature","geometry":{"type":"Point","coordinates":[47.5277207,-18.914695]},"properties":{"shop":"convenience"}},
{"type":"Feature","geometry":{"type":"Point","coordinates":[47.5273064,-18.9112506]},"properties":{"amenity":"fast_food","cuisine":"malagasy","name":"Tantely Soasafa","shop":"convenience"}},
{"type":"Feature","geometry":{"type":"Point","coordinates":[47.5272756,-18.9112617]},"properties":{"shop":"convenience"}},
{"type":"Feature","geometry":{"type":"Point","coordinates":[47.5277206,-18.9113008]},"properties":{"shop":"convenience"}},
{"type":"Feature","geometry":{"type":"Point","coordinates":[47.5257076,-18.908793]},"properties":{"name":"Tsena Zina","shop":"convenience"}},
{"type":"Feature","geometry":{"type":"Point","coordinates":[47.526522,-18.9089664]},"properties":{"shop":"butcher"}},
{"type":"Feature","geometry":{"type":"Point","coordinates":[47.5264366,-18.908909]},"properties":{"amenity":"fast_food","cuisine":"malagasy","name":"Hotely Zara","shop":"convenience"}},
{"type":"Feature","geometry":{"type":"Point","coordinates":[47.5251462,-18.9070686]},"properties":{"name":"La Potinière","shop":"bakery"}},
{"type":"Feature","geometry":{"type":"Point","coordinates":[47.523094,-18.9048561]},"properties":{"name":"Blanche Neige","shop":"bakery"}},
{"type":"Feature","geometry":{"type":"Point","coordinates":[47.5312553,-18.9243003]},"properties":{"shop":"convenience"}},
{"type":"Feature","geometry":{"type":"Point","coordinates":[47.5318652,-18.9199984]},"properties":{"shop":"convenience"}},
{"type":"Feature","geometry":{"type":"Point","coordinates":[47.5317684,-18.9202673]},"properties":{"shop":"convenience"}},
{"type":"Feature","geometry":{"type":"Point","coordinates":[47.5315846,-18.9196099]},"properties":{"shop":"convenience"}},
{"type":"Feature","geometry":{"type":"Point","coordinates":[47.5591165,-18.8793307]},"properties":{"shop":"butcher"}},
{"type":"Feature","geometry":{"type":"Point","coordinates":[47.5591251,-18.8793245]},"properties":{"shop":"convenience"}},
{"type":"Feature","geometry":{"type":"Point","coordinates":[47.5589433,-18.8793275]},"properties":{"beverage":"yes","shop":"convenience"}},
{"type":"Feature","geometry":{"type":"Point","coordinates":[47.5589081,-18.8793292]},"properties":{"shop":"convenience"}},
{"type":"Feature","geometry":{"type":"Point","coordinates":[47.5588112,-18.8793682]},"properties":{"name":"Boucherie Jacob","shop":"butcher"}},
{"type":"Feature","geometry":{"type":"Point","coordinates":[47.5587752,-18.8793803]},"properties":{"shop":"convenience"}},
{"type":"Feature","geometry":{"type":"Point","coordinates":[47.5593509,-18.8793198]},"properties":{"shop":"convenience"}},
{"type":"Feature","geometry":{"type":"Point","coordinates":[47.559498,-18.8793698]},"properties":{"shop":"convenience"}},
{"type":"Feature","geometry":{"type":"Point","coordinates":[47.5595252,-18.8793746]},"properties":{"shop":"convenience"}},
{"type":"Feature","geometry":{"type":"Point","coordinates":[47.5587777,-18.8791524]},"properties":{"amenity":"fast_food","cuisine":"malagasy","shop":"convenience"}},
{"type":"Feature","geometry":{"type":"Point","coordinates":[47.5592459,-18.879313]},"properties":{"shop":"convenience"}},
{"type":"Feature","geometry":{"type":"Point","coordinates":[47.478955,-18.8518666]},"properties":{"name":"Leader Price","shop":"supermarket"}},
{"type":"Feature","geometry":{"type":"Point","coordinates":[47.51708,-18.9131207]},"properties":{"name":"Shoprite","shop":"supermarket"}},
{"type":"Feature","geometry":{"type":"Point","coordinates":[48.2252152,-18.9458944]},"properties":{"name":"Rinoh-Rinah","shop":"convenience"}},
{"type":"Feature","geometry":{"type":"Point","coordinates":[49.2917562,-12.2832778]},"properties":{"shop":"supermarket"}},
{"type":"Feature","geometry":{"type":"Point","coordinates":[47.5334337,-18.9137463]},"properties":{"name":"Mascotte","shop":"convenience"}},
{"type":"Feature","geometry":{"type":"Point","coordinates":[47.5329933,-18.9063079]},"properties":{"name":"Nane","shop":"convenience"}},
{"type":"Feature","geometry":{"type":"Point","coordinates":[49.4610708,-17.4830397]},"properties":{"beverage":"yes","shop":"convenience"}},
{"type":"Feature","geometry":{"type":"Point","coordinates":[49.4641819,-17.4792572]},"properties":{"beverage":"yes","shop":"convenience"}},
{"type":"Feature","geometry":{"type":"Point","coordinates":[49.4097347,-17.3823316]},"properties":{"beverage":"yes","name":"Steev","shop":"convenience"}},
{"type":"Feature","geometry":{"type":"Point","coordinates":[49.4079402,-17.3752697]},"properties":{"beverage":"yes","name":"Zita","shop":"convenience"}},
{"type":"Feature","geometry":{"type":"Point","coordinates":[49.5865184,-16.92159]},"properties":{"beverage":"yes","shop":"convenience"}},
{"type":"Feature","geometry":{"type":"Point","coordinates":[49.5861758,-16.9211011]},"properties":{"amenity":"fast_food","cuisine":"malagasy","name":"Le Jardin de Nat & Fred","shop":"convenience","tourism":"hotel"}},
{"type":"Feature","geometry":{"type":"Point","coordinates":[47.5259477,-18.891799]},"properties":{"name":"Shoprite Ambodivona","operator":"Shoprite","shop":"supermarket"}},
{"type":"Feature","geometry":{"type":"Point","coordinates":[46.3170598,-15.7188523]},"properties":{"name":"Boulangerie Gerblé","shop":"bakery"}},
{"type":"Feature","geometry":{"type":"Point","coordinates":[46.319457,-15.7160997]},"properties":{"name":"Le Quartier du Pain","shop":"bakery"}},
{"type":"Feature","geometry":{"type":"Point","coordinates":[46.3197105,-15.714798]},"properties":{"name":"Blé d'Or","shop":"bakery"}},
{"type":"Feature","geometry":{"type":"Point","coordinates":[46.3191463,-15.712604]},"properties":{"shop":"bakery"}},
{"type":"Feature","geometry":{"type":"Point","coordinates":[47.52432,-18.9054349]},"properties":{"name":"Shoprite","opening_hours":"Mo-Sa 08:30-19:30; Su 08:30-15:00","shop":"supermarket"}},
{"type":"Feature","geometry":{"type":"Point","coordinates":[49.3773266,-18.1327703]},"properties":{"amenity":"fast_food","beverage":"yes","cuisine":"malagasy","name":"Mahavoky","shop":"convenience"}},
{"type":"Feature","geometry":{"type":"Point","coordinates":[49.4038577,-18.152606]},"properties":{"operator":"Score","shop":"supermarket"}},
{"type":"Feature","geometry":{"type":"Point","coordinates":[49.4047715,-18.1496988]},"properties":{"name":"Huo Yung Kai","shop":"convenience"}},
{"type":"Feature","geometry":{"type":"Point","coordinates":[49.4123112,-18.1555868]},"properties":{"name":"SCORE","operator":"Score","shop":"supermarket"}},
{"type":"Feature","geometry":{"type":"Point","coordinates":[49.4157849,-18.1557583]},"properties":{"name":"La chocolatière","shop":"convenience"}},
{"type":"Feature","geometry":{"type":"Point","coordinates":[49.409973,-18.1522002]},"properties":{"name":"Bruno Glacier","note":"salon de thé","shop":"bakery"}},
{"type":"Feature","geometry":{"type":"Point","coordinates":[49.4165499,-18.15466]},"properties":{"brand":"Shoprite","brand:wikidata":"Q1857639","name":"Shoprite","shop":"supermarket"}},
{"type":"Feature","geometry":{"type":"Point","coordinates":[49.399508,-18.1324522]},"properties":{"amenity":"marketplace"}},
{"type":"Feature","geometry":{"type":"Point","coordinates":[49.831286,-17.0326318]},"properties":{"beverage":"yes","shop":"convenience"}},
{"type":"Feature","geometry":{"type":"Point","coordinates":[49.8317182,-17.0313261]},"properties":{"beverage":"yes","name":"Centrale","shop":"convenience"}},
{"type":"Feature","geometry":{"type":"Point","coordinates":[49.8321568,-17.029096]},"properties":{"name":"Le Noyau","shop":"convenience"}},
{"type":"Feature","geometry":{"type":"Point","coordinates":[49.832082,-17.0265598]},"properties":{"shop":"convenience"}},
{"type":"Feature","geometry":{"type":"Point","coordinates":[49.8332055,-17.0242066]},"properties":{"beverage":"yes","shop":"convenience"}},
{"type":"Feature","geometry":{"type":"Point","coordinates":[49.8336627,-17.0232341]},"properties":{"shop":"convenience"}},
{"type":"Feature","geometry":{"type":"Point","coordinates":[49.8522815,-17.0012008]},"properties":{"shop":"convenience"}},
{"type":"Feature","geometry":{"type":"Point","coordinates":[49.8534125,-17.0019397]},"properties":{"shop":"convenience"}},
{"type":"Feature","geometry":{"type":"Point","coordinates":[49.8518296,-17.0006158]},"properties":{"shop":"convenience"}},
{"type":"Feature","geometry":{"type":"Point","coordinates":[49.8521019,-17.0003205]},"properties":{"beverage":"yes","name":"Coco-Pain","shop":"convenience"}},
{"type":"Feature","geometry":{"type":"Point","coordinates":[49.8518363,-16.9991335]},"properties":{"shop":"supermarket"}},
{"type":"Feature","geometry":{"type":"Point","coordinates":[49.8524478,-17.0003688]},"properties":{"shop":"convenience"}},
{"type":"Feature","geometry":{"type":"Point","coordinates":[49.8519282,-16.9992547]},"properties":{"name":"Nature Aventure","shop":"convenience"}},
{"type":"Feature","geometry":{"type":"Point","coordinates":[49.8530651,-17.0013753]},"properties":{"name":"Pain du Quartier chez Chamsoudine","shop":"butcher"}},
{"type":"Feature","geometry":{"type":"Point","coordinates":[49.8531081,-17.0009858]},"properties":{"amenity":"bar","name":"Chez Arlett","shop":"convenience"}},
{"type":"Feature","geometry":{"type":"Point","coordinates":[49.8530527,-17.0013082]},"properties":{"beverage":"yes","shop":"convenience"}},
{"type":"Feature","geometry":{"type":"Point","coordinates":[49.8521324,-16.9978146]},"properties":{"amenity":"marketplace"}},
{"type":"Feature","geometry":{"type":"Point","coordinates":[49.8519784,-16.9975385]},"properties":{"shop":"convenience"}},
{"type":"Feature","geometry":{"type":"Point","coordinates":[49.8513597,-16.9955719]},"properties":{"shop":"convenience"}},
{"type":"Feature","geometry":{"type":"Point","coordinates":[49.8513334,-16.9954957]},"properties":{"shop":"convenience"}},
{"type":"Feature","geometry":{"type":"Point","coordinates":[49.851160900000007,-16.9930936]},"properties":{"beverage":"yes","name":"Adonica","shop":"convenience"}},
{"type":"Feature","geometry":{"type":"Point","coordinates":[49.8512002,-16.9929852]},"properties":{"beverage":"yes","name":"Rozina","shop":"convenience"}},
{"type":"Feature","geometry":{"type":"Point","coordinates":[46.3196843,-15.7161493]},"properties":{"name":"Boulangerie Moderne","shop":"bakery"}},
{"type":"Feature","geometry":{"type":"Point","coordinates":[43.6474305,-23.6584482]},"properties":{"addr:city":"Anakao","amenity":"marketplace"}},
{"type":"Feature","geometry":{"type":"Point","coordinates":[47.5054865,-18.8759323]},"properties":{"name":"Clafoutis","name:en":"CLAFOUTIS","shop":"bakery"}},
{"type":"Feature","geometry":{"type":"Point","coordinates":[47.5145054,-18.8922311]},"properties":{"amenity":"pharmacy","name":"Pharmacie d'Ankazomanga","name:fr":"SUPERMAKI","shop":"convenience"}},
{"type":"Feature","geometry":{"type":"Point","coordinates":[49.6512476,-14.6611241]},"properties":{"beverage":"yes","shop":"convenience"}},
{"type":"Feature","geometry":{"type":"Point","coordinates":[49.6532534,-14.6690108]},"properties":{"amenity":"marketplace"}},
{"type":"Feature","geometry":{"type":"Point","coordinates":[50.1374002,-14.2631815]},"properties":{"amenity":"marketplace"}},
{"type":"Feature","geometry":{"type":"Point","coordinates":[47.48788,-18.9129485]},"properties":{"shop":"convenience"}},
{"type":"Feature","geometry":{"type":"Point","coordinates":[47.4841142,-18.913527]},"properties":{"shop":"convenience"}},
{"type":"Feature","geometry":{"type":"Point","coordinates":[47.4807775,-18.9149682]},"properties":{"shop":"convenience"}},
{"type":"Feature","geometry":{"type":"Point","coordinates":[47.4709499,-18.9191904]},"properties":{"shop":"convenience"}},
{"type":"Feature","geometry":{"type":"Point","coordinates":[47.5359881,-18.8934601]},"properties":{"shop":"convenience"}},
{"type":"Feature","geometry":{"type":"Point","coordinates":[47.5373185,-18.895409]},"properties":{"shop":"convenience"}},
{"type":"Feature","geometry":{"type":"Point","coordinates":[48.2734639,-13.4056514]},"properties":{"amenity":"fast_food","name":"L'Oasis","shop":"bakery"}},
{"type":"Feature","geometry":{"type":"Point","coordinates":[48.2720108,-13.4011603]},"properties":{"shop":"supermarket"}},
{"type":"Feature","geometry":{"type":"Point","coordinates":[48.2716383,-13.4003404]},"properties":{"operator":"Le Papagaio","shop":"convenience"}},
{"type":"Feature","geometry":{"type":"Point","coordinates":[49.2902723,-12.2840713]},"properties":{"shop":"supermarket"}},
{"type":"Feature","geometry":{"type":"Point","coordinates":[48.3110307,-13.3189784]},"properties":{"name":"Achard Citron (Tsoa)","shop":"convenience"}},
{"type":"Feature","geometry":{"type":"Point","coordinates":[48.3107893,-13.3188767]},"properties":{"name":"Souvenir","shop":"convenience"}},
{"type":"Feature","geometry":{"type":"Point","coordinates":[49.2949238,-12.285972]},"properties":{"name":"Supermarket Indian","shop":"supermarket"}},
{"type":"Feature","geometry":{"type":"Point","coordinates":[49.2917534,-12.2858598]},"properties":{"name":"Madaouf","shop":"supermarket"}},
{"type":"Feature","geometry":{"type":"Point","coordinates":[48.2718089,-13.4029992]},"properties":{"name":"Shampion","shop":"supermarket"}},
{"type":"Feature","geometry":{"type":"Point","coordinates":[47.0866062,-21.4487452]},"properties":{"name":"Supermarché 3000","shop":"supermarket","wheelchair":"yes"}},
{"type":"Feature","geometry":{"type":"Point","coordinates":[47.0882789,-21.4523343]},"properties":{"name":"Boulangerie Fy","shop":"bakery"}},
{"type":"Feature","geometry":{"type":"Point","coordinates":[47.6369811,-21.3037659]},"properties":{"amenity":"marketplace","name":"Ifanadiana Market","source":"GPS"}},
{"type":"Feature","geometry":{"type":"Point","coordinates":[46.3064013,-15.724911]},"properties":{"beverage":"yes","name":"Tantsambo","shop":"convenience"}},
{"type":"Feature","geometry":{"type":"Point","coordinates":[46.3101556,-15.7247831]},"properties":{"name":"Abad","shop":"bakery"}},
{"type":"Feature","geometry":{"type":"Point","coordinates":[46.3167366,-15.712481]},"properties":{"beverage":"yes","name":"Na-Cha","shop":"convenience"}},
{"type":"Feature","geometry":{"type":"Point","coordinates":[46.3170134,-15.7153639]},"properties":{"beverage":"yes","name":"Un peu de toi","shop":"convenience"}},
{"type":"Feature","geometry":{"type":"Point","coordinates":[46.3165346,-15.7206115]},"properties":{"beverage":"yes","name":"Superette Miam","shop":"convenience"}},
{"type":"Feature","geometry":{"type":"Point","coordinates":[46.3166276,-15.7156997]},"properties":{"shop":"convenience"}},
{"type":"Feature","geometry":{"type":"Point","coordinates":[46.3242771,-15.7010393]},"properties":{"name":"Épicerie Fabienne","shop":"convenience"}},
{"type":"Feature","geometry":{"type":"Point","coordinates":[45.5640661,-16.5775044]},"properties":{"amenity":"marketplace"}},
{"type":"Feature","geometry":{"type":"Point","coordinates":[45.4360186,-16.4910849]},"properties":{"shop":"convenience"}},
{"type":"Feature","geometry":{"type":"Point","coordinates":[45.435026,-16.4930978]},"properties":{"shop":"convenience"}},
{"type":"Feature","geometry":{"type":"Point","coordinates":[45.4360411,-16.4983219]},"properties":{"shop":"convenience"}},
{"type":"Feature","geometry":{"type":"Point","coordinates":[43.6603627,-23.3397247]},"properties":{"name":"Marolahy Mini-Bazar","shop":"convenience"}},
{"type":"Feature","geometry":{"type":"Point","coordinates":[43.6138845,-23.1260261]},"properties":{"name":"Milali Laligea","shop":"convenience"}},
{"type":"Feature","geometry":{"type":"Point","coordinates":[43.6139492,-23.1266214]},"properties":{"beverage":"yes","shop":"convenience"}},
{"type":"Feature","geometry":{"type":"Point","coordinates":[43.6140928,-23.1254745]},"properties":{"shop":"convenience"}},
{"type":"Feature","geometry":{"type":"Point","coordinates":[43.6139458,-23.1265655]},"properties":{"shop":"convenience"}},
{"type":"Feature","geometry":{"type":"Point","coordinates":[43.6139132,-23.1274366]},"properties":{"beverage":"yes","shop":"convenience"}},
{"type":"Feature","geometry":{"type":"Point","coordinates":[45.6233675,-22.5006127]},"properties":{"beverage":"yes","shop":"convenience","tourism":"hotel"}},
{"type":"Feature","geometry":{"type":"Point","coordinates":[45.626592,-22.5008562]},"properties":{"shop":"convenience"}},
{"type":"Feature","geometry":{"type":"Point","coordinates":[48.4243656,-17.8221999]},"properties":{"beverage":"yes","shop":"convenience"}},
{"type":"Feature","geometry":{"type":"Point","coordinates":[48.4247773,-17.8224762]},"properties":{"shop":"convenience"}},
{"type":"Feature","geometry":{"type":"Point","coordinates":[48.428479,-17.8244866]},"properties":{"addr:lot":"20.043","name":"Magasin Nadia","shop":"convenience"}},
{"type":"Feature","geometry":{"type":"Point","coordinates":[48.4287415,-17.8244146]},"properties":{"name":"Sariaka","shop":"butcher"}},
{"type":"Feature","geometry":{"type":"Point","coordinates":[48.4306358,-17.8214544]},"properties":{"beverage":"yes","shop":"convenience"}},
{"type":"Feature","geometry":{"type":"Point","coordinates":[48.4241614,-17.8218694]},"properties":{"beverage":"yes","shop":"convenience"}},
{"type":"Feature","geometry":{"type":"Point","coordinates":[48.4303344,-17.8270398]},"properties":{"beverage":"yes","name":"Kenny","shop":"convenience"}},
{"type":"Feature","geometry":{"type":"Point","coordinates":[48.4304251,-17.827031]},"properties":{"addr:lot":"15.581","beverage":"yes","name":"Sandra","shop":"convenience"}},
{"type":"Feature","geometry":{"type":"Point","coordinates":[48.4304842,-17.8267954]},"properties":{"beverage":"yes","name":"Zezene","shop":"convenience"}},
{"type":"Feature","geometry":{"type":"Point","coordinates":[48.426183,-17.8335923]},"properties":{"name":"Boucherie Romu","shop":"butcher"}},
{"type":"Feature","geometry":{"type":"Point","coordinates":[48.4291487,-17.828774]},"properties":{"name":"Pain du Lac","shop":"bakery"}},
{"type":"Feature","geometry":{"type":"Point","coordinates":[48.4256063,-17.8345124]},"properties":{"name":"Épicerie Tsara Safidy","shop":"convenience"}},
{"type":"Feature","geometry":{"type":"Point","coordinates":[48.4272053,-17.8233566]},"properties":{"entrance":"yes"}},
{"type":"Feature","geometry":{"type":"Point","coordinates":[48.4276669,-17.8234056]},"properties":{"entrance":"yes"}},
{"type":"Feature","geometry":{"type":"Point","coordinates":[48.4267911,-17.8237095]},"properties":{"entrance":"yes"}},
{"type":"Feature","geometry":{"type":"Point","coordinates":[48.4276745,-17.8239482]},"properties":{"entrance":"yes"}},
{"type":"Feature","geometry":{"type":"Point","coordinates":[48.4272868,-17.8241406]},"properties":{"entrance":"yes"}},
{"type":"Feature","geometry":{"type":"Point","coordinates":[43.6697987,-23.3527489]},"properties":{"shop":"bakery"}},
{"type":"Feature","geometry":{"type":"Point","coordinates":[46.7693179,-15.8600481]},"properties":{"shop":"convenience"}},
{"type":"Feature","geometry":{"type":"Point","coordinates":[47.0581866,-15.6742021]},"properties":{"name":"Tsena Toky","shop":"convenience"}},
{"type":"Feature","geometry":{"type":"Point","coordinates":[47.0572765,-15.6736844]},"properties":{"beverage":"yes","name":"Fitahiana","shop":"convenience"}},
{"type":"Feature","geometry":{"type":"Point","coordinates":[46.6348396,-15.8973132]},"properties":{"beverage":"yes","name":"Asa Ihany","shop":"convenience"}},
{"type":"Feature","geometry":{"type":"Point","coordinates":[46.9281305,-15.8209166]},"properties":{"beverage":"yes","name":"Asa-Ihany","shop":"convenience"}},
{"type":"Feature","geometry":{"type":"Point","coordinates":[46.9281408,-15.8207878]},"properties":{"name":"Texas","shop":"convenience"}},
{"type":"Feature","geometry":{"type":"Point","coordinates":[47.1152519,-18.3156112]},"properties":{"name":"Andry","shop":"convenience"}},
{"type":"Feature","geometry":{"type":"Point","coordinates":[47.1155579,-18.3158809]},"properties":{"name":"Zaka Be","shop":"butcher"}},
{"type":"Feature","geometry":{"type":"Point","coordinates":[46.3201335,-15.7192977]},"properties":{"amenity":"fast_food","cuisine":"malagasy","name":"Bombetoka","shop":"convenience"}},
{"type":"Feature","geometry":{"type":"Point","coordinates":[46.3443673,-15.7168014]},"properties":{"name":"Boulangerie Antsika","shop":"bakery"}},
{"type":"Feature","geometry":{"type":"Point","coordinates":[46.320144,-15.7193613]},"properties":{"name":"Chez Ali Baba","shop":"convenience"}},
{"type":"Feature","geometry":{"type":"Point","coordinates":[47.5280853,-18.9072323]},"properties":{"name":"Fanantenana","shop":"convenience"}},
{"type":"Feature","geometry":{"type":"Point","coordinates":[47.5284143,-18.9085872]},"properties":{"name":"Point Rouge","shop":"butcher"}},
{"type":"Feature","geometry":{"type":"Point","coordinates":[47.5244486,-18.9031329]},"properties":{"name":"Salohy","shop":"convenience"}},
{"type":"Feature","geometry":{"type":"Point","coordinates":[47.5268155,-18.9047835]},"properties":{"shop":"convenience"}},
{"type":"Feature","geometry":{"type":"Point","coordinates":[47.5268689,-18.9048798]},"properties":{"shop":"convenience"}},
{"type":"Feature","geometry":{"type":"Point","coordinates":[47.5281869,-18.907977]},"properties":{"shop":"convenience"}},
{"type":"Feature","geometry":{"type":"Point","coordinates":[45.3705411,-16.2747179]},"properties":{"shop":"convenience"}},
{"type":"Feature","geometry":{"type":"Point","coordinates":[50.161275,-14.2605487]},"properties":{"name":"Épicerie Melissa","shop":"convenience"}},
{"type":"Feature","geometry":{"type":"Point","coordinates":[50.157625,-14.2551066]},"properties":{"name":"Épicerie du Centre","shop":"convenience"}},
{"type":"Feature","geometry":{"type":"Point","coordinates":[50.1487303,-14.257614]},"properties":{"name":"Épicerie Manjakely","shop":"convenience"}},
{"type":"Feature","geometry":{"type":"Point","coordinates":[50.1583728,-14.2541592]},"properties":{"beverage":"yes","name":"La Récréation","shop":"convenience"}},
{"type":"Feature","geometry":{"type":"Point","coordinates":[50.1562671,-14.2535057]},"properties":{"beverage":"yes","name":"Roana","shop":"convenience"}},
{"type":"Feature","geometry":{"type":"Point","coordinates":[50.1670112,-14.2673949]},"properties":{"beverage":"yes","name":"Chez Franck","shop":"convenience"}},
{"type":"Feature","geometry":{"type":"Point","coordinates":[50.1453217,-14.2585678]},"properties":{"name":"Patisserie","note":"Salon de thé","shop":"bakery"}},
{"type":"Feature","geometry":{"type":"Point","coordinates":[47.5291017,-18.9039781]},"properties":{"name":"Charcuterie Lewis","shop":"butcher"}},
{"type":"Feature","geometry":{"type":"Point","coordinates":[47.9870458,-14.88108]},"properties":{"beverage":"yes","name":"Epi-Bar Au bon coin du parcage","shop":"convenience"}},
{"type":"Feature","geometry":{"type":"Point","coordinates":[47.0363559,-19.8653175]},"properties":{"name":"Score Antsirabe","operator":"Score","shop":"supermarket"}},
{"type":"Feature","geometry":{"type":"Point","coordinates":[47.0334464,-19.871988]},"properties":{"shop":"bakery"}},
{"type":"Feature","geometry":{"type":"Point","coordinates":[48.2729332,-13.4050001]},"properties":{"shop":"convenience"}},
{"type":"Feature","geometry":{"type":"Point","coordinates":[49.2911948,-12.2831706]},"properties":{"amenity":"marketplace"}},
{"type":"Feature","geometry":{"type":"Point","coordinates":[49.2896683,-12.2824594]},"properties":{"amenity":"marketplace"}},
{"type":"Feature","geometry":{"type":"Point","coordinates":[46.3473073,-15.6700263]},"properties":{"name":"Epicerie Sanjila","shop":"convenience"}},
{"type":"Feature","geometry":{"type":"Point","coordinates":[48.272864,-13.4057723]},"properties":{"operator":"ExMagro","shop":"supermarket"}},
{"type":"Feature","geometry":{"type":"Point","coordinates":[45.3171565,-24.2226706]},"properties":{"name":"Tranombarotra Manambina","shop":"convenience"}},
{"type":"Feature","geometry":{"type":"Point","coordinates":[45.3173333,-24.2227153]},"properties":{"shop":"convenience"}},
{"type":"Feature","geometry":{"type":"Point","coordinates":[43.6693809,-23.3524887]},"properties":{"name":"Crémerie Le Mont Blanc","shop":"convenience"}},
{"type":"Feature","geometry":{"type":"Point","coordinates":[43.6715487,-23.3510432]},"properties":{"addr:street":"Rue Docteur RASETA","opening_hours":"Mo-Su 07:00-12:30; Mo-Fr, Su 15:00-20:00","phone":"034 86 431 26"}},
{"type":"Feature","geometry":{"type":"Point","coordinates":[43.6709386,-23.3615114]},"properties":{"name":"L'Market","opening_hours":"08:30-12:30,15:30-20:00","shop":"convenience","wheelchair":"limited"}},
{"type":"Feature","geometry":{"type":"Point","coordinates":[43.6683356,-23.3526525]},"properties":{"name":"Sam Cam & Cie","shop":"convenience"}},
{"type":"Feature","geometry":{"type":"Point","coordinates":[43.6683102,-23.3527209]},"properties":{"name":"Taheri Market","shop":"convenience"}},
{"type":"Feature","geometry":{"type":"Point","coordinates":[49.2940631,-12.2706038]},"properties":{"name":"Leong Hoi","shop":"convenience"}},
{"type":"Feature","geometry":{"type":"Point","coordinates":[47.5245179,-18.9077327]},"properties":{"addr:postcode":"101","addr:street":"Làlana Ravelontsalama Elysée","name":"GIFI","shop":"supermarket"}},
{"type":"Feature","geometry":{"type":"Point","coordinates":[46.3547431,-15.7142861]},"properties":{"name":"Epicerie Maman'i Nicky","shop":"convenience"}},
{"type":"Feature","geometry":{"type":"Point","coordinates":[46.3228946,-15.713126]},"properties":{"name":"Epicerie Tachianat","shop":"convenience"}},
{"type":"Feature","geometry":{"type":"Point","coordinates":[46.3213485,-15.7125311]},"properties":{"name":"Epicerie Vola si Noro","shop":"convenience"}},
{"type":"Feature","geometry":{"type":"Point","coordinates":[46.306125,-15.7181963]},"properties":{"name":"Chez Gaëlle","shop":"convenience"}},
{"type":"Feature","geometry":{"type":"Point","coordinates":[46.3115634,-15.7212657]},"properties":{"shop":"convenience"}},
{"type":"Feature","geometry":{"type":"Point","coordinates":[46.3240291,-15.7214748]},"properties":{"name":"Epicerie Jackman","shop":"convenience"}},
{"type":"Feature","geometry":{"type":"Point","coordinates":[48.2213481,-13.384621]},"properties":{"name":"Bon Prix","shop":"supermarket"}},
{"type":"Feature","geometry":{"type":"Point","coordinates":[46.3117056,-15.7219132]},"properties":{"amenity":"fast_food","beverage":"yes","cuisine":"malagasy","name":"Epi-Snack Bégonia","shop":"convenience"}},
{"type":"Feature","geometry":{"type":"Point","coordinates":[46.3151918,-15.7172213]},"properties":{"name":"Tsarafandray","shop":"convenience"}},
{"type":"Feature","geometry":{"type":"Point","coordinates":[46.3150611,-15.7173358]},"properties":{"beverage":"yes","shop":"convenience"}},
{"type":"Feature","geometry":{"type":"Point","coordinates":[46.314765,-15.7054236]},"properties":{"name":"Epicerie Lamis","shop":"convenience"}},
{"type":"Feature","geometry":{"type":"Point","coordinates":[46.3228959,-15.7144012]},"properties":{"amenity":"bar","beverage":"yes","name":"Poteau-Be","shop":"convenience"}},
{"type":"Feature","geometry":{"type":"Point","coordinates":[46.3223215,-15.7144885]},"properties":{"shop":"convenience"}},
{"type":"Feature","geometry":{"type":"Point","coordinates":[46.3181788,-15.7171399]},"properties":{"beverage":"yes","name":"Chez Matardi","shop":"convenience"}},
{"type":"Feature","geometry":{"type":"Point","coordinates":[46.3072382,-15.7088687]},"properties":{"shop":"convenience"}},
{"type":"Feature","geometry":{"type":"Point","coordinates":[46.3203174,-15.7132559]},"properties":{"shop":"convenience"}},
{"type":"Feature","geometry":{"type":"Point","coordinates":[46.3181341,-15.7138507]},"properties":{"amenity":"fast_food","cuisine":"malagasy","shop":"convenience"}},
{"type":"Feature","geometry":{"type":"Point","coordinates":[46.3201674,-15.7197576]},"properties":{"name":"Epicerie Camille","shop":"convenience"}},
{"type":"Feature","geometry":{"type":"Point","coordinates":[46.3224702,-15.715779]},"properties":{"shop":"convenience"}},
{"type":"Feature","geometry":{"type":"Point","coordinates":[46.3128748,-15.7232597]},"properties":{"name":"Le Boulanger","shop":"bakery"}},
{"type":"Feature","geometry":{"type":"Point","coordinates":[46.3214262,-15.7163751]},"properties":{"amenity":"marketplace","name":"Marché Morafeno"}},
{"type":"Feature","geometry":{"type":"Point","coordinates":[46.3222433,-15.7151665]},"properties":{"shop":"convenience"}},
{"type":"Feature","geometry":{"type":"Point","coordinates":[46.3336923,-15.6577437]},"properties":{"shop":"convenience"}},
{"type":"Feature","geometry":{"type":"Point","coordinates":[46.3181161,-15.7138942]},"properties":{"amenity":"fast_food","cuisine":"malagasy","name":"Tohanaina","shop":"convenience"}},
{"type":"Feature","geometry":{"type":"Point","coordinates":[46.3221361,-15.7141485]},"properties":{"beverage":"yes","name":"Epi-Bar Mamokatra","shop":"convenience"}},
{"type":"Feature","geometry":{"type":"Point","coordinates":[46.321039,-15.7146298]},"properties":{"shop":"convenience"}},
{"type":"Feature","geometry":{"type":"Point","coordinates":[46.3209039,-15.7147606]},"properties":{"name":"Épicerie Bayah","shop":"convenience"}},
{"type":"Feature","geometry":{"type":"Point","coordinates":[46.3216173,-15.7146791]},"properties":{"name":"Épicerie Gasikara","shop":"convenience"}},
{"type":"Feature","geometry":{"type":"Point","coordinates":[46.3055542,-15.7242337]},"properties":{"name":"Épicerie Tanjona","shop":"convenience"}},
{"type":"Feature","geometry":{"type":"Point","coordinates":[46.318267,-15.7177779]},"properties":{"name":"Gros Mahabibo","shop":"convenience"}},
{"type":"Feature","geometry":{"type":"Point","coordinates":[46.3174502,-15.7178848]},"properties":{"shop":"convenience"}},
{"type":"Feature","geometry":{"type":"Point","coordinates":[46.9283573,-15.8206612]},"properties":{"beverage":"yes","name":"Epi-Bar Asa-Ihany","shop":"convenience"}},
{"type":"Feature","geometry":{"type":"Point","coordinates":[47.0587389,-15.6746144]},"properties":{"shop":"convenience"}},
{"type":"Feature","geometry":{"type":"Point","coordinates":[47.0574286,-15.6783583]},"properties":{"note":"abattoir","shop":"butcher"}},
{"type":"Feature","geometry":{"type":"Point","coordinates":[47.0578799,-15.6745092]},"properties":{"shop":"convenience"}},
{"type":"Feature","geometry":{"type":"Point","coordinates":[46.3102024,-15.7242711]},"properties":{"operator":"Multiprice","shop":"convenience"}},
{"type":"Feature","geometry":{"type":"Point","coordinates":[46.86801,-15.5699041]},"properties":{"beverage":"yes","name":"Chez Mariel","shop":"convenience"}},
{"type":"Feature","geometry":{"type":"Point","coordinates":[46.3282106,-15.7190288]},"properties":{"beverage":"yes","name":"Epi-Jiady","shop":"convenience"}},
{"type":"Feature","geometry":{"type":"Point","coordinates":[47.0586702,-15.67442]},"properties":{"shop":"convenience"}},
{"type":"Feature","geometry":{"type":"Point","coordinates":[47.0579328,-15.674272]},"properties":{"beverage":"yes","name":"Perline","shop":"convenience"}},
{"type":"Feature","geometry":{"type":"Point","coordinates":[47.0584109,-15.6744408]},"properties":{"shop":"convenience"}},
{"type":"Feature","geometry":{"type":"Point","coordinates":[47.0582884,-15.6726721]},"properties":{"shop":"convenience"}},
{"type":"Feature","geometry":{"type":"Point","coordinates":[47.0582498,-15.6746716]},"properties":{"shop":"convenience"}},
{"type":"Feature","geometry":{"type":"Point","coordinates":[47.1121307,-15.7127095]},"properties":{"shop":"convenience"}},
{"type":"Feature","geometry":{"type":"Point","coordinates":[47.112018,-15.7131408]},"properties":{"beverage":"yes","shop":"convenience"}},
{"type":"Feature","geometry":{"type":"Point","coordinates":[47.1117757,-15.713553]},"properties":{"beverage":"yes","shop":"convenience"}},
{"type":"Feature","geometry":{"type":"Point","coordinates":[46.6364512,-15.8983154]},"properties":{"beverage":"yes","name":"Epi-Bar de Tamatave","shop":"convenience"}},
{"type":"Feature","geometry":{"type":"Point","coordinates":[46.6358191,-15.8980703]},"properties":{"beverage":"yes","name":"Mahazatra","shop":"convenience"}},
{"type":"Feature","geometry":{"type":"Point","coordinates":[46.635464,-15.8978236]},"properties":{"amenity":"fast_food","beverage":"yes","cuisine":"malagasy","name":"Tongasoa","shop":"convenience"}},
{"type":"Feature","geometry":{"type":"Point","coordinates":[47.9900622,-14.883545]},"properties":{"amenity":"bar","beverage":"yes","name":"Ravinara","shop":"convenience","tourism":"hotel"}},
{"type":"Feature","geometry":{"type":"Point","coordinates":[47.9919424,-14.8877768]},"properties":{"name":"Boucherie de porc","operator":"RATSIRILAZA","shop":"butcher"}},
{"type":"Feature","geometry":{"type":"Point","coordinates":[46.8087758,-25.0294304]},"properties":{"amenity":"marketplace","name":"Marché Market"}},
{"type":"Feature","geometry":{"type":"Point","coordinates":[48.1557349,-20.8520588]},"properties":{"amenity":"marketplace"}},
{"type":"Feature","geometry":{"type":"Point","coordinates":[46.3839841,-25.0382821]},"properties":{"amenity":"marketplace"}},
{"type":"Feature","geometry":{"type":"Point","coordinates":[47.0521456,-24.7566465]},"properties":{"amenity":"marketplace","name":"Tsagnoriha Market"}},
{"type":"Feature","geometry":{"type":"Point","coordinates":[48.8589615,-13.0939889]},"properties":{"name":"Epicerie","shop":"convenience"}},
{"type":"Feature","geometry":{"type":"Point","coordinates":[48.7126688,-13.4940575]},"properties":{"name":"Epicerie","shop":"convenience"}},
{"type":"Feature","geometry":{"type":"Point","coordinates":[46.3348752,-15.6573747]},"properties":{"amenity":"fast_food","beverage":"no","cuisine":"malagasy","name":"Bayah","shop":"convenience"}},
{"type":"Feature","geometry":{"type":"Point","coordinates":[46.969094,-25.0290938]},"properties":{"name":"Sahebas","shop":"supermarket"}},
{"type":"Feature","geometry":{"type":"Point","coordinates":[48.7655057,-13.4401731]},"properties":{"name":"Epicerie","shop":"convenience"}},
{"type":"Feature","geometry":{"type":"Point","coordinates":[43.6700153,-23.3561195]},"properties":{"name":"Score","shop":"supermarket"}},
{"type":"Feature","geometry":{"type":"Point","coordinates":[47.526623,-18.9068926]},"properties":{"bus":"yes","public_transport":"stop_position","share_taxi":"yes"}},
{"type":"Feature","geometry":{"type":"Point","coordinates":[48.9786667,-18.7327923]},"properties":{"name":"Meat Market","shop":"butcher"}},
{"type":"Feature","geometry":{"type":"Point","coordinates":[48.9784521,-18.7327542]},"properties":{"amenity":"marketplace","name":"Farmers' Coop Market","note":"Produce: greens, squash, tomatoes"}},
{"type":"Feature","geometry":{"type":"Point","coordinates":[46.8910463,-25.0113426]},"properties":{"amenity":"marketplace","name":"Soanierana Market"}},
{"type":"Feature","geometry":{"type":"Point","coordinates":[47.5337556,-18.9034941]},"properties":{"name:en":"SUPERMAKI","operator":"Homeopharma","shop":"convenience"}},
{"type":"Feature","geometry":{"type":"Point","coordinates":[45.8666607,-16.0116147]},"properties":{"shop":"convenience"}},
{"type":"Feature","geometry":{"type":"Point","coordinates":[46.2417834,-15.7655634]},"properties":{"amenity":"fast_food","cuisine":"malagasy","name":"Islam Hotel","shop":"convenience"}},
{"type":"Feature","geometry":{"type":"Point","coordinates":[46.3196392,-15.7134032]},"properties":{"shop":"convenience"}},
{"type":"Feature","geometry":{"type":"Point","coordinates":[46.3138086,-15.7208297]},"properties":{"beverage":"yes","name":"Coco","shop":"convenience"}},
{"type":"Feature","geometry":{"type":"Point","coordinates":[46.3160321,-15.7211229]},"properties":{"name":"Magasin Noor Ali Fils","shop":"convenience"}},
{"type":"Feature","geometry":{"type":"Point","coordinates":[46.3139493,-15.7207045]},"properties":{"beverage":"yes","name":"Zam-Zam","shop":"convenience"}},
{"type":"Feature","geometry":{"type":"Point","coordinates":[45.0489994,-20.4087884]},"properties":{"amenity":"marketplace","name":"Ankilizato Market"}},
{"type":"Feature","geometry":{"type":"Point","coordinates":[49.070819,-18.8213982]},"properties":{"shop":"butcher"}},
{"type":"Feature","geometry":{"type":"Point","coordinates":[49.2906924,-12.2771346]},"properties":{"amenity":"bar","name":"Chez Lebaba"}},
{"type":"Feature","geometry":{"type":"Point","coordinates":[47.5213238,-18.8803737]},"properties":{"name":"Leader Price Ankorondrano","shop":"supermarket"}},
{"type":"Feature","geometry":{"type":"Point","coordinates":[47.5192477,-18.8756684]},"properties":{"name":"Shoprite La City","shop":"supermarket"}},
{"type":"Feature","geometry":{"type":"Point","coordinates":[47.1029444,-21.4578546]},"properties":{"name":"Françoise","shop":"convenience","source":"Bing"}},
{"type":"Feature","geometry":{"type":"Point","coordinates":[49.760157,-16.1706998]},"properties":{"shop":"butcher"}},
{"type":"Feature","geometry":{"type":"Point","coordinates":[47.5568883,-18.7698095]},"properties":{"addr:city":"Antananarivo","addr:postcode":"103","name":"Tsenan'Alakamisy","shop":"supermarket"}},
{"type":"Feature","geometry":{"type":"Point","coordinates":[43.6835958,-23.3573235]},"properties":{"addr:city":"Toliara","addr:housenumber":"Lot Cité 04","addr:postcode":"601","addr:street":"TSF","name":"Epicerie Sinclaire","operator":"RAHARIVONY Daniella","shop":"convenience"}},
{"type":"Feature","geometry":{"type":"Point","coordinates":[47.0294465,-24.9142281]},"properties":{"shop":"convenience"}},
{"type":"Feature","geometry":{"type":"Point","coordinates":[44.7695558,-19.0246971]},"properties":{"amenity":"marketplace"}},
{"type":"Feature","geometry":{"type":"Point","coordinates":[48.9317879,-19.4293814]},"properties":{"amenity":"marketplace","name":"Bazary Kely"}},
{"type":"Feature","geometry":{"type":"Point","coordinates":[48.932528,-19.4278348]},"properties":{"name":"Epicerie","shop":"convenience"}},
{"type":"Feature","geometry":{"type":"Point","coordinates":[48.9305499,-19.4310612]},"properties":{"name":"Epicerie","shop":"convenience"}},
{"type":"Feature","geometry":{"type":"Point","coordinates":[49.6325065,-14.6011734]},"properties":{"name":"Roland's Epicerie","shop":"convenience"}},
{"type":"Feature","geometry":{"type":"Point","coordinates":[46.0821059,-25.1762113]},"properties":{"amenity":"marketplace"}},
{"type":"Feature","geometry":{"type":"Point","coordinates":[47.5305103,-18.8985237]},"properties":{"name":"Shop Liantsoa","shop":"supermarket"}},
{"type":"Feature","geometry":{"type":"Point","coordinates":[47.5123322,-18.9259435]},"properties":{"name":"LUC","shop":"convenience"}},
{"type":"Feature","geometry":{"type":"Point","coordinates":[47.489862,-18.9132264]},"properties":{"name":"SCORE ITAOSY","name:fr":"SCORE","shop":"supermarket"}},
{"type":"Feature","geometry":{"type":"Point","coordinates":[47.5036511,-18.9202268]},"properties":{"name":"HVR","shop":"convenience"}},
{"type":"Feature","geometry":{"type":"Point","coordinates":[47.5325131,-18.984308]},"properties":{"name":"Andoharanofotsy","shop":"bakery"}},
{"type":"Feature","geometry":{"type":"Point","coordinates":[46.3194142,-15.7163184]},"properties":{"name":"Younouss","shop":"convenience"}},
{"type":"Feature","geometry":{"type":"Point","coordinates":[46.3194234,-15.7164018]},"properties":{"name":"Mr Bean","shop":"convenience"}},
{"type":"Feature","geometry":{"type":"Point","coordinates":[46.3166392,-15.7186493]},"properties":{"name":"Excellence Rahim","shop":"convenience"}},
{"type":"Feature","geometry":{"type":"Point","coordinates":[46.3188151,-15.7106366]},"properties":{"name":"Alfredo","old_name":"Rahim","shop":"convenience"}},
{"type":"Feature","geometry":{"type":"Point","coordinates":[46.3190809,-15.7096329]},"properties":{"name":"Chebah","shop":"convenience"}},
{"type":"Feature","geometry":{"type":"Point","coordinates":[46.3176412,-15.7196893]},"properties":{"name":"Ya Aly Madad","shop":"convenience"}},
{"type":"Feature","geometry":{"type":"Point","coordinates":[46.3121884,-15.7235017]},"properties":{"name":"Zarah Store","shop":"convenience"}},
{"type":"Feature","geometry":{"type":"Point","coordinates":[46.3121723,-15.72381]},"properties":{"brand":"Leader Price","brand:wikidata":"Q2181426","name":"Leader Price","shop":"supermarket"}},
{"type":"Feature","geometry":{"type":"Point","coordinates":[46.3104092,-15.7249838]},"properties":{"name":"Mouhnir","shop":"convenience"}},
{"type":"Feature","geometry":{"type":"Point","coordinates":[46.3175756,-15.7197757]},"properties":{"shop":"convenience"}},
{"type":"Feature","geometry":{"type":"Point","coordinates":[47.4791965,-18.8525753]},"properties":{"shop":"convenience"}},
{"type":"Feature","geometry":{"type":"Point","coordinates":[49.0503933,-13.190725]},"properties":{"name":"Wholesale Supermarket","shop":"supermarket"}},
{"type":"Feature","geometry":{"type":"Point","coordinates":[47.5203711,-18.907323]},"properties":{"name":"COGIEF","shop":"convenience"}},
{"type":"Feature","geometry":{"type":"Point","coordinates":[47.5202818,-18.9073981]},"properties":{"shop":"bakery"}},
{"type":"Feature","geometry":{"type":"Point","coordinates":[47.5189545,-18.9080784]},"properties":{"name":"H&N","shop":"convenience"}},
{"type":"Feature","geometry":{"type":"Point","coordinates":[47.5124625,-18.9260675]},"properties":{"name":"Luc","shop":"convenience"}},
{"type":"Feature","geometry":{"type":"Point","coordinates":[47.5049628,-18.9333761]},"properties":{"name":"SOCOMA","shop":"convenience"}},
{"type":"Feature","geometry":{"type":"Point","coordinates":[47.5009267,-18.9372859]},"properties":{"name":"Lisa","shop":"convenience"}},
{"type":"Feature","geometry":{"type":"Point","coordinates":[47.5211968,-18.9008752]},"properties":{"name":"MAGRO","shop":"supermarket"}},
{"type":"Feature","geometry":{"type":"Point","coordinates":[47.5237451,-18.8850388]},"properties":{"name":"MAGRO","shop":"supermarket"}},
{"type":"Feature","geometry":{"type":"Point","coordinates":[49.8142031,-14.4762729]},"properties":{"shop":"convenience"}},
{"type":"Feature","geometry":{"type":"Point","coordinates":[49.6613208,-13.205938]},"properties":{"beverage":"yes","name":"Camarade","shop":"convenience"}},
{"type":"Feature","geometry":{"type":"Point","coordinates":[49.6612858,-13.2057922]},"properties":{"name":"Épicerie Maro-Tia","shop":"convenience"}},
{"type":"Feature","geometry":{"type":"Point","coordinates":[49.402086,-13.0692263]},"properties":{"name":"Épicerie Chez Évan","shop":"convenience"}},
{"type":"Feature","geometry":{"type":"Point","coordinates":[49.050863,-13.1942081]},"properties":{"name":"Boulangerie Pain Français","shop":"bakery"}},
{"type":"Feature","geometry":{"type":"Point","coordinates":[49.0499802,-13.1948911]},"properties":{"name":"Boulangerie-Patisserie Apollo","shop":"bakery"}},
{"type":"Feature","geometry":{"type":"Point","coordinates":[47.9880294,-14.8797381]},"properties":{"name":"Bazar de la poste","shop":"convenience"}},
{"type":"Feature","geometry":{"type":"Point","coordinates":[46.3388383,-15.6658343]},"properties":{"shop":"convenience"}},
{"type":"Feature","geometry":{"type":"Point","coordinates":[47.0908399,-21.4433325]},"properties":{"name":"Mini Prix","opening_hours":"Mo-Su 08:30-18:00","shop":"supermarket"}},
{"type":"Feature","geometry":{"type":"Point","coordinates":[49.9472511,-13.861144]},"properties":{"amenity":"marketplace","name":"Marché"}},
{"type":"Feature","geometry":{"type":"Point","coordinates":[49.9717534,-13.974667]},"properties":{"amenity":"marketplace","name":"Bazary Be"}},
{"type":"Feature","geometry":{"type":"Point","coordinates":[47.3562616,-18.9559076]},"properties":{"shop":"convenience"}},
{"type":"Feature","geometry":{"type":"Point","coordinates":[47.8397987,-19.0096263]},"properties":{"amenity":"marketplace","description":"Mantasoa Market PLace","name":"Mantasoa Market"}},
{"type":"Feature","geometry":{"type":"Point","coordinates":[47.5218352,-18.9111488]},"properties":{"email":"lafermedemorarano@yahoo.fr","name:fr":"Epicerie La Ferme de Morarano - Nanou le Savoyard","phone":"0327645068","shop":"convenience","website":"http://nanou.le.savoyard.de.madagascar.over-blog.com"}},
{"type":"Feature","geometry":{"type":"Point","coordinates":[47.4900456,-18.9132212]},"properties":{"name:fr":"HORIZON","shop":"supermarket"}},
{"type":"Feature","geometry":{"type":"Point","coordinates":[46.3179249,-15.7204716]},"properties":{"name:en":"Ambovoalanana","name:fr":"Épicerie Manja","shop":"convenience"}},
{"type":"Feature","geometry":{"type":"Point","coordinates":[46.3257568,-15.6977271]},"properties":{"amenity":"fast_food","beverage":"no","cuisine":"malagasy","name":"Epi-Gargotte Finoana","shop":"convenience"}},
{"type":"Feature","geometry":{"type":"Point","coordinates":[46.321056,-15.7079195]},"properties":{"brand":"Shoprite","brand:wikidata":"Q1857639","name":"Shoprite","operator":"Shoprite","shop":"supermarket"}},
{"type":"Feature","geometry":{"type":"Point","coordinates":[46.3108846,-15.7255053]},"properties":{"name":"Épicerie du Porc","shop":"convenience"}},
{"type":"Feature","geometry":{"type":"Point","coordinates":[49.2039543,-12.4952244]},"properties":{"name":"Bazaary","shop":"supermarket"}},
{"type":"Feature","geometry":{"type":"Point","coordinates":[49.2023413,-12.4973234]},"properties":{"shop":"supermarket"}},
{"type":"Feature","geometry":{"type":"Point","coordinates":[49.2914509,-12.2795276]},"properties":{"addr:street":"Rue Lafayette","internet_access":"wlan","name:fr":"Boulangerie Amicale","shop":"bakery"}},
{"type":"Feature","geometry":{"type":"Point","coordinates":[49.2919178,-12.2860062]},"properties":{"addr:street":"Avenue Philibert Tsiranana","name:fr":"MADAHOUFI","shop":"supermarket"}},
{"type":"Feature","geometry":{"type":"Point","coordinates":[49.2916367,-12.283878]},"properties":{"internet_access":"wlan","name":"Mouna Glace","name:fr":"Boulangerie Mouna","shop":"bakery"}},
{"type":"Feature","geometry":{"type":"Point","coordinates":[47.4399707,-18.8186308]},"properties":{"name:fr":"Kanto bazar","opening_hours":"Mo-Su 07:00-19:00","shop":"convenience"}},
{"type":"Feature","geometry":{"type":"Point","coordinates":[47.5383234,-18.9193638]},"properties":{"barrier":"gate"}},
{"type":"Feature","geometry":{"type":"Point","coordinates":[47.5392572,-18.9183774]},"properties":{"name":"SuperMaki Ambanidia","shop":"supermarket"}},
{"type":"Feature","geometry":{"type":"Point","coordinates":[47.5342607,-18.9179575]},"properties":{"amenity":"marketplace","name":"Marché d'Anjohy"}},
{"type":"Feature","geometry":{"type":"Point","coordinates":[47.5684835,-18.9053123]},"properties":{"addr:street":"Làlana Ambatomaro","name:en":"Madama & Ramose","shop":"bakery"}},
{"type":"Feature","geometry":{"type":"Point","coordinates":[47.5621151,-18.9005813]},"properties":{"name:en":"Sinoa","operator":"farinoire","shop":"convenience"}},
{"type":"Feature","geometry":{"type":"Point","coordinates":[47.0299875,-19.8561816]},"properties":{"email":"farinoire@gmail.com","internet_access":"wlan","name:en":"Zanety","opening_hours":"Mo-Sa 09:00-18:00","phone":"0340870707","shop":"bakery"}},
{"type":"Feature","geometry":{"type":"Point","coordinates":[46.5053139,-15.6307133]},"properties":{"amenity":"marketplace","name":"Bazary"}},
{"type":"Feature","geometry":{"type":"Point","coordinates":[47.5306186,-18.9157092]},"properties":{"shop":"convenience"}},
{"type":"Feature","geometry":{"type":"Point","coordinates":[47.2458156,-20.5353529]},"properties":{"shop":"convenience"}},
{"type":"Feature","geometry":{"type":"Point","coordinates":[44.4008961,-20.296803]},"properties":{"name:en":"shop","shop":"supermarket"}},
{"type":"Feature","geometry":{"type":"Point","coordinates":[47.4736357,-18.9141658]},"properties":{"name:en":"Supermaki","name:fr":"Supermaki","opening_hours":"Mo-Su 07:30-19:30","shop":"convenience"}},
{"type":"Feature","geometry":{"type":"Point","coordinates":[47.4737986,-18.9154258]},"properties":{"name:en":"Liantsoa Andranonahoatra","name:fr":"Liantsoa Andranonahoatra","opening_hours":"Mo-Su 07:30-19:30","shop":"convenience"}},
{"type":"Feature","geometry":{"type":"Point","coordinates":[47.5569082,-18.9256098]},"properties":{"name":"Supermaki Ambohipo","shop":"supermarket"}},
{"type":"Feature","geometry":{"type":"Point","coordinates":[46.9041454,-18.9522811]},"properties":{"shop":"convenience"}},
{"type":"Feature","geometry":{"type":"Point","coordinates":[46.9042927,-18.9517105]},"properties":{"name":"Tranombarotra Mahavantana","shop":"convenience"}},
{"type":"Feature","geometry":{"type":"Point","coordinates":[46.9046279,-18.9503045]},"properties":{"name":"Kambana","shop":"convenience"}},
{"type":"Feature","geometry":{"type":"Point","coordinates":[46.9071981,-18.9551669]},"properties":{"shop":"convenience"}},
{"type":"Feature","geometry":{"type":"Point","coordinates":[46.904752,-18.9616177]},"properties":{"shop":"convenience"}},
{"type":"Feature","geometry":{"type":"Point","coordinates":[46.9047211,-18.9596467]},"properties":{"shop":"convenience"}},
{"type":"Feature","geometry":{"type":"Point","coordinates":[46.904216,-18.9596873]},"properties":{"name":"Vidot","shop":"convenience"}},
{"type":"Feature","geometry":{"type":"Point","coordinates":[47.5270337,-18.9027811]},"properties":{"name":"IT Station","name:fr":"IT Station","opening_hours":"Mo-Sa 08:30-18:00","shop":"supermarket"}},
{"type":"Feature","geometry":{"type":"Point","coordinates":[46.9049898,-18.962698]},"properties":{"description":"Vente des produits de première necesité","name":"Mini-Market Aina","opening_hours":"Mo-Sa 06:30-19:00","phone":"0325438577","shop":"convenience"}},
{"type":"Feature","geometry":{"type":"Point","coordinates":[46.9039741,-18.9662052]},"properties":{"shop":"convenience"}},
{"type":"Feature","geometry":{"type":"Point","coordinates":[46.9040519,-18.9668521]},"properties":{"shop":"convenience"}},
{"type":"Feature","geometry":{"type":"Point","coordinates":[46.9085144,-18.9474759]},"properties":{"shop":"convenience"}},
{"type":"Feature","geometry":{"type":"Point","coordinates":[46.9088906,-18.9469019]},"properties":{"shop":"convenience"}},
{"type":"Feature","geometry":{"type":"Point","coordinates":[46.9086586,-18.95077]},"properties":{"shop":"convenience"}},
{"type":"Feature","geometry":{"type":"Point","coordinates":[46.908609,-18.9515437]},"properties":{"shop":"convenience"}},
{"type":"Feature","geometry":{"type":"Point","coordinates":[49.4130452,-18.1587851]},"properties":{"name:en":"TIKO AAA","shop":"supermarket"}},
{"type":"Feature","geometry":{"type":"Point","coordinates":[47.0334765,-19.8624164]},"properties":{"name":"Supermaxi","name:en":"Supermaxi","name:fr":"Supermaxi","shop":"supermarket"}},
{"type":"Feature","geometry":{"type":"Point","coordinates":[47.5548759,-18.8493307]},"properties":{"name":"Libre Service","shop":"convenience"}},
{"type":"Feature","geometry":{"type":"Point","coordinates":[47.5548973,-18.8493768]},"properties":{"shop":"butcher"}},
{"type":"Feature","geometry":{"type":"Point","coordinates":[47.5550351,-18.8495691]},"properties":{"name":"Calli","shop":"bakery"}},
{"type":"Feature","geometry":{"type":"Point","coordinates":[47.491084,-18.8906879]},"properties":{"name:fr":"Boulangerie Tartine","shop":"bakery"}},
{"type":"Feature","geometry":{"type":"Point","coordinates":[47.524727,-18.9076313]},"properties":{"name":"Miniso","shop":"convenience"}},
{"type":"Feature","geometry":{"type":"Point","coordinates":[47.5164747,-18.911952]},"properties":{"name":"Superette","shop":"convenience"}},
{"type":"Feature","geometry":{"type":"Point","coordinates":[48.0243531,-22.1421607]},"properties":{"amenity":"marketplace","description":"Local Fishermen sell their fresh fish here at 09:00-11:00.","name":"Fish Market","opening_hours":"Mo-Su 09:00-15:00"}},
{"type":"Feature","geometry":{"type":"Point","coordinates":[47.4725206,-18.8078405]},"properties":{"name:fr":"Shop Liantsoa","shop":"supermarket"}},
{"type":"Feature","geometry":{"type":"Point","coordinates":[47.4806008,-18.8066167]},"properties":{"name":"Supermaki","shop":"supermarket"}},
{"type":"Feature","geometry":{"type":"Point","coordinates":[47.5581731,-18.9265041]},"properties":{"level":"0","organic":"no","shop":"convenience"}},
{"type":"Feature","geometry":{"type":"Point","coordinates":[47.5587573,-18.9269076]},"properties":{"level":"0","organic":"no","shop":"convenience"}},
{"type":"Feature","geometry":{"type":"Point","coordinates":[47.5601573,-18.9289849]},"properties":{"name":"Champion","shop":"convenience"}},
{"type":"Feature","geometry":{"type":"Point","coordinates":[47.5604916,-18.9293646]},"properties":{"name":"Maman'i Nancia","shop":"convenience"}},
{"type":"Feature","geometry":{"type":"Point","coordinates":[47.5548262,-18.8494538]},"properties":{"shop":"butcher"}},
{"type":"Feature","geometry":{"type":"Point","coordinates":[47.5546515,-18.8492099]},"properties":{"shop":"convenience"}},
{"type":"Feature","geometry":{"type":"Point","coordinates":[47.5543424,-18.8490075]},"properties":{"shop":"convenience"}},
{"type":"Feature","geometry":{"type":"Point","coordinates":[47.5540785,-18.8488364]},"properties":{"shop":"convenience"}},
{"type":"Feature","geometry":{"type":"Point","coordinates":[47.5540527,-18.8488222]},"properties":{"shop":"convenience"}},
{"type":"Feature","geometry":{"type":"Point","coordinates":[47.5541533,-18.8487828]},"properties":{"name":"Perline","shop":"convenience"}},
{"type":"Feature","geometry":{"type":"Point","coordinates":[47.5540128,-18.8487407]},"properties":{"shop":"convenience"}},
{"type":"Feature","geometry":{"type":"Point","coordinates":[47.5537282,-18.8485978]},"properties":{"shop":"convenience"}},
{"type":"Feature","geometry":{"type":"Point","coordinates":[47.5520994,-18.8478017]},"properties":{"shop":"convenience"}},
{"type":"Feature","geometry":{"type":"Point","coordinates":[47.5523391,-18.8478839]},"properties":{"shop":"convenience"}},
{"type":"Feature","geometry":{"type":"Point","coordinates":[47.5524236,-18.8480112]},"properties":{"shop":"convenience"}},
{"type":"Feature","geometry":{"type":"Point","coordinates":[47.5525738,-18.848081]},"properties":{"shop":"convenience"}},
{"type":"Feature","geometry":{"type":"Point","coordinates":[47.5526965,-18.8481359]},"properties":{"shop":"convenience"}},
{"type":"Feature","geometry":{"type":"Point","coordinates":[47.5527217,-18.8481476]},"properties":{"shop":"butcher"}},
{"type":"Feature","geometry":{"type":"Point","coordinates":[47.5533624,-18.8483954]},"properties":{"shop":"convenience"}},
{"type":"Feature","geometry":{"type":"Point","coordinates":[47.5533205,-18.8483703]},"properties":{"shop":"convenience"}},
{"type":"Feature","geometry":{"type":"Point","coordinates":[47.5532685,-18.8483443]},"properties":{"shop":"butcher"}},
{"type":"Feature","geometry":{"type":"Point","coordinates":[47.5526389,-18.8481092]},"properties":{"shop":"butcher"}},
{"type":"Feature","geometry":{"type":"Point","coordinates":[48.0061726,-22.1462738]},"properties":{"name":"Hardys","shop":"convenience"}},
{"type":"Feature","geometry":{"type":"Point","coordinates":[48.0063985,-22.1464229]},"properties":{"addr:city":"Manakara","addr:postcode":"316","name":"coup d'oeil","payment:cash":"yes","shop":"convenience"}},
{"type":"Feature","geometry":{"type":"Point","coordinates":[46.7378146,-19.1704206]},"properties":{"shop":"convenience"}},
{"type":"Feature","geometry":{"type":"Point","coordinates":[46.7377757,-19.1704763]},"properties":{"name":"Faneva","shop":"convenience"}},
{"type":"Feature","geometry":{"type":"Point","coordinates":[46.7377221,-19.1705314]},"properties":{"name":"Maurice","shop":"butcher"}},
{"type":"Feature","geometry":{"type":"Point","coordinates":[46.7376101,-19.170501]},"properties":{"shop":"convenience"}},
{"type":"Feature","geometry":{"type":"Point","coordinates":[46.7379916,-19.1706359]},"properties":{"amenity":"marketplace","shop":"second_hand"}},
{"type":"Feature","geometry":{"type":"Point","coordinates":[47.5527381,-18.8480883]},"properties":{"shop":"convenience"}},
{"type":"Feature","geometry":{"type":"Point","coordinates":[47.5548986,-18.8495675]},"properties":{"shop":"convenience"}},
{"type":"Feature","geometry":{"type":"Point","coordinates":[47.5547699,-18.8493651]},"properties":{"shop":"butcher"}},
{"type":"Feature","geometry":{"type":"Point","coordinates":[47.088777,-21.4563076]},"properties":{"level":"0","shop":"convenience"}},
{"type":"Feature","geometry":{"type":"Point","coordinates":[47.5540376,-18.8468629]},"properties":{"name":"La Bettina","shop":"bakery"}},
{"type":"Feature","geometry":{"type":"Point","coordinates":[46.7368658,-19.1645922]},"properties":{"name":"Abattoir","shop":"butcher"}},
{"type":"Feature","geometry":{"type":"Point","coordinates":[46.7377549,-19.1713332]},"properties":{"name":"Centre de Services Agricoles","ref":"CSA","shop":"farm"}},
{"type":"Feature","geometry":{"type":"Point","coordinates":[46.7378595,-19.1690848]},"properties":{"shop":"convenience"}},
{"type":"Feature","geometry":{"type":"Point","coordinates":[46.7382589,-19.1702372]},"properties":{"beverage":"yes","name":"Mama Lenina","shop":"convenience"}},
{"type":"Feature","geometry":{"type":"Point","coordinates":[47.5363559,-18.9104581]},"properties":{"contact:facebook":"https://www.facebook.com/pages/Crousti-Pain/457880844310318","name":"CroustiPain","shop":"bakery"}},
{"type":"Feature","geometry":{"type":"Point","coordinates":[47.5553888,-18.8496995]},"properties":{"name":"Betsileo","shop":"convenience"}},
{"type":"Feature","geometry":{"type":"Point","coordinates":[47.5557201,-18.8499914]},"properties":{"shop":"convenience"}},
{"type":"Feature","geometry":{"type":"Point","coordinates":[47.5563155,-18.8503645]},"properties":{"shop":"butcher"}},
{"type":"Feature","geometry":{"type":"Point","coordinates":[47.5487141,-18.8477399]},"properties":{"shop":"convenience"}},
{"type":"Feature","geometry":{"type":"Point","coordinates":[47.5488389,-18.8477627]},"properties":{"shop":"convenience"}},
{"type":"Feature","geometry":{"type":"Point","coordinates":[47.5547424,-18.8493124]},"properties":{"shop":"convenience"}},
{"type":"Feature","geometry":{"type":"Point","coordinates":[47.5551058,-18.8496805]},"properties":{"name":"Njaka","shop":"convenience"}},
{"type":"Feature","geometry":{"type":"Point","coordinates":[47.5550187,-18.8497376]},"properties":{"name":"Ambany Lavarangana","shop":"convenience"}},
{"type":"Feature","geometry":{"type":"Point","coordinates":[47.5553231,-18.8379897]},"properties":{"name":"Supermaki","shop":"convenience"}},
{"type":"Feature","geometry":{"type":"Point","coordinates":[47.5554304,-18.8362317]},"properties":{"shop":"convenience"}},
{"type":"Feature","geometry":{"type":"Point","coordinates":[47.556286,-18.8358306]},"properties":{"shop":"convenience"}},
{"type":"Feature","geometry":{"type":"Point","coordinates":[47.5552721,-18.8349484]},"properties":{"shop":"convenience"}},
{"type":"Feature","geometry":{"type":"Point","coordinates":[47.5552574,-18.8357024]},"properties":{"name":"Agrifarm","shop":"farm"}},
{"type":"Feature","geometry":{"type":"Point","coordinates":[47.5552815,-18.83579]},"properties":{"name":"Shop Liantsoa Sabotsy Namehana","operator":"Shop Liantsoa","shop":"convenience"}},
{"type":"Feature","geometry":{"type":"Point","coordinates":[47.5530124,-18.8563334]},"properties":{"shop":"convenience"}},
{"type":"Feature","geometry":{"type":"Point","coordinates":[47.5523324,-18.8589769]},"properties":{"beverage":"yes","shop":"convenience"}},
{"type":"Feature","geometry":{"type":"Point","coordinates":[47.5531772,-18.855946]},"properties":{"beverage":"yes","shop":"convenience"}},
{"type":"Feature","geometry":{"type":"Point","coordinates":[47.5507848,-18.8644924]},"properties":{"shop":"convenience"}},
{"type":"Feature","geometry":{"type":"Point","coordinates":[47.5508076,-18.8641764]},"properties":{"name":"Boucherie Fenohaja","shop":"butcher"}},
{"type":"Feature","geometry":{"type":"Point","coordinates":[47.5499359,-18.8642525]},"properties":{"amenity":"marketplace","name":"Ambohitrarahaba Tsena"}},
{"type":"Feature","geometry":{"type":"Point","coordinates":[47.5508304,-18.8648198]},"properties":{"name":"Supermaki","shop":"convenience"}},
{"type":"Feature","geometry":{"type":"Point","coordinates":[47.5514419,-18.8657881]},"properties":{"name":"Shop Madavi","shop":"farm"}},
{"type":"Feature","geometry":{"type":"Point","coordinates":[47.551745,-18.8700064]},"properties":{"shop":"farm"}},
{"type":"Feature","geometry":{"type":"Point","coordinates":[47.5465442,-18.8718224]},"properties":{"amenity":"marketplace","name":"Analamahitsy Cité"}},
{"type":"Feature","geometry":{"type":"Point","coordinates":[47.5512528,-18.8657069]},"properties":{"name":"Produits Laitiers d'Avaradrano","ref":"PLA","shop":"farm"}},
{"type":"Feature","geometry":{"type":"Point","coordinates":[47.5520192,-18.8477233]},"properties":{"shop":"convenience"}},
{"type":"Feature","geometry":{"type":"Point","coordinates":[47.549665,-18.8476536]},"properties":{"shop":"convenience"}},
{"type":"Feature","geometry":{"type":"Point","coordinates":[47.5498162,-18.8480166]},"properties":{"name":"Hasina","shop":"convenience"}},
{"type":"Feature","geometry":{"type":"Point","coordinates":[47.5498886,-18.8480188]},"properties":{"shop":"convenience"}},
{"type":"Feature","geometry":{"type":"Point","coordinates":[47.5501142,-18.8480146]},"properties":{"shop":"convenience"}},
{"type":"Feature","geometry":{"type":"Point","coordinates":[47.5499332,-18.8481447]},"properties":{"name":"Mamy","shop":"convenience"}},
{"type":"Feature","geometry":{"type":"Point","coordinates":[47.5327527,-18.9149636]},"properties":{"entrance":"main"}},
{"type":"Feature","geometry":{"type":"Point","coordinates":[47.5326589,-18.9149079]},"properties":{"name":"Score Antsahabe","note":"La boulangerie ouvre à 7h30 contrairement à 8h30 pour le magasin","opening_hours":"Mo-Sa 07:30-19:30; Su 07:30-13:00","shop":"bakery"}},
{"type":"Feature","geometry":{"type":"Point","coordinates":[47.5179951,-18.9018373]},"properties":{"name:fr":"Pain d’ami","shop":"bakery"}},
{"type":"Feature","geometry":{"type":"Point","coordinates":[47.4921513,-18.8919091]},"properties":{"entrance":"main"}},
{"type":"Feature","geometry":{"type":"Point","coordinates":[47.5347787,-18.9106002]},"properties":{"shop":"convenience"}},
{"type":"Feature","geometry":{"type":"Point","coordinates":[47.5342181,-18.9122241]},"properties":{"shop":"convenience"}},
{"type":"Feature","geometry":{"type":"Point","coordinates":[47.5335824,-18.911539]},"properties":{"shop":"convenience"}},
{"type":"Feature","geometry":{"type":"Point","coordinates":[47.2472875,-20.530129]},"properties":{"name":"Tsenantsika","shop":"convenience"}},
{"type":"Feature","geometry":{"type":"Point","coordinates":[47.5346982,-18.9075032]},"properties":{"shop":"bakery"}},
{"type":"Feature","geometry":{"type":"Point","coordinates":[47.0267451,-19.8654449]},"properties":{"name:fr":"Boulangerie Tartine","shop":"bakery"}},
{"type":"Feature","geometry":{"type":"Point","coordinates":[47.5253414,-18.9110709]},"properties":{"addr:street":"Place de l'indépendance","name":"Colbert","name:en":"Hôtel Colbert pastry shop","name:fr":"Pâtisserie de l'hôtel Colbert","opening_hours":"Mo-Su 06:30-19:00","phone":"2221952","shop":"bakery","wheelchair":"yes"}},
{"type":"Feature","geometry":{"type":"Point","coordinates":[47.5386572,-18.9138532]},"properties":{"shop":"convenience"}},
{"type":"Feature","geometry":{"type":"Point","coordinates":[47.5383451,-18.9146379]},"properties":{"entrance":"main"}},
{"type":"Feature","geometry":{"type":"Point","coordinates":[49.4106738,-18.1573746]},"properties":{"shop":"convenience"}},
{"type":"Feature","geometry":{"type":"Point","coordinates":[49.4131733,-18.1581787]},"properties":{"name":"Tsena Mahery","shop":"convenience"}},
{"type":"Feature","geometry":{"type":"Point","coordinates":[49.413186,-18.1587624]},"properties":{"shop":"convenience"}},
{"type":"Feature","geometry":{"type":"Point","coordinates":[49.4140725,-18.162733]},"properties":{"shop":"convenience"}},
{"type":"Feature","geometry":{"type":"Point","coordinates":[49.0684846,-18.8204728]},"properties":{"shop":"convenience"}},
{"type":"Feature","geometry":{"type":"Point","coordinates":[48.9788326,-19.3263245]},"properties":{"amenity":"marketplace","name":"Bazary Be","name:mg":"Tsenaben'i Vatomandry"}},
{"type":"Feature","geometry":{"type":"Point","coordinates":[48.7805222,-19.6610464]},"properties":{"amenity":"marketplace"}},
{"type":"Feature","geometry":{"type":"Point","coordinates":[48.7796379,-19.661769]},"properties":{"amenity":"marketplace"}},
{"type":"Feature","geometry":{"type":"Point","coordinates":[48.8083209,-19.8990937]},"properties":{"amenity":"marketplace","name":"Bazar Be"}},
{"type":"Feature","geometry":{"type":"Point","coordinates":[48.7826604,-19.6048706]},"properties":{"amenity":"marketplace"}},
{"type":"Feature","geometry":{"type":"Point","coordinates":[48.7825933,-19.6048914]},"properties":{"amenity":"marketplace"}},
{"type":"Feature","geometry":{"type":"Point","coordinates":[48.9133408,-19.2731393]},"properties":{"amenity":"marketplace"}},
{"type":"Feature","geometry":{"type":"Point","coordinates":[48.9132953,-19.2732218]},"properties":{"amenity":"marketplace"}},
{"type":"Feature","geometry":{"type":"Point","coordinates":[48.7697938,-19.6518809]},"properties":{"amenity":"marketplace"}},
{"type":"Feature","geometry":{"type":"Point","coordinates":[46.0494175,-18.7746077]},"properties":{"shop":"convenience"}},
{"type":"Feature","geometry":{"type":"Point","coordinates":[47.5622376,-18.8802942]},"properties":{"brand":"Leader Price","brand:wikidata":"Q2181426","brand:wikipedia":"en:Leader Price","internet_access":"wlan","name":"Leader Price","name:en":"Leader Price","shop":"supermarket"}},
{"type":"Feature","geometry":{"type":"Point","coordinates":[47.5156379,-18.7938017]},"properties":{"amenity":"marketplace"}},
{"type":"Feature","geometry":{"type":"Point","coordinates":[47.5483933,-18.8725352]},"properties":{"name":"Shop Liantsoa Analamahitsy","shop":"convenience"}},
{"type":"Feature","geometry":{"type":"Point","coordinates":[47.5507132,-18.8733546]},"properties":{"shop":"bakery"}},
{"type":"Feature","geometry":{"type":"Point","coordinates":[47.5470137,-18.8769502]},"properties":{"amenity":"marketplace","name":"Tsenan'Analamahitsy Tanàna"}},
{"type":"Feature","geometry":{"type":"Point","coordinates":[47.5366956,-18.9180938]},"properties":{"amenity":"fast_food","cuisine":"noddle","name":"Koul Snack","shop":"convenience"}},
{"type":"Feature","geometry":{"type":"Point","coordinates":[47.5476347,-18.8985864]},"properties":{"name":"Charcuterie Rotsy","shop":"butcher"}},
{"type":"Feature","geometry":{"type":"Point","coordinates":[47.5468428,-18.8975619]},"properties":{"name":"Tsena Atrika","shop":"convenience"}},
{"type":"Feature","geometry":{"type":"Point","coordinates":[47.5471451,-18.8981244]},"properties":{"name":"Bazar Chez Ramah","shop":"convenience"}},
{"type":"Feature","geometry":{"type":"Point","coordinates":[47.5505106,-18.8737484]},"properties":{"shop":"convenience"}},
{"type":"Feature","geometry":{"type":"Point","coordinates":[47.172425,-19.1375405]},"properties":{"shop":"convenience"}},
{"type":"Feature","geometry":{"type":"Point","coordinates":[47.1723942,-19.1376]},"properties":{"shop":"convenience"}},
{"type":"Feature","geometry":{"type":"Point","coordinates":[47.1722205,-19.1380796]},"properties":{"shop":"convenience"}},
{"type":"Feature","geometry":{"type":"Point","coordinates":[47.1721239,-19.13886]},"properties":{"shop":"convenience"}},
{"type":"Feature","geometry":{"type":"Point","coordinates":[47.1720971,-19.1390767]},"properties":{"shop":"convenience"}},
{"type":"Feature","geometry":{"type":"Point","coordinates":[47.1721266,-19.1391844]},"properties":{"shop":"convenience"}},
{"type":"Feature","geometry":{"type":"Point","coordinates":[47.1721025,-19.1384926]},"properties":{"shop":"butcher"}},
{"type":"Feature","geometry":{"type":"Point","coordinates":[46.3387294,-15.7124072]},"properties":{"beverage":"yes","name":"Epi-bar Miora","shop":"convenience"}},
{"type":"Feature","geometry":{"type":"Point","coordinates":[46.3188093,-15.7126719]},"properties":{"name":"Laoka Fy","shop":"butcher"}},
{"type":"Feature","geometry":{"type":"Point","coordinates":[47.5546966,-18.8487857]},"properties":{"name":"Akoufré","operator":"Orange","shop":"butcher"}},
{"type":"Feature","geometry":{"type":"Point","coordinates":[47.5523776,-18.8479019]},"properties":{"shop":"farm"}},
{"type":"Feature","geometry":{"type":"Point","coordinates":[47.5291037,-18.9352359]},"properties":{"name":"Supermaki","opening_hours":"Mo-Su 07:30-19:00","shop":"supermarket"}},
{"type":"Feature","geometry":{"type":"Point","coordinates":[47.52816,-18.9358619]},"properties":{"amenity":"marketplace"}},
{"type":"Feature","geometry":{"type":"Point","coordinates":[47.52561,-18.93691]},"properties":{"shop":"convenience"}},
{"type":"Feature","geometry":{"type":"Point","coordinates":[47.5291146,-18.935324]},"properties":{"amenity":"marketplace","name":"Super Maki"}},
{"type":"Feature","geometry":{"type":"Point","coordinates":[47.5353211,-18.9331896]},"properties":{"addr:street":"Lalana Printsy Kamamy","name":"Ainah","shop":"butcher"}},
{"type":"Feature","geometry":{"type":"Point","coordinates":[47.5365062,-18.9311346]},"properties":{"amenity":"marketplace","name":"Bazar du quartier"}},
{"type":"Feature","geometry":{"type":"Point","coordinates":[47.5281504,-18.9253651]},"properties":{"name":"Tsena vao","shop":"convenience"}},
{"type":"Feature","geometry":{"type":"Point","coordinates":[47.5281493,-18.935865]},"properties":{"amenity":"marketplace"}},
{"type":"Feature","geometry":{"type":"Point","coordinates":[47.5363336,-18.9311452]},"properties":{"amenity":"marketplace"}},
{"type":"Feature","geometry":{"type":"Point","coordinates":[47.5373585,-18.9298685]},"properties":{"shop":"convenience"}},
{"type":"Feature","geometry":{"type":"Point","coordinates":[47.5367118,-18.9291588]},"properties":{"shop":"convenience"}},
{"type":"Feature","geometry":{"type":"Point","coordinates":[47.5347915,-18.9334932]},"properties":{"shop":"convenience"}},
{"type":"Feature","geometry":{"type":"Point","coordinates":[47.5365273,-18.929006]},"properties":{"shop":"convenience"}},
{"type":"Feature","geometry":{"type":"Point","coordinates":[47.5347455,-18.9336425]},"properties":{"shop":"convenience"}},
{"type":"Feature","geometry":{"type":"Point","coordinates":[47.5359291,-18.9283747]},"properties":{"shop":"convenience"}},
{"type":"Feature","geometry":{"type":"Point","coordinates":[47.5357612,-18.9284473]},"properties":{"shop":"convenience"}},
{"type":"Feature","geometry":{"type":"Point","coordinates":[47.5368513,-18.9292055]},"properties":{"amenity":"marketplace"}},
{"type":"Feature","geometry":{"type":"Point","coordinates":[47.5281002,-18.9364088]},"properties":{"name":"La Hutte Canadienne","opening_hours":"Mo-Su 08:00-12:30, 01:45-17:30","shop":"butcher"}},
{"type":"Feature","geometry":{"type":"Point","coordinates":[47.5282651,-18.938901]},"properties":{"name":"Charcuterie Rousso","phone":"+2612262524","shop":"butcher"}},
{"type":"Feature","geometry":{"type":"Point","coordinates":[47.5366395,-18.9207751]},"properties":{"name":"signal","shop":"convenience"}},
{"type":"Feature","geometry":{"type":"Point","coordinates":[47.37337,-18.6904764]},"properties":{"name":"Provenderie Matio","shop":"farm"}},
{"type":"Feature","geometry":{"type":"Point","coordinates":[47.3741574,-18.6906812]},"properties":{"name":"Provenderie Rafily","shop":"farm"}},
{"type":"Feature","geometry":{"type":"Point","coordinates":[47.366002,-18.7012707]},"properties":{"name":"Décortiquerie Venance","shop":"farm"}},
{"type":"Feature","geometry":{"type":"Point","coordinates":[47.370944,-18.7033464]},"properties":{"name":"Décortiquerie Jean Marc","shop":"farm"}},
{"type":"Feature","geometry":{"type":"Point","coordinates":[47.3693012,-18.7027798]},"properties":{"name":"Provenderie Venance","shop":"farm"}},
{"type":"Feature","geometry":{"type":"Point","coordinates":[47.3851275,-18.7118062]},"properties":{"name":"Maison de triage PROSPERER","shop":"farm"}},
{"type":"Feature","geometry":{"type":"Point","coordinates":[47.3611794,-18.6871584]},"properties":{"name":"Décortiquerie Benoit","shop":"farm"}},
{"type":"Feature","geometry":{"type":"Point","coordinates":[47.3611137,-18.6855729]},"properties":{"name":"Intrants Agricoles","shop":"farm"}},
{"type":"Feature","geometry":{"type":"Point","coordinates":[47.3608066,-18.686978]},"properties":{"name":"Mpivarotra fanafodim-biby sy intrants","shop":"farm"}},
{"type":"Feature","geometry":{"type":"Point","coordinates":[47.3728987,-18.6902311]},"properties":{"shop":"convenience"}},
{"type":"Feature","geometry":{"type":"Point","coordinates":[47.3521605,-18.6914586]},"properties":{"name":"Décortiquerie Ra-Pros","shop":"farm"}},
{"type":"Feature","geometry":{"type":"Point","coordinates":[47.5459144,-18.8966735]},"properties":{"shop":"butcher"}},
{"type":"Feature","geometry":{"type":"Point","coordinates":[47.5379872,-18.9016575]},"properties":{"name":"Supermaki","shop":"supermarket"}},
{"type":"Feature","geometry":{"type":"Point","coordinates":[47.5328463,-18.9786562]},"properties":{"name":"Venty 7","shop":"supermarket"}},
{"type":"Feature","geometry":{"type":"Point","coordinates":[47.5318319,-18.9288851]},"properties":{"shop":"convenience"}},
{"type":"Feature","geometry":{"type":"Point","coordinates":[47.5331303,-18.9282902]},"properties":{"shop":"convenience"}},
{"type":"Feature","geometry":{"type":"Point","coordinates":[47.5334819,-18.9276452]},"properties":{"shop":"convenience"}},
{"type":"Feature","geometry":{"type":"Point","coordinates":[47.5335854,-18.9273484]},"properties":{"shop":"convenience"}},
{"type":"Feature","geometry":{"type":"Point","coordinates":[47.5318686,-18.9290169]},"properties":{"shop":"convenience"}},
{"type":"Feature","geometry":{"type":"Point","coordinates":[47.5336069,-18.9275142]},"properties":{"shop":"convenience"}},
{"type":"Feature","geometry":{"type":"Point","coordinates":[47.532892,-18.9269714]},"properties":{"shop":"butcher"}},
{"type":"Feature","geometry":{"type":"Point","coordinates":[46.0512088,-18.776932]},"properties":{"shop":"convenience"}},
{"type":"Feature","geometry":{"type":"Point","coordinates":[46.0514334,-18.7757376]},"properties":{"name":"Épi-bar Les Diamants","shop":"convenience"}},
{"type":"Feature","geometry":{"type":"Point","coordinates":[46.0513901,-18.7760619]},"properties":{"name":"Tsena Mendrika","shop":"convenience"}},
{"type":"Feature","geometry":{"type":"Point","coordinates":[46.0514384,-18.7751027]},"properties":{"shop":"convenience"}},
{"type":"Feature","geometry":{"type":"Point","coordinates":[47.548548,-18.8738922]},"properties":{"description":"Vente de produits laitiers","name":"YGrek","shop":"dairy"}},
{"type":"Feature","geometry":{"type":"Point","coordinates":[49.4056902,-18.1512833]},"properties":{"name:fr":"Laoka Fy","shop":"butcher"}},
{"type":"Feature","geometry":{"type":"Point","coordinates":[47.5323517,-18.8701828]},"properties":{"name:en":"Grand Epicerie","shop":"supermarket"}},
{"type":"Feature","geometry":{"type":"Point","coordinates":[47.45526,-21.2600744]},"properties":{"amenity":"marketplace"}},
{"type":"Feature","geometry":{"type":"Point","coordinates":[47.5116085,-18.9190014]},"properties":{"shop":"bakery"}},
{"type":"Feature","geometry":{"type":"Point","coordinates":[47.5097259,-18.9169398]},"properties":{"shop":"butcher"}},
{"type":"Feature","geometry":{"type":"Point","coordinates":[47.5309316,-18.9010859]},"properties":{"name":"Laoka Fy","shop":"butcher"}},
{"type":"Feature","geometry":{"type":"Point","coordinates":[47.5286854,-18.9054374]},"properties":{"shop":"bakery"}},
{"type":"Feature","geometry":{"type":"Point","coordinates":[47.5558005,-18.9380321]},"properties":{"shop":"convenience"}},
{"type":"Feature","geometry":{"type":"Point","coordinates":[46.7164166,-18.9747242]},"properties":{"shop":"convenience"}},
{"type":"Feature","geometry":{"type":"Point","coordinates":[48.6630188,-18.8036727]},"properties":{"shop":"convenience"}},
{"type":"Feature","geometry":{"type":"Point","coordinates":[48.6628227,-18.8035356]},"properties":{"shop":"convenience"}},
{"type":"Feature","geometry":{"type":"Point","coordinates":[44.2818013,-20.2966525]},"properties":{"name:en":"mini supermaket (cold beer)","shop":"supermarket"}},
{"type":"Feature","geometry":{"type":"Point","coordinates":[47.0391544,-19.8386382]},"properties":{"shop":"convenience"}},
{"type":"Feature","geometry":{"type":"Point","coordinates":[47.251343,-21.438891]},"properties":{"amenity":"marketplace"}},
{"type":"Feature","geometry":{"type":"Point","coordinates":[47.0410286,-15.5706812]},"properties":{"addr:street":"Baie de la Mahajamba","description":"Aquaculture de Crevettes de Mahajamba","name":"Ferme Aqualma (Aquaculture de la Mahajamba)","shop":"farm","website":"https://www.unima.com/"}},
{"type":"Feature","geometry":{"type":"Point","coordinates":[47.483106,-18.8974164]},"properties":{"shop":"convenience"}},
{"type":"Feature","geometry":{"type":"Point","coordinates":[47.3233143,-18.9786858]},"properties":{"name":"farm shop","shop":"farm"}},
{"type":"Feature","geometry":{"type":"Point","coordinates":[47.5511935,-18.9123669]},"properties":{"name":"Santatra","shop":"bakery"}},
{"type":"Feature","geometry":{"type":"Point","coordinates":[47.550954,-18.9122825]},"properties":{"name":"Supermaki","shop":"convenience"}},
{"type":"Feature","geometry":{"type":"Point","coordinates":[47.5498337,-18.9130893]},"properties":{"shop":"butcher"}},
{"type":"Feature","geometry":{"type":"Point","coordinates":[47.5514406,-18.9106074]},"properties":{"shop":"convenience"}},
{"type":"Feature","geometry":{"type":"Point","coordinates":[47.5541805,-18.9094249]},"properties":{"shop":"convenience"}},
{"type":"Feature","geometry":{"type":"Point","coordinates":[47.5537232,-18.9097257]},"properties":{"shop":"convenience"}},
{"type":"Feature","geometry":{"type":"Point","coordinates":[47.2454679,-21.5204802]},"properties":{"shop":"convenience"}},
{"type":"Feature","geometry":{"type":"Point","coordinates":[47.4631322,-18.8414608]},"properties":{"name":"Score","shop":"supermarket"}},
{"type":"Feature","geometry":{"type":"Point","coordinates":[47.5612161,-18.9029973]},"properties":{"shop":"convenience"}},
{"type":"Feature","geometry":{"type":"Point","coordinates":[47.5615714,-18.9028121]},"properties":{"shop":"convenience"}},
{"type":"Feature","geometry":{"type":"Point","coordinates":[47.5328439,-18.978951]},"properties":{"name":"Tsena Locca","shop":"butcher"}},
{"type":"Feature","geometry":{"type":"Point","coordinates":[47.3706175,-20.5989805]},"properties":{"amenity":"marketplace","name":"Ambalasoaray"}},
{"type":"Feature","geometry":{"type":"Point","coordinates":[44.2805811,-20.2958769]},"properties":{"name:en":"LAWMIKA boulangerie - pâtisserie","shop":"bakery"}},
{"type":"Feature","geometry":{"type":"Point","coordinates":[44.2759038,-20.2920635]},"properties":{"name:en":"Boulangerie de Menabe","shop":"bakery"}},
{"type":"Feature","geometry":{"type":"Point","coordinates":[47.6032113,-18.8968646]},"properties":{"name":"Epicerie Mamy","shop":"convenience"}},
{"type":"Feature","geometry":{"type":"Point","coordinates":[47.5094109,-18.9090135]},"properties":{"shop":"butcher"}},
{"type":"Feature","geometry":{"type":"Point","coordinates":[48.2227373,-17.5861141]},"properties":{"shop":"convenience"}},
{"type":"Feature","geometry":{"type":"Point","coordinates":[48.2230224,-17.5862156]},"properties":{"shop":"convenience"}},
{"type":"Feature","geometry":{"type":"Point","coordinates":[47.5374931,-18.9149777]},"properties":{"description":"Boucherie, Sauterie","name":"Rotsy","shop":"butcher"}},
{"type":"Feature","geometry":{"type":"Point","coordinates":[48.0144945,-22.1375838]},"properties":{"amenity":"marketplace"}},
{"type":"Feature","geometry":{"type":"Point","coordinates":[47.969475,-22.0251125]},"properties":{"amenity":"marketplace"}},
{"type":"Feature","geometry":{"type":"Point","coordinates":[48.4671455,-17.6994661]},"properties":{"shop":"convenience"}},
{"type":"Feature","geometry":{"type":"Point","coordinates":[48.4303679,-17.8265741]},"properties":{"name":"Chez Kris Ratatamo","shop":"convenience"}},
{"type":"Feature","geometry":{"type":"Point","coordinates":[46.4639866,-18.9989748]},"properties":{"name":"Faneva","shop":"convenience"}},
{"type":"Feature","geometry":{"type":"Point","coordinates":[48.2549362,-17.8859735]},"properties":{"shop":"convenience"}},
{"type":"Feature","geometry":{"type":"Point","coordinates":[48.5720764,-17.01295]},"properties":{"shop":"convenience"}},
{"type":"Feature","geometry":{"type":"Point","coordinates":[47.5290351,-18.970196]},"properties":{"name":"Super Maki","shop":"convenience"}},
{"type":"Feature","geometry":{"type":"Point","coordinates":[47.5293789,-18.9575991]},"properties":{"name":"Shop Liantsoa","shop":"convenience"}},
{"type":"Feature","geometry":{"type":"Point","coordinates":[46.8643714,-18.8793119]},"properties":{"amenity":"marketplace","name":"Tsena Ambatomanjaka"}},
{"type":"Feature","geometry":{"type":"Point","coordinates":[47.085356,-21.4495485]},"properties":{"name":"Boulangerie M.R.M","shop":"bakery"}},
{"type":"Feature","geometry":{"type":"Point","coordinates":[47.089254,-21.4470825]},"properties":{"name":"Boulangerie de la Gare","shop":"bakery"}},
{"type":"Feature","geometry":{"type":"Point","coordinates":[43.7619669,-23.552887]},"properties":{"addr:city":"Saint Augustin","addr:postcode":"602","amenity":"marketplace","description":"Bazar de","name":"Bazar Nantsono"}},
{"type":"Feature","geometry":{"type":"Point","coordinates":[47.1048499,-21.4459579]},"properties":{"shop":"butcher"}},
{"type":"Feature","geometry":{"type":"Point","coordinates":[49.8899479,-16.986595]},"properties":{"shop":"convenience"}},
{"type":"Feature","geometry":{"type":"Point","coordinates":[49.8876423,-16.9908353]},"properties":{"shop":"convenience"}},
{"type":"Feature","geometry":{"type":"Point","coordinates":[49.8922677,-16.9814919]},"properties":{"name":"Epicerie Le Rocher","shop":"convenience"}},
{"type":"Feature","geometry":{"type":"Point","coordinates":[46.5150739,-18.7605816]},"properties":{"amenity":"marketplace","name":"Tsena avotra Ambalanirana"}},
{"type":"Feature","geometry":{"type":"Point","coordinates":[46.6396532,-16.1095047]},"properties":{"shop":"convenience"}},
{"type":"Feature","geometry":{"type":"Point","coordinates":[47.1565428,-16.4366703]},"properties":{"name":"Epicerie Mendrika","shop":"convenience"}},
{"type":"Feature","geometry":{"type":"Point","coordinates":[47.1528919,-16.4345004]},"properties":{"amenity":"marketplace"}},
{"type":"Feature","geometry":{"type":"Point","coordinates":[46.6399595,-16.1090351]},"properties":{"name":"Boutique Zafitany","shop":"convenience"}},
{"type":"Feature","geometry":{"type":"Point","coordinates":[47.1582098,-16.435442]},"properties":{"beverage":"yes","name":"Epi-Bar Sauphie","shop":"convenience"}},
{"type":"Feature","geometry":{"type":"Point","coordinates":[45.4393695,-18.258213]},"properties":{"shop":"convenience"}},
{"type":"Feature","geometry":{"type":"Point","coordinates":[45.2258557,-18.1767421]},"properties":{"shop":"convenience"}},
{"type":"Feature","geometry":{"type":"Point","coordinates":[44.0236782,-18.0605981]},"properties":{"amenity":"marketplace","name":"Bazary"}},
{"type":"Feature","geometry":{"type":"Point","coordinates":[43.9468011,-24.6849445]},"properties":{"amenity":"marketplace","name":"Bazary"}},
{"type":"Feature","geometry":{"type":"Point","coordinates":[44.0257716,-18.0602555]},"properties":{"amenity":"marketplace","name":"Tranombarotra Soa Fianatra"}},
{"type":"Feature","geometry":{"type":"Point","coordinates":[44.0365151,-18.0559893]},"properties":{"amenity":"marketplace","name":"Bazar Filongoa"}},
{"type":"Feature","geometry":{"type":"Point","coordinates":[47.4928366,-18.8735576]},"properties":{"name":"Epicerie Rasoa","shop":"convenience"}},
{"type":"Feature","geometry":{"type":"Point","coordinates":[47.5007866,-18.8743609]},"properties":{"name":"Supermaki","name:en":"SUPERMAKI","shop":"supermarket"}},
{"type":"Feature","geometry":{"type":"Point","coordinates":[47.496945,-18.8723947]},"properties":{"shop":"supermarket"}},
{"type":"Feature","geometry":{"type":"Point","coordinates":[44.0236222,-18.058574]},"properties":{"name":"Bazar du Quartier Andranovoribe","shop":"convenience"}},
{"type":"Feature","geometry":{"type":"Point","coordinates":[47.5218758,-18.8997564]},"properties":{"amenity":"marketplace","name":"Royal and Spirit"}},
{"type":"Feature","geometry":{"type":"Point","coordinates":[49.0507892,-13.1929531]},"properties":{"name":"La Vallée rose","shop":"convenience"}},
{"type":"Feature","geometry":{"type":"Point","coordinates":[44.0299542,-18.0552644]},"properties":{"shop":"convenience"}},
{"type":"Feature","geometry":{"type":"Point","coordinates":[44.0279245,-18.0592239]},"properties":{"name":"Taratra","shop":"convenience"}},
{"type":"Feature","geometry":{"type":"Point","coordinates":[44.0874182,-18.060546]},"properties":{"amenity":"marketplace"}},
{"type":"Feature","geometry":{"type":"Point","coordinates":[44.4207121,-18.5581411]},"properties":{"amenity":"marketplace"}},
{"type":"Feature","geometry":{"type":"Point","coordinates":[44.6219486,-18.6751989]},"properties":{"amenity":"marketplace"}},
{"type":"Feature","geometry":{"type":"Point","coordinates":[44.4018961,-20.2782639]},"properties":{"amenity":"marketplace","name":"Bazary Ankininy"}},
{"type":"Feature","geometry":{"type":"Point","coordinates":[44.5580312,-19.1289165]},"properties":{"shop":"convenience"}},
{"type":"Feature","geometry":{"type":"Point","coordinates":[44.5579762,-19.1286739]},"properties":{"shop":"convenience"}},
{"type":"Feature","geometry":{"type":"Point","coordinates":[46.8551861,-19.8378718]},"properties":{"amenity":"marketplace"}},
{"type":"Feature","geometry":{"type":"Point","coordinates":[46.7741299,-19.804673]},"properties":{"amenity":"marketplace"}},
{"type":"Feature","geometry":{"type":"Point","coordinates":[44.5315609,-22.9155978]},"properties":{"amenity":"marketplace"}},
{"type":"Feature","geometry":{"type":"Point","coordinates":[47.4909762,-18.869495]},"properties":{"name":"Epicerie Li","shop":"convenience"}},
{"type":"Feature","geometry":{"type":"Point","coordinates":[46.9443454,-19.5429452]},"properties":{"amenity":"marketplace","name":"Tsena Vinaninony"}},
{"type":"Feature","geometry":{"type":"Point","coordinates":[50.1643235,-14.2642209]},"properties":{"name":"Agrival","shop":"farm"}},
{"type":"Feature","geometry":{"type":"Point","coordinates":[47.8297211,-22.8170634]},"properties":{"name":"Le Croustillant","shop":"bakery"}},
{"type":"Feature","geometry":{"type":"Point","coordinates":[46.9082254,-18.9532263]},"properties":{"shop":"convenience"}},
{"type":"Feature","geometry":{"type":"Point","coordinates":[46.9082536,-18.9531349]},"properties":{"shop":"convenience"}},
{"type":"Feature","geometry":{"type":"Point","coordinates":[46.9081557,-18.9531121]},"properties":{"shop":"convenience"}},
{"type":"Feature","geometry":{"type":"Point","coordinates":[46.9084474,-18.952124]},"properties":{"beverage":"yes","shop":"convenience"}},
{"type":"Feature","geometry":{"type":"Point","coordinates":[46.9073115,-18.9544927]},"properties":{"shop":"convenience"}},
{"type":"Feature","geometry":{"type":"Point","coordinates":[50.2777138,-14.8940697]},"properties":{"shop":"convenience"}},
{"type":"Feature","geometry":{"type":"Point","coordinates":[47.6003269,-15.6925548]},"properties":{"amenity":"marketplace"}},
{"type":"Feature","geometry":{"type":"Point","coordinates":[47.5292521,-18.9560187]},"properties":{"name":"Fanaka by Faniry","shop":"supermarket"}},
{"type":"Feature","geometry":{"type":"Point","coordinates":[47.5482213,-18.8922764]},"properties":{"addr:street":"Làlana Nanisana","name:en":"Tsika roa","shop":"convenience"}},
{"type":"Feature","geometry":{"type":"Point","coordinates":[47.5426948,-18.8818926]},"properties":{"addr:street":"Andranobevava","name:en":"Ferronnerie d'art","shop":"convenience"}},
{"type":"Feature","geometry":{"type":"Point","coordinates":[48.2068878,-13.396414]},"properties":{"name":"Fato mo","shop":"bakery"}},
{"type":"Feature","geometry":{"type":"Point","coordinates":[47.5159798,-18.8991978]},"properties":{"name":"Boucherie Zanatany","shop":"butcher"}},
{"type":"Feature","geometry":{"type":"Point","coordinates":[49.2959823,-12.3273194]},"properties":{"name:en":"La Gare du Nord","shop":"convenience"}},
{"type":"Feature","geometry":{"type":"Point","coordinates":[48.2190431,-13.3844662]},"properties":{"name:it":"La Fideline","shop":"convenience"}},
{"type":"Feature","geometry":{"type":"Point","coordinates":[49.2952137,-12.3233858]},"properties":{"name:en":"Boutique","shop":"convenience"}},
{"type":"Feature","geometry":{"type":"Point","coordinates":[49.2980335,-12.3508367]},"properties":{"shop":"convenience"}},
{"type":"Feature","geometry":{"type":"Point","coordinates":[46.9082449,-18.9531812]},"properties":{"shop":"convenience"}},
{"type":"Feature","geometry":{"type":"Point","coordinates":[46.9062558,-18.9561053]},"properties":{"name":"Boucherie Radany","opening_hours":"Mo-Sa 06:30-18:00","phone":"0349952284","shop":"butcher"}},
{"type":"Feature","geometry":{"type":"Point","coordinates":[47.4937738,-18.5995205]},"properties":{"amenity":"marketplace"}},
{"type":"Feature","geometry":{"type":"Point","coordinates":[47.2098237,-21.5857356]},"properties":{"amenity":"marketplace","note":"Tsenan'omby"}},
{"type":"Feature","geometry":{"type":"Point","coordinates":[47.461072,-18.8396845]},"properties":{"amenity":"marketplace","name":"Tsenan'ny tantsaha Talatamaty Fivoarana"}},
{"type":"Feature","geometry":{"type":"Point","coordinates":[47.3454297,-18.7478584]},"properties":{"name":"Farmshop","shop":"farm"}},
{"type":"Feature","geometry":{"type":"Point","coordinates":[47.5364016,-18.957161]},"properties":{"name":"Mika","shop":"convenience"}},
{"type":"Feature","geometry":{"type":"Point","coordinates":[50.1505116,-14.2558461]},"properties":{"name":"Tandramena","shop":"supermarket"}},
{"type":"Feature","geometry":{"type":"Point","coordinates":[47.545727,-18.8777727]},"properties":{"name:en":"Supermaki Analamahitsy","shop":"convenience"}},
{"type":"Feature","geometry":{"type":"Point","coordinates":[47.1395069,-20.9282737]},"properties":{"amenity":"marketplace"}},
{"type":"Feature","geometry":{"type":"Point","coordinates":[47.1383388,-20.9270824]},"properties":{"name":"DELI","shop":"convenience"}},
{"type":"Feature","geometry":{"type":"Point","coordinates":[47.1384418,-20.9274372]},"properties":{"shop":"convenience"}},
{"type":"Feature","geometry":{"type":"Point","coordinates":[47.1383589,-20.9275077]},"properties":{"shop":"butcher"}},
{"type":"Feature","geometry":{"type":"Point","coordinates":[47.1385206,-20.9276617]},"properties":{"shop":"convenience"}},
{"type":"Feature","geometry":{"type":"Point","coordinates":[47.1386084,-20.9289404]},"properties":{"shop":"convenience"}},
{"type":"Feature","geometry":{"type":"Point","coordinates":[47.1384247,-20.93012]},"properties":{"shop":"convenience"}},