{"type":"FeatureCollection","features":[
{"type":"Feature","geometry":{"type":"Point","coordinates":[-7.9787651,12.6468406]},"properties":{"addr:city":"Bamako","addr:street":"Rue 428","internet_access":"wlan","name":"Caliprix","shop":"supermarket"}},
{"type":"Feature","geometry":{"type":"Point","coordinates":[-7.9838034,12.6194093]},"properties":{"name":"Azar","shop":"supermarket"}},
{"type":"Feature","geometry":{"type":"Point","coordinates":[-7.9863061,12.6415271]},"properties":{"amenity":"marketplace","name":"Marché Artisanal"}},
{"type":"Feature","geometry":{"type":"Point","coordinates":[-7.9733804,12.6641963]},"properties":{"name":"Supermarché Mini-Prix","shop":"supermarket"}},
{"type":"Feature","geometry":{"type":"Point","coordinates":[-7.9566218,12.6112855]},"properties":{"operator":"Magnambougou Projet","shop":"supermarket"}},
{"type":"Feature","geometry":{"type":"Point","coordinates":[-7.9510041,12.6626877]},"properties":{"name":"Zahabi","opening_hours":"24/7","shop":"bakery"}},
{"type":"Feature","geometry":{"type":"Point","coordinates":[-7.9525038,12.6703609]},"properties":{"shop":"bakery"}},
{"type":"Feature","geometry":{"type":"Point","coordinates":[-7.9398636,12.6726009]},"properties":{"shop":"bakery"}},
{"type":"Feature","geometry":{"type":"Point","coordinates":[-7.9659937,12.675342]},"properties":{"name":"Dembelé","shop":"bakery"}},
{"type":"Feature","geometry":{"type":"Point","coordinates":[-7.9811774,12.6510589]},"properties":{"shop":"bakery"}},
{"type":"Feature","geometry":{"type":"Point","coordinates":[-7.9807271,12.6482695]},"properties":{"designation":"Association de femmes maliennes qui vendent leur production","name":"Vente d'épices","shop":"convenience"}},
{"type":"Feature","geometry":{"type":"Point","coordinates":[-7.9796507,12.6478776]},"properties":{"name":"Dosolo","shop":"bakery"}},
{"type":"Feature","geometry":{"type":"Point","coordinates":[-3.0098004,16.775854]},"properties":{"amenity":"marketplace","name":"Petit Market","name:ar":"سوق صغير","name:es":"Pequeño Mercado"}},
{"type":"Feature","geometry":{"type":"Point","coordinates":[-7.9841863,12.6204179]},"properties":{"name":"Boulangerie Niger","shop":"bakery"}},
{"type":"Feature","geometry":{"type":"Point","coordinates":[-7.9857262,12.6213098]},"properties":{"amenity":"restaurant","cuisine":"international","name":"Amandine","shop":"bakery"}},
{"type":"Feature","geometry":{"type":"Point","coordinates":[-3.0071022,16.7743697]},"properties":{"amenity":"marketplace","name":"Grand Marché","name:ar":"سوق كبيرة"}},
{"type":"Feature","geometry":{"type":"Point","coordinates":[-7.9987653,12.6176224]},"properties":{"addr:city":"Bamako","addr:housenumber":"923","addr:street":"Rue 144","name":"Shop-Reate","opening_hours":"24/7","payment:cards":"yes","payment:cash":"yes","payment:coins":"yes","payment:credit_cards":"yes","payment:telephone_cards":"yes","phone":"+223 93 94 94 94","shop":"supermarket"}},
{"type":"Feature","geometry":{"type":"Point","coordinates":[-5.9809402,14.2521575]},"properties":{"amenity":"marketplace"}},
{"type":"Feature","geometry":{"type":"Point","coordinates":[-6.0703356,13.6763329]},"properties":{"name":"Tata Fadiga","shop":"bakery"}},
{"type":"Feature","geometry":{"type":"Point","coordinates":[-6.0727174,13.6786784]},"properties":{"shop":"bakery"}},
{"type":"Feature","geometry":{"type":"Point","coordinates":[-8.0265969,12.5980225]},"properties":{"addr:street":"Rue 650","name":"G4 Commerce","note":"Vente d’œuf en gros et détails, possibilité de livraison à partir de 50 alvéoles","opening_hours":"Mo-Su,PH 08:00-20:00+","operator":"Alou Dolo et Youssoufa A Diallo","phone":"+223 76499055 / +223 75028593","shop":"convenience"}},
{"type":"Feature","geometry":{"type":"Point","coordinates":[-7.9536121,12.6702274]},"properties":{"name":"Fitini market","shop":"supermarket"}},
{"type":"Feature","geometry":{"type":"Point","coordinates":[-7.9942289,12.6463719]},"properties":{"amenity":"marketplace","craft":"yes","name":"Maison des Artisans","name:es":"Casa de Artesanos"}},
{"type":"Feature","geometry":{"type":"Point","coordinates":[-7.9774035,12.6162722]},"properties":{"fixme":"confirm","shop":"farm"}},
{"type":"Feature","geometry":{"type":"Point","coordinates":[-7.975386,12.6108056]},"properties":{"name":"Alimentation Daffa Fanta","shop":"convenience"}},
{"type":"Feature","geometry":{"type":"Point","coordinates":[-3.7502,16.1376577]},"properties":{"name":"Pas de credit","shop":"convenience"}},
{"type":"Feature","geometry":{"type":"Point","coordinates":[-7.9651614,12.6128552]},"properties":{"name":"Cherif Market","shop":"supermarket"}},
{"type":"Feature","geometry":{"type":"Point","coordinates":[-7.9717512,12.6104866]},"properties":{"name":"Boulangerie Moderne","shop":"bakery"}},
{"type":"Feature","geometry":{"type":"Point","coordinates":[-7.9711973,12.6061506]},"properties":{"name":"Alimentation Générale","shop":"convenience"}},
{"type":"Feature","geometry":{"type":"Point","coordinates":[-7.9716759,12.6073286]},"properties":{"shop":"convenience"}},
{"type":"Feature","geometry":{"type":"Point","coordinates":[-4.8038521,12.1822378]},"properties":{"amenity":"marketplace","name":"Marché de Koury"}},
{"type":"Feature","geometry":{"type":"Point","coordinates":[-7.9752631,12.6087342]},"properties":{"shop":"butcher"}},
{"type":"Feature","geometry":{"type":"Point","coordinates":[-7.9327133,12.6572618]},"properties":{"shop":"convenience"}},
{"type":"Feature","geometry":{"type":"Point","coordinates":[-7.9333851,12.6551315]},"properties":{"name":"Alimentation Divers Batata Naps","shop":"convenience"}},
{"type":"Feature","geometry":{"type":"Point","coordinates":[-7.6525451,11.760796]},"properties":{"shop":"bakery"}},
{"type":"Feature","geometry":{"type":"Point","coordinates":[2.4713235,16.3094621]},"properties":{"amenity":"marketplace"}},
{"type":"Feature","geometry":{"type":"Point","coordinates":[-8.0280962,12.6265959]},"properties":{"name":"Afrilec","shop":"butcher"}},
{"type":"Feature","geometry":{"type":"Point","coordinates":[-8.028304,12.6263606]},"properties":{"name":"Boucherie et Epicerie Fruits et Legumes","phone":"(+223) 73 89 49 63","shop":"butcher"}},
{"type":"Feature","geometry":{"type":"Point","coordinates":[-8.0192419,12.6374235]},"properties":{"name":"Superette Layou","shop":"supermarket"}},
{"type":"Feature","geometry":{"type":"Point","coordinates":[-8.0240215,12.6417219]},"properties":{"name":"Minta Marché","name:fr":"Minta Marché","shop":"supermarket"}},
{"type":"Feature","geometry":{"type":"Point","coordinates":[-8.0261261,12.6407992]},"properties":{"name":"Boulangerie Badjelika","shop":"bakery"}},
{"type":"Feature","geometry":{"type":"Point","coordinates":[-8.0291208,12.6402321]},"properties":{"name":"Magassa Libre Service","shop":"supermarket"}},
{"type":"Feature","geometry":{"type":"Point","coordinates":[-8.0299491,12.6399791]},"properties":{"name":"Boulangerie ACI 2000","shop":"bakery"}},
{"type":"Feature","geometry":{"type":"Point","coordinates":[-7.967132,12.6104094]},"properties":{"name":"Boulangerie Diaka","shop":"bakery","source":"survey"}},
{"type":"Feature","geometry":{"type":"Point","coordinates":[-4.8969669,13.2985007]},"properties":{"name":"Ba Mariama","shop":"bakery"}},
{"type":"Feature","geometry":{"type":"Point","coordinates":[-8.0313754,12.6250698]},"properties":{"amenity":"marketplace","name":"Alimentation Ouagadou"}},
{"type":"Feature","geometry":{"type":"Point","coordinates":[-8.0363992,12.6308974]},"properties":{"amenity":"marketplace","name":"Alimentation generale"}},
{"type":"Feature","geometry":{"type":"Point","coordinates":[-8.0322318,12.6290097]},"properties":{"name":"Boulangerie Pain d'Or","shop":"bakery"}},
{"type":"Feature","geometry":{"type":"Point","coordinates":[-7.9817298,12.619334]},"properties":{"shop":"supermarket"}},
{"type":"Feature","geometry":{"type":"Point","coordinates":[-8.0621187,12.5911139]},"properties":{"amenity":"marketplace","name":"Sébé","opening_hours":"08:30-12:30,15:30-20:00"}},
{"type":"Feature","geometry":{"type":"Point","coordinates":[-7.9938992,12.6464202]},"properties":{"amenity":"marketplace"}},
{"type":"Feature","geometry":{"type":"Point","coordinates":[-8.0301566,12.6402884]},"properties":{"name":"Badjelika","shop":"bakery"}},
{"type":"Feature","geometry":{"type":"Point","coordinates":[-8.3381633,12.3765415]},"properties":{"name":"La Grande Traverse","shop":"supermarket"}},
{"type":"Feature","geometry":{"type":"Point","coordinates":[-7.9223354,12.6318207]},"properties":{"name":"Boulangerie Ada Adore","opening_hours":"24/7","shop":"bakery","wheelchair":"yes"}},
{"type":"Feature","geometry":{"type":"Point","coordinates":[-7.946313,12.6292421]},"properties":{"name":"supermarché la corniche","shop":"supermarket"}},
{"type":"Feature","geometry":{"type":"Point","coordinates":[-7.9217118,12.6304315]},"properties":{"amenity":"fuel","brand":"Statoil","fuel:HGV_diesel":"yes","fuel:diesel":"yes","name":"station Dia negos","opening_hours":"24/7","operator:type":"private","shop":"convenience","wheelchair":"yes"}},
{"type":"Feature","geometry":{"type":"Point","coordinates":[-7.9629947,12.6191185]},"properties":{"shop":"bakery"}},
{"type":"Feature","geometry":{"type":"Point","coordinates":[-7.968234,12.611551]},"properties":{"name":"Alimentation et divers/Chez KANE","shop":"supermarket","source":"survey"}},
{"type":"Feature","geometry":{"type":"Point","coordinates":[-7.9667354,12.612187]},"properties":{"name":"Boulangerie moderne Benkady IV","shop":"bakery","source":"survey"}},
{"type":"Feature","geometry":{"type":"Point","coordinates":[-7.9692805,12.6116854]},"properties":{"name":"C2M Market","shop":"supermarket","source":"survey"}},
{"type":"Feature","geometry":{"type":"Point","coordinates":[-7.9652577,12.6127667]},"properties":{"name":"Cherif Market1&fastfood","shop":"supermarket","source":"survey"}},
{"type":"Feature","geometry":{"type":"Point","coordinates":[-7.9574261,12.6133466]},"properties":{"name":"Boulangerie Kolombada/Patisserie Moderne","shop":"bakery"}},
{"type":"Feature","geometry":{"type":"Point","coordinates":[-7.9914858,12.6360492]},"properties":{"amenity":"marketplace","name":"Marché aux fruits"}},
{"type":"Feature","geometry":{"type":"Point","coordinates":[-7.9148238,12.6093888]},"properties":{"name":"Boulangerie Patisserie Moderne","shop":"bakery"}},
{"type":"Feature","geometry":{"type":"Point","coordinates":[-7.9222752,12.6007078]},"properties":{"name":"Boulangerie Patisserie HAMA","shop":"bakery","source":"survey"}},
{"type":"Feature","geometry":{"type":"Point","coordinates":[-7.921578,12.5989612]},"properties":{"name":"Patisserie HAMA","shop":"bakery","source":"survey"}},
{"type":"Feature","geometry":{"type":"Point","coordinates":[-5.4670257,12.3996354]},"properties":{"name":"Alimentation Chez Diarra","shop":"convenience"}},
{"type":"Feature","geometry":{"type":"Point","coordinates":[-5.4675286,12.4008465]},"properties":{"name":"Boulangerie Walle","shop":"bakery"}},
{"type":"Feature","geometry":{"type":"Point","coordinates":[-5.4676035,12.4015593]},"properties":{"name":"Alimentation Divers","shop":"convenience"}},
{"type":"Feature","geometry":{"type":"Point","coordinates":[-5.4666868,12.3991148]},"properties":{"name":"Alimentation Wasso magni","shop":"convenience"}},
{"type":"Feature","geometry":{"type":"Point","coordinates":[-5.4659795,12.3848524]},"properties":{"name":"Boulangerie","shop":"bakery"}},
{"type":"Feature","geometry":{"type":"Point","coordinates":[-6.2567025,13.4338989]},"properties":{"name":"Boulangerie de l'Avenir","shop":"bakery"}},
{"type":"Feature","geometry":{"type":"Point","coordinates":[-5.4634566,12.3868191]},"properties":{"name":"boulangerie","shop":"bakery"}},
{"type":"Feature","geometry":{"type":"Point","coordinates":[-5.4497397,12.3574152]},"properties":{"shop":"convenience"}},
{"type":"Feature","geometry":{"type":"Point","coordinates":[-5.4497254999999999,12.3580782]},"properties":{"shop":"convenience"}},
{"type":"Feature","geometry":{"type":"Point","coordinates":[-5.4533666,12.3628286]},"properties":{"name":"Alimentation Traoré & Frère","shop":"convenience"}},
{"type":"Feature","geometry":{"type":"Point","coordinates":[-5.4532202,12.3628859]},"properties":{"name":"Boulangerie Traoré&Frère","shop":"bakery"}},
{"type":"Feature","geometry":{"type":"Point","coordinates":[-5.4496141,12.3598403]},"properties":{"shop":"convenience"}},
{"type":"Feature","geometry":{"type":"Point","coordinates":[-5.4496412,12.3596555]},"properties":{"name":"Rotisserie Yacou","shop":"butcher"}},
{"type":"Feature","geometry":{"type":"Point","coordinates":[-5.453605,12.3635198]},"properties":{"shop":"convenience"}},
{"type":"Feature","geometry":{"type":"Point","coordinates":[-5.453945,12.3639568]},"properties":{"shop":"convenience"}},
{"type":"Feature","geometry":{"type":"Point","coordinates":[-5.4552816,12.3609808]},"properties":{"name":"Alimentation Abdoulaye Maiga","shop":"convenience"}},
{"type":"Feature","geometry":{"type":"Point","coordinates":[-5.4499942,12.3560854]},"properties":{"shop":"convenience"}},
{"type":"Feature","geometry":{"type":"Point","coordinates":[-5.466499,12.3883719]},"properties":{"name":"Boulangerie","shop":"bakery"}},
{"type":"Feature","geometry":{"type":"Point","coordinates":[-5.4804826,12.3800762]},"properties":{"name":"Miankala Boutique Hamdallaye","shop":"convenience"}},
{"type":"Feature","geometry":{"type":"Point","coordinates":[-5.4655751,12.4067019]},"properties":{"shop":"butcher"}},
{"type":"Feature","geometry":{"type":"Point","coordinates":[-5.4718224,12.4128593]},"properties":{"name":"Boutique Divers","shop":"convenience"}},
{"type":"Feature","geometry":{"type":"Point","coordinates":[-5.4648877,12.4098417]},"properties":{"name":"Boutique Divers","shop":"convenience"}},
{"type":"Feature","geometry":{"type":"Point","coordinates":[-5.4652591,12.4061699]},"properties":{"amenity":"marketplace"}},
{"type":"Feature","geometry":{"type":"Point","coordinates":[-5.4515307,12.3602809]},"properties":{"shop":"convenience"}},
{"type":"Feature","geometry":{"type":"Point","coordinates":[-5.4706183,12.3815762]},"properties":{"shop":"butcher"}},
{"type":"Feature","geometry":{"type":"Point","coordinates":[-5.4706235,12.3819397]},"properties":{"shop":"butcher"}},
{"type":"Feature","geometry":{"type":"Point","coordinates":[-5.4701068,12.3828999]},"properties":{"name":"Elegance boutique","shop":"convenience"}},
{"type":"Feature","geometry":{"type":"Point","coordinates":[-5.4731496,12.377355]},"properties":{"amenity":"marketplace","name":"marché de volaile"}},
{"type":"Feature","geometry":{"type":"Point","coordinates":[-5.4696386,12.3834027]},"properties":{"name":"boutique divers","shop":"convenience"}},
{"type":"Feature","geometry":{"type":"Point","coordinates":[-5.4695812,12.3835687]},"properties":{"shop":"butcher"}},
{"type":"Feature","geometry":{"type":"Point","coordinates":[-5.4691596,12.3847277]},"properties":{"shop":"butcher"}},
{"type":"Feature","geometry":{"type":"Point","coordinates":[-5.4687806,12.3854604]},"properties":{"shop":"butcher"}},
{"type":"Feature","geometry":{"type":"Point","coordinates":[-5.4722787,12.3868853]},"properties":{"name":"boutique divers","shop":"convenience"}},
{"type":"Feature","geometry":{"type":"Point","coordinates":[-5.4691666,12.3809525]},"properties":{"name":"Boutique Divers","shop":"convenience"}},
{"type":"Feature","geometry":{"type":"Point","coordinates":[-7.99497,12.5522539]},"properties":{"name":"Alimentation","shop":"convenience"}},
{"type":"Feature","geometry":{"type":"Point","coordinates":[-7.9940595,12.5524101]},"properties":{"shop":"convenience"}},
{"type":"Feature","geometry":{"type":"Point","coordinates":[-11.9006343,14.6106596]},"properties":{"amenity":"marketplace","name":"Marché"}},
{"type":"Feature","geometry":{"type":"Point","coordinates":[-8.0032458,12.5993476]},"properties":{"name":"Alimentation Nièta","shop":"supermarket"}},
{"type":"Feature","geometry":{"type":"Point","coordinates":[-8.0464793,12.608845]},"properties":{"name":"Mouye","shop":"bakery"}},
{"type":"Feature","geometry":{"type":"Point","coordinates":[-8.0460635,12.609821]},"properties":{"name":"Le Boulanger","shop":"bakery","source":"knowledge"}},
{"type":"Feature","geometry":{"type":"Point","coordinates":[-8.0173919,12.5964003]},"properties":{"name":"Le Makity","shop":"supermarket"}},
{"type":"Feature","geometry":{"type":"Point","coordinates":[-8.0104902,12.6041448]},"properties":{"name":"Azar Libre Service","shop":"supermarket"}},
{"type":"Feature","geometry":{"type":"Point","coordinates":[-8.0213846,12.5969353]},"properties":{"name":"One Cluze","phone":"76323513","shop":"butcher"}},
{"type":"Feature","geometry":{"type":"Point","coordinates":[-7.9886015,12.5801166]},"properties":{"name":"Yankadi","shop":"butcher"}},
{"type":"Feature","geometry":{"type":"Point","coordinates":[-6.285354,13.4243569]},"properties":{"name":"Alimentation Divers","shop":"convenience"}},
{"type":"Feature","geometry":{"type":"Point","coordinates":[-6.2858552,13.4270876]},"properties":{"shop":"convenience"}},
{"type":"Feature","geometry":{"type":"Point","coordinates":[-6.2971816,13.4316591]},"properties":{"name":"Alimentation Générale KONDO","shop":"supermarket"}},
{"type":"Feature","geometry":{"type":"Point","coordinates":[-5.4650976,12.3891064]},"properties":{"shop":"butcher"}},
{"type":"Feature","geometry":{"type":"Point","coordinates":[-5.4536857,12.4017857]},"properties":{"name":"Alimentation Carrefour Ambassa","shop":"convenience"}},
{"type":"Feature","geometry":{"type":"Point","coordinates":[-5.4519489,12.3997895]},"properties":{"shop":"convenience"}},
{"type":"Feature","geometry":{"type":"Point","coordinates":[-5.4520344,12.4031891]},"properties":{"name":"Alimentation Miangala","shop":"convenience"}},
{"type":"Feature","geometry":{"type":"Point","coordinates":[-5.4520499,12.4031577]},"properties":{"name":"Boutique Chez IB","shop":"convenience"}},
{"type":"Feature","geometry":{"type":"Point","coordinates":[-5.4527955,12.4023175]},"properties":{"name":"Alimentation","shop":"convenience"}},
{"type":"Feature","geometry":{"type":"Point","coordinates":[-5.4506293,12.4048162]},"properties":{"name":"Boulangerie Badenya","shop":"bakery"}},
{"type":"Feature","geometry":{"type":"Point","coordinates":[-5.4498558,12.4061412]},"properties":{"name":"Alimentation Et Divers Chez Bouba","shop":"convenience"}},
{"type":"Feature","geometry":{"type":"Point","coordinates":[-5.4508307,12.4050776]},"properties":{"name":"Boutique Chez Thera","shop":"convenience"}},
{"type":"Feature","geometry":{"type":"Point","coordinates":[-5.4505739,12.4053579]},"properties":{"shop":"convenience"}},
{"type":"Feature","geometry":{"type":"Point","coordinates":[-8.069614,12.584089]},"properties":{"name":"Boulangerie","shop":"bakery"}},
{"type":"Feature","geometry":{"type":"Point","coordinates":[-8.0101999,12.6044432]},"properties":{"name":"Boucherie Mali Viande","shop":"butcher"}},
{"type":"Feature","geometry":{"type":"Point","coordinates":[-8.04057,12.6313]},"properties":{"shop":"bakery"}},
{"type":"Feature","geometry":{"type":"Point","coordinates":[-4.8022345,12.182253]},"properties":{"amenity":"marketplace","name":"Marché De Koury"}},
{"type":"Feature","geometry":{"type":"Point","coordinates":[-8.0100896,12.6045178]},"properties":{"name":"Super Marché AZAR","shop":"supermarket"}},
{"type":"Feature","geometry":{"type":"Point","coordinates":[-8.0467983,12.6079823]},"properties":{"name":"Kady Libre Service","shop":"supermarket"}},
{"type":"Feature","geometry":{"type":"Point","coordinates":[-2.4777325,17.1892553]},"properties":{"addr:housenumber":"01","addr:postcode":"02931057","addr:street":"01","email":"foizibanane@yahoo.fr","name":"Ain Rahma","name:ar":"عين الرحمة","name:en":"Ain Rahma","name:fr":"Ain Rahma","opening_hours":"24/7","phone":"76082975","shop":"bakery","website":"http://foizibanane@yahoo.fr"}},
{"type":"Feature","geometry":{"type":"Point","coordinates":[-7.9688208,12.6477709]},"properties":{"addr:city":"Bamako","name":"Bagammi","shop":"bakery","shop_1":"fast food"}},
{"type":"Feature","geometry":{"type":"Point","coordinates":[-8.0453834,12.6112487]},"properties":{"name":"Alimentation","shop":"supermarket"}},
{"type":"Feature","geometry":{"type":"Point","coordinates":[-8.0452726,12.6116469]},"properties":{"name":"Boulangerie","shop":"bakery"}},
{"type":"Feature","geometry":{"type":"Point","coordinates":[-6.3526417,11.4269557]},"properties":{"amenity":"marketplace","opening_hours":"Sa-Su"}},
{"type":"Feature","geometry":{"type":"Point","coordinates":[-8.0105592,12.6040593]},"properties":{"name":"Azar Libre Service","shop":"butcher"}},
{"type":"Feature","geometry":{"type":"Point","coordinates":[-8.0101462,12.6044755]},"properties":{"name":"Mali viande","shop":"butcher"}},
{"type":"Feature","geometry":{"type":"Point","coordinates":[-8.0134687,12.599796]},"properties":{"name":"Mouya","opening_hours":"24/7","shop":"bakery"}},
{"type":"Feature","geometry":{"type":"Point","coordinates":[-7.9529264,12.6519574]},"properties":{"name:en":"Log base PX shop","shop":"supermarket"}},
{"type":"Feature","geometry":{"type":"Point","coordinates":[-3.0060293,16.7751521]},"properties":{"shop":"butcher"}},
{"type":"Feature","geometry":{"type":"Point","coordinates":[-3.0071263,16.7771359]},"properties":{"name":"Rotisserie chez Almouloud","shop":"butcher"}},
{"type":"Feature","geometry":{"type":"Point","coordinates":[-8.0488163,12.6050521]},"properties":{"name":"Boulangerie Rahmatoulah","shop":"bakery"}},
{"type":"Feature","geometry":{"type":"Point","coordinates":[-8.0483097,12.6055012]},"properties":{"name":"Boulangerie Patisserie La Parisienne","shop":"bakery"}},
{"type":"Feature","geometry":{"type":"Point","coordinates":[-8.0466274,12.608459]},"properties":{"name":"Kadi Condiments","shop":"convenience"}},
{"type":"Feature","geometry":{"type":"Point","coordinates":[-8.0457394,12.6105603]},"properties":{"name":"La Diemoise DEs Pains","shop":"bakery"}},
{"type":"Feature","geometry":{"type":"Point","coordinates":[-8.0461273,12.6096963]},"properties":{"name":"Boucherie","shop":"butcher"}},
{"type":"Feature","geometry":{"type":"Point","coordinates":[-8.0200053,12.5823345]},"properties":{"name":"la bonne miche du Golf","name:fr":"la bonne miche du Golf","shop":"bakery"}},
{"type":"Feature","geometry":{"type":"Point","coordinates":[-8.0146616,12.5784785]},"properties":{"name":"Tolo","name:en":"Tolo","name:fr":"Tolo","shop":"supermarket"}},
{"type":"Feature","geometry":{"type":"Point","coordinates":[-8.0037166,12.6103404]},"properties":{"name":"Boulangerie Tata de Bamako","shop":"bakery"}},
{"type":"Feature","geometry":{"type":"Point","coordinates":[-8.0055348,12.6071351]},"properties":{"name":"Boulangerie Moderne","shop":"bakery"}},
{"type":"Feature","geometry":{"type":"Point","coordinates":[-7.7758133,12.6107144]},"properties":{"shop":"bakery"}},
{"type":"Feature","geometry":{"type":"Point","coordinates":[-8.0070298,12.5815575]},"properties":{"name":"Fitini Market","shop":"supermarket"}},
{"type":"Feature","geometry":{"type":"Point","coordinates":[-8.008854,12.5824091]},"properties":{"name":"Boulangerie Moderne Nouhoum","shop":"bakery"}},
{"type":"Feature","geometry":{"type":"Point","coordinates":[-8.006895,12.5807137]},"properties":{"name":"Tim Appart","shop":"supermarket"}},
{"type":"Feature","geometry":{"type":"Point","coordinates":[-8.006598,12.580128]},"properties":{"name":"Ncs Super Marché","shop":"supermarket"}},
{"type":"Feature","geometry":{"type":"Point","coordinates":[-8.0053757,12.5752776]},"properties":{"name":"Rosy","shop":"bakery"}},
{"type":"Feature","geometry":{"type":"Point","coordinates":[-8.0048405,12.5767598]},"properties":{"name":"Sodiaf Mali","shop":"butcher"}},
{"type":"Feature","geometry":{"type":"Point","coordinates":[-5.9488266,11.7457375]},"properties":{"amenity":"marketplace","name":"Place du Marché"}},
{"type":"Feature","geometry":{"type":"Point","coordinates":[-5.6645717,11.6879513]},"properties":{"amenity":"marketplace","name":"Marché"}},
{"type":"Feature","geometry":{"type":"Point","coordinates":[-5.6676281,11.3188921]},"properties":{"name":"Pâtisserie Al Baraka","shop":"bakery"}},
{"type":"Feature","geometry":{"type":"Point","coordinates":[-7.9992338,12.642962]},"properties":{"name":"Boulangerie Fournil ex Kamu","shop":"bakery"}},
{"type":"Feature","geometry":{"type":"Point","coordinates":[-7.9515621,12.5858138]},"properties":{"addr:street":"Rue du Gouverneur","description":"Boulangerie Hawa Sy se trouve à Bamako,Faladiè sema sur la rue du Gouverneur près de l'hôtel Alumunia II","name":"Boulangerie Hawa Sy","opening_hours":"Mo-Su 07:00-22:00","phone":"76576206","shop":"bakery"}},
{"type":"Feature","geometry":{"type":"Point","coordinates":[-7.9514531,12.5858284]},"properties":{"addr:street":"rue 839 route gouverneur","name":"Boulangerie Hawa Sy","name:en":"Bakehouse Hawa Sy","name:fr":"Boulangerie Hawa Sy","opening_hours":"24/7","phone":"76560206","shop":"bakery"}},
{"type":"Feature","geometry":{"type":"Point","coordinates":[0.324387,15.8165376]},"properties":{"amenity":"marketplace","name":"Centre commerciale de la Commune de Bara","shop":"mall"}},
{"type":"Feature","geometry":{"type":"Point","coordinates":[-9.9252135,14.4740303]},"properties":{"amenity":"marketplace"}},
{"type":"Feature","geometry":{"type":"Point","coordinates":[-3.0067664,16.7682115]},"properties":{"name":"Boulangerie Moderne de Tombouctou","name:ar":"الحديث المخابز تمبكتو","shop":"bakery"}},
{"type":"Feature","geometry":{"type":"Point","coordinates":[-5.7510907,12.9512474]},"properties":{"name":"Boucherie Abdoulaye","name:fr":"Boucherie Abdoulaye","shop":"butcher"}},
{"type":"Feature","geometry":{"type":"Point","coordinates":[-7.9255818,12.5753686]},"properties":{"name":"Boulangerie pâtisserie","shop":"bakery"}},
{"type":"Feature","geometry":{"type":"Point","coordinates":[-7.9257844,12.5754399]},"properties":{"name":"Boulangerie Pâtisserie","shop":"bakery"}},
{"type":"Feature","geometry":{"type":"Point","coordinates":[-8.0104065,12.583623]},"properties":{"name":"Guichet Pain","shop":"bakery"}},
{"type":"Feature","geometry":{"type":"Point","coordinates":[-8.0126472,12.5844421]},"properties":{"name":"Rôtisserie Yankadi","shop":"butcher"}},
{"type":"Feature","geometry":{"type":"Point","coordinates":[3.6971801,15.7815793]},"properties":{"amenity":"marketplace"}},
{"type":"Feature","geometry":{"type":"Point","coordinates":[-4.1024597,14.5272746]},"properties":{"name":"Bavaria","name:fr":"Bavaria","opening_hours":"Mo-Su 09:00-23:00","shop":"supermarket"}},
{"type":"Feature","geometry":{"type":"Point","coordinates":[-4.1018674,14.5271277]},"properties":{"name":"SOMAYAF","name:fr":"SOMAYAF","opening_hours":"24/7","shop":"bakery"}},
{"type":"Feature","geometry":{"type":"Point","coordinates":[-4.2732442,13.2456448]},"properties":{"amenity":"marketplace","name":"Marché Koula","name:en":"Koula Market","name:fr":"Marché Koula"}},
{"type":"Feature","geometry":{"type":"Point","coordinates":[-6.518049,13.1687844]},"properties":{"name":"Centre lait Zambougou","name:fr":"Centre lait Zambougou","shop":"dairy"}},
{"type":"Feature","geometry":{"type":"Point","coordinates":[-7.9682269,12.7023994]},"properties":{"name":"Boulangerie BBK","name:fr":"Boulangerie BBK","shop":"bakery"}},
{"type":"Feature","geometry":{"type":"Point","coordinates":[-7.9770562,12.6137745]},"properties":{"name":"Fitini Supermarket Libre Service","name:en":"Fitini Supermarket Libre Service","shop":"supermarket"}},
{"type":"Feature","geometry":{"type":"Point","coordinates":[-4.5827915,13.4127213]},"properties":{"name":"Marché samedi de Tenin","name:en":"Tenin saturday market","name:fr":"Marché samedi de Tenin","shop":"supermarket"}},
{"type":"Feature","geometry":{"type":"Point","coordinates":[-4.0645934,14.2854523]},"properties":{"amenity":"marketplace","name":"Marché Dimanche Somadougou","name:en":"Sunday market Somadougou","name:fr":"Marché Dimanche Somadougou"}},
{"type":"Feature","geometry":{"type":"Point","coordinates":[-4.6731763,12.8584399]},"properties":{"amenity":"marketplace","name":"Marché mercredi Diora","name:en":"Diora Wednesday Market","name:fr":"Marché mercredi Diora"}},
{"type":"Feature","geometry":{"type":"Point","coordinates":[-6.7723027,12.9152526]},"properties":{"name":"Vente de lait Konobougou","name:fr":"Vente de lait Konobougou","shop":"dairy"}},
{"type":"Feature","geometry":{"type":"Point","coordinates":[-7.952169,12.5926223]},"properties":{"name":"Boulangerie Aissata","shop":"bakery"}},
{"type":"Feature","geometry":{"type":"Point","coordinates":[-7.948202,12.5924443]},"properties":{"name":"Boulangerie Oumar Doumbia","shop":"bakery"}},
{"type":"Feature","geometry":{"type":"Point","coordinates":[-8.0724333,12.7592351]},"properties":{"name":"Boulangerie Berthela","name:fr":"Boulangerie Berthela","shop":"bakery"}},
{"type":"Feature","geometry":{"type":"Point","coordinates":[-8.4158734,11.9421773]},"properties":{"name":"Marché","shop":"supermarket"}},
{"type":"Feature","geometry":{"type":"Point","coordinates":[-8.4157768,11.9419739]},"properties":{"name":"Marché","shop":"supermarket"}},
{"type":"Feature","geometry":{"type":"Point","coordinates":[-3.0073813,16.7680998]},"properties":{"name":"Petit Maché","name:es":"Pequeño Mercado","shop":"supermarket"}},
{"type":"Feature","geometry":{"type":"Point","coordinates":[-3.0070245,16.7738524]},"properties":{"shop":"supermarket"}},
{"type":"Feature","geometry":{"type":"Point","coordinates":[-7.9276523,12.5795283]},"properties":{"shop":"supermarket"}},
{"type":"Feature","geometry":{"type":"Point","coordinates":[-8.0325883,13.5751883]},"properties":{"name":"Boucherie Beledougou","shop":"butcher"}},
{"type":"Feature","geometry":{"type":"Point","coordinates":[-8.0932302,12.8310369]},"properties":{"amenity":"marketplace","name":"Marché à betail de Kati Dral","name:en":"Animal market Dral","shop":"pet"}},
{"type":"Feature","geometry":{"type":"Point","coordinates":[-7.9521543,12.6623297]},"properties":{"name":"Tonino Market","shop":"supermarket"}},
{"type":"Feature","geometry":{"type":"Point","coordinates":[-8.0372956,12.623073400000001]},"properties":{"name":"Super Ceramic Alimentation","shop":"supermarket"}},
{"type":"Feature","geometry":{"type":"Point","coordinates":[-10.8104843,14.6362458]},"properties":{"shop":"bakery"}},
{"type":"Feature","geometry":{"type":"Point","coordinates":[-10.8078801,14.6355016]},"properties":{"name":"Boutique","shop":"bakery"}},
{"type":"Feature","geometry":{"type":"Point","coordinates":[-10.8073745,14.6357112]},"properties":{"description":"Pain fzit à la main","name":"Boulangerie","shop":"bakery","source":"Osm_Mali"}},
{"type":"Feature","geometry":{"type":"Point","coordinates":[-10.7523705,14.6482053]},"properties":{"shop":"bakery"}},
{"type":"Feature","geometry":{"type":"Point","coordinates":[-10.7522477,14.6497084]},"properties":{"description":"Boulangerie","shop":"bakery","source":"survey"}},
{"type":"Feature","geometry":{"type":"Point","coordinates":[-10.7498883,14.6432094]},"properties":{"name":"Dibiterie","shop":"butcher","source":"survey"}},
{"type":"Feature","geometry":{"type":"Point","coordinates":[-8.0904221,13.8848333]},"properties":{"amenity":"marketplace","name":"Marché"}},
{"type":"Feature","geometry":{"type":"Point","coordinates":[-10.697306,14.6416047]},"properties":{"description":"Boulangéire artisanale","shop":"bakery"}},
{"type":"Feature","geometry":{"type":"Point","coordinates":[-10.697996,14.642454]},"properties":{"shop":"supermarket"}},
{"type":"Feature","geometry":{"type":"Point","coordinates":[-10.7275267,14.623745]},"properties":{"description":"Boulangéire artisanale","shop":"bakery","source":"survey"}},
{"type":"Feature","geometry":{"type":"Point","coordinates":[-8.0126488,12.668119]},"properties":{"shop":"bakery"}},
{"type":"Feature","geometry":{"type":"Point","coordinates":[-10.6974336,14.6428009]},"properties":{"shop":"supermarket","source":"survey"}},
{"type":"Feature","geometry":{"type":"Point","coordinates":[-10.7327343,14.6257552]},"properties":{"description":"Boulangerie","shop":"bakery"}},
{"type":"Feature","geometry":{"type":"Point","coordinates":[-8.2110863,14.371579]},"properties":{"description":"vente","name":"point de vente pasteque","shop":"farm"}},
{"type":"Feature","geometry":{"type":"Point","coordinates":[-10.7325888,14.6265306]},"properties":{"description":"Boulangéire artisanale","shop":"bakery"}},
{"type":"Feature","geometry":{"type":"Point","coordinates":[-10.7309553,14.6268375]},"properties":{"shop":"bakery"}},
{"type":"Feature","geometry":{"type":"Point","coordinates":[-10.6987339,14.644572]},"properties":{"description":"Boulangéire artisanale","shop":"bakery"}},
{"type":"Feature","geometry":{"type":"Point","coordinates":[-10.6975146,14.6428248]},"properties":{"shop":"supermarket"}},
{"type":"Feature","geometry":{"type":"Point","coordinates":[-4.8929711,13.2900399]},"properties":{"name":"Dépôt boisson","shop":"supermarket"}},
{"type":"Feature","geometry":{"type":"Point","coordinates":[-6.2357006,13.4406963]},"properties":{"name":"Boulangerie moderne","shop":"bakery"}},
{"type":"Feature","geometry":{"type":"Point","coordinates":[-6.7607247,12.9191237]},"properties":{"amenity":"marketplace","name":"Marché Dimanche Konobougou","name:en":"Sunday market Konobougou"}},
{"type":"Feature","geometry":{"type":"Point","coordinates":[-7.8927882,12.6030954]},"properties":{"name":"Boulangerie Moderne","shop":"bakery"}},
{"type":"Feature","geometry":{"type":"Point","coordinates":[-8.0502608,12.6031402]},"properties":{"name":"Sugu N6 Baramouso","shop":"supermarket"}},
{"type":"Feature","geometry":{"type":"Point","coordinates":[-6.2433151,13.4399735]},"properties":{"amenity":"marketplace","name":"Marché de Segou"}},
{"type":"Feature","geometry":{"type":"Point","coordinates":[-7.8763822,12.5956861]},"properties":{"name":"Boulangerie Faguibine","shop":"bakery"}},
{"type":"Feature","geometry":{"type":"Point","coordinates":[-6.2590474,13.4472124]},"properties":{"amenity":"marketplace","name":"Marché de Mil"}},
{"type":"Feature","geometry":{"type":"Point","coordinates":[-11.4306961,14.4396985]},"properties":{"name":"Boulangerie la Kayesienne","shop":"bakery"}},
{"type":"Feature","geometry":{"type":"Point","coordinates":[-10.8115281,14.6378722]},"properties":{"amenity":"marketplace","name":"Marche de Dialaka"}},
{"type":"Feature","geometry":{"type":"Point","coordinates":[-7.9387571,13.0972753]},"properties":{"shop":"convenience"}},
{"type":"Feature","geometry":{"type":"Point","coordinates":[-11.444039,14.4327502]},"properties":{"name":"Boulangerie Banana Sarl","shop":"bakery","wheelchair":"yes"}},
{"type":"Feature","geometry":{"type":"Point","coordinates":[-5.8780617,13.779425700000001]},"properties":{"amenity":"marketplace","name":"Marché de Sibila"}},
{"type":"Feature","geometry":{"type":"Point","coordinates":[-5.8765281,13.775646]},"properties":{"amenity":"marketplace","name":"Grand marché de Sibila"}},
{"type":"Feature","geometry":{"type":"Point","coordinates":[-11.4312101,14.4408649]},"properties":{"name":"Boulangerie Patisserie","shop":"bakery"}},
{"type":"Feature","geometry":{"type":"Point","coordinates":[-11.2331936,12.8517178]},"properties":{"amenity":"marketplace"}},
{"type":"Feature","geometry":{"type":"Point","coordinates":[-6.2926541,13.4261865]},"properties":{"amenity":"marketplace","name":"Marché de Bagadadji"}},
{"type":"Feature","geometry":{"type":"Point","coordinates":[-3.2786905,14.090742]},"properties":{"name":"Abatoire Pel","shop":"butcher"}},
{"type":"Feature","geometry":{"type":"Point","coordinates":[-3.0890327,14.0620368]},"properties":{"name":"Boulangerie moderne","shop":"bakery"}},
{"type":"Feature","geometry":{"type":"Point","coordinates":[-3.0719287,14.0635048]},"properties":{"name":"Abattoir Koro","shop":"butcher"}},
{"type":"Feature","geometry":{"type":"Point","coordinates":[-11.438246,14.4447557]},"properties":{"name":"Pâtisserie éclosion","shop":"bakery"}},
{"type":"Feature","geometry":{"type":"Point","coordinates":[-11.4380416,14.4474364]},"properties":{"name":"Dahirs","shop":"bakery"}},
{"type":"Feature","geometry":{"type":"Point","coordinates":[-7.9261074,12.5775872]},"properties":{"name":"Boulangerie tacoula","shop":"bakery"}},
{"type":"Feature","geometry":{"type":"Point","coordinates":[-7.949879,12.5882238]},"properties":{"addr:street":"rue 839 route gouverneur","name":"Tringa","shop":"supermarket"}},
{"type":"Feature","geometry":{"type":"Point","coordinates":[-7.950157,12.5869696]},"properties":{"addr:street":"rue 839 route gouverneur","internet_access":"wlan","name":"Fitini Market","opening_hours":"Mo-Sa 00:00-24:00","phone":"60024998","shop":"supermarket"}},
{"type":"Feature","geometry":{"type":"Point","coordinates":[-11.4348047,14.4392936]},"properties":{"name":"Boulangerie Patisserie Dahir","shop":"bakery"}},
{"type":"Feature","geometry":{"type":"Point","coordinates":[-4.3285485,12.9613814]},"properties":{"name":"Marché Lundi Tetou","name:en":"Monday market Tetou","shop":"supermarket"}},
{"type":"Feature","geometry":{"type":"Point","coordinates":[-7.9922304,12.5611132]},"properties":{"name":"Amadou boutique","shop":"butcher"}},
{"type":"Feature","geometry":{"type":"Point","coordinates":[-8.0905362,13.8827742]},"properties":{"name":"Marché jeudi Didieni","name:en":"Didieni thursday market","shop":"supermarket"}},
{"type":"Feature","geometry":{"type":"Point","coordinates":[-8.0208055,12.6433542]},"properties":{"name":"Supermarché","name:fr":"Supermarché","shop":"supermarket"}},
{"type":"Feature","geometry":{"type":"Point","coordinates":[-7.9864151,12.6161262]},"properties":{"name":"kanta","shop":"supermarket"}},
{"type":"Feature","geometry":{"type":"Point","coordinates":[-8.0336726,13.5679667]},"properties":{"name":"Boulangerie Beledougou","shop":"bakery"}},
{"type":"Feature","geometry":{"type":"Point","coordinates":[-8.0557839,12.7144301]},"properties":{"name":"Boulangerie Moderne Ntefa","shop":"bakery"}},
{"type":"Feature","geometry":{"type":"Point","coordinates":[-6.2557701,13.4287065]},"properties":{"amenity":"marketplace","name":"Marché de Darssalam","survey:date":"2021-11-07"}},
{"type":"Feature","geometry":{"type":"Point","coordinates":[-6.3138506,13.4203345]},"properties":{"amenity":"marketplace","name":"Marché de Sebougou"}},
{"type":"Feature","geometry":{"type":"Point","coordinates":[-6.2901292,13.4322468]},"properties":{"amenity":"marketplace","name":"Marché de Segou Coura"}},
{"type":"Feature","geometry":{"type":"Point","coordinates":[-7.7994039,12.6598367]},"properties":{"amenity":"marketplace","name":"Marché de sala"}},
{"type":"Feature","geometry":{"type":"Point","coordinates":[-6.0619104,14.0427441]},"properties":{"amenity":"marketplace","name":"Marche de Seribala"}},
{"type":"Feature","geometry":{"type":"Point","coordinates":[-6.0605773,14.0515181]},"properties":{"name":"Boucherie","shop":"butcher"}},
{"type":"Feature","geometry":{"type":"Point","coordinates":[-5.9812617,14.3728606]},"properties":{"amenity":"marketplace","name":"Place Marchands"}},
{"type":"Feature","geometry":{"type":"Point","coordinates":[-5.9792689,14.3958826]},"properties":{"amenity":"marketplace","name":"Marché de Siengo"}},
{"type":"Feature","geometry":{"type":"Point","coordinates":[-8.010951,12.6449681]},"properties":{"name":"Boulangerie Patisserie Mouye","shop":"bakery"}},
{"type":"Feature","geometry":{"type":"Point","coordinates":[-8.009056,12.6486125]},"properties":{"shop":"bakery"}},
{"type":"Feature","geometry":{"type":"Point","coordinates":[-7.9981408,12.5487788]},"properties":{"name":"Patisserie Flèche d'Or","shop":"bakery"}},
{"type":"Feature","geometry":{"type":"Point","coordinates":[-7.9908202,12.6407794]},"properties":{"addr:street":"Avenue De La Marne","name":"Wassem Agri","name:en":"Wassem Agri","phone":"+22320210511","shop":"supermarket"}},
{"type":"Feature","geometry":{"type":"Point","coordinates":[-7.9873702,12.5785564]},"properties":{"name":"SOAD","shop":"bakery"}},
{"type":"Feature","geometry":{"type":"Point","coordinates":[-8.0446009,12.6147117]},"properties":{"amenity":"marketplace","name":"Marché Mouton"}},
{"type":"Feature","geometry":{"type":"Point","coordinates":[-8.0136481,12.5961984]},"properties":{"addr:housenumber":"282","addr:street":"Rue 612","name":"famille boirela","opening_hours":"24/7","phone":"64155734","shop":"butcher"}},
{"type":"Feature","geometry":{"type":"Point","coordinates":[-4.6455683,12.8039367]},"properties":{"amenity":"marketplace","name":"Marché lundi Diarakoungo","name:en":"Diarakoungo monday market"}},
{"type":"Feature","geometry":{"type":"Point","coordinates":[-2.9554921,15.0098609]},"properties":{"name":"Boulangerie","shop":"bakery"}},
{"type":"Feature","geometry":{"type":"Point","coordinates":[-4.8973831,13.2986166]},"properties":{"name":"Boulangerie moderne","shop":"bakery"}},
{"type":"Feature","geometry":{"type":"Point","coordinates":[-4.8954801,13.3034778]},"properties":{"amenity":"marketplace","name":"Marché lundi San","name:en":"San monday market"}},
{"type":"Feature","geometry":{"type":"Point","coordinates":[-7.9318788,12.5818183]},"properties":{"amenity":"marketplace","name":"Mon Panier"}},
{"type":"Feature","geometry":{"type":"Point","coordinates":[-7.9745695,12.6080924]},"properties":{"name":"Boulangerie Univers Pain","shop":"bakery"}},
{"type":"Feature","geometry":{"type":"Point","coordinates":[-7.9515582,12.5942152]},"properties":{"name":"Boulangerie","shop":"bakery"}},
{"type":"Feature","geometry":{"type":"Point","coordinates":[-8.0168914,12.5795846]},"properties":{"name":"Boulangerie Ascofare","shop":"bakery"}},
{"type":"Feature","geometry":{"type":"Point","coordinates":[-5.8203024,13.4324605]},"properties":{"amenity":"marketplace"}},
{"type":"Feature","geometry":{"type":"Point","coordinates":[-2.9487772,15.0101357]},"properties":{"name":"Boulangerie moderne","shop":"bakery"}},
{"type":"Feature","geometry":{"type":"Point","coordinates":[-5.3815225,13.573815]},"properties":{"amenity":"marketplace","source":"Bing"}},
{"type":"Feature","geometry":{"type":"Point","coordinates":[-5.0336614,12.2210029]},"properties":{"amenity":"marketplace","source":"Bing"}},
{"type":"Feature","geometry":{"type":"Point","coordinates":[-8.042825,12.7078087]},"properties":{"name":"Alimentation Générale","shop":"convenience"}},
{"type":"Feature","geometry":{"type":"Point","coordinates":[-8.0054967,12.6761914]},"properties":{"name":"Boulangerie Koulouba","shop":"bakery"}},
{"type":"Feature","geometry":{"type":"Point","coordinates":[-9.472757,13.0392847]},"properties":{"amenity":"marketplace","name":"Pétit Marché de Kita Kolibougou"}},
{"type":"Feature","geometry":{"type":"Point","coordinates":[-7.9430589,12.5866395]},"properties":{"shop":"bakery"}},
{"type":"Feature","geometry":{"type":"Point","coordinates":[-7.9812415,12.5721014]},"properties":{"name":"Boulangerie Patisserie","shop":"bakery"}},
{"type":"Feature","geometry":{"type":"Point","coordinates":[-7.9701539,12.5732186]},"properties":{"name":"Boulangerie du Mali","shop":"bakery"}},
{"type":"Feature","geometry":{"type":"Point","coordinates":[-7.997485,12.5729562]},"properties":{"name":"Boulangerie Oni Assa 2","shop":"bakery"}},
{"type":"Feature","geometry":{"type":"Point","coordinates":[-8.0674713,12.5857722]},"properties":{"amenity":"marketplace","name":"Sugu N6 Baramouso"}},
{"type":"Feature","geometry":{"type":"Point","coordinates":[-8.0491184,12.6047538]},"properties":{"name":"Boulangerie Rahmatoulah","shop":"bakery"}},
{"type":"Feature","geometry":{"type":"Point","coordinates":[-8.0491793,12.6042466]},"properties":{"name":"Milles & Merveilles","shop":"supermarket"}},
{"type":"Feature","geometry":{"type":"Point","coordinates":[-8.0487382,12.6046537]},"properties":{"amenity":"marketplace","name":"Marché des Moutons"}},
{"type":"Feature","geometry":{"type":"Point","coordinates":[-8.0521205,12.6012286]},"properties":{"amenity":"marketplace","name":"Marché des Moutons"}},
{"type":"Feature","geometry":{"type":"Point","coordinates":[-7.9942027,12.5322562]},"properties":{"name":"Depot de Pain","shop":"bakery"}},
{"type":"Feature","geometry":{"type":"Point","coordinates":[-7.9942265,12.5406824]},"properties":{"name":"Boulangerie Moderne","shop":"bakery"}},
{"type":"Feature","geometry":{"type":"Point","coordinates":[-7.9948742,12.5536063]},"properties":{"name":"Boulangerie Moderne Elfaroukh","shop":"bakery"}},
{"type":"Feature","geometry":{"type":"Point","coordinates":[-7.9443035,12.5883332]},"properties":{"amenity":"marketplace","name":"Petit Marché Moussokoro Sugu"}},
{"type":"Feature","geometry":{"type":"Point","coordinates":[-7.9476723,12.5900818]},"properties":{"name":"Boulangerie Faladie-Banankabougou","shop":"bakery"}},
{"type":"Feature","geometry":{"type":"Point","coordinates":[-5.4596525,12.3748841]},"properties":{"name":"Boutique Damu","phone":"0022321641514","shop":"convenience"}},
{"type":"Feature","geometry":{"type":"Point","coordinates":[-7.969165,12.6626471]},"properties":{"shop":"supermarket"}},
{"type":"Feature","geometry":{"type":"Point","coordinates":[-5.0760383,14.3608564]},"properties":{"amenity":"marketplace","name":"point de vente des condiments"}},
{"type":"Feature","geometry":{"type":"Point","coordinates":[-5.0770399,14.3612404]},"properties":{"amenity":"marketplace","name":"point de vente des condiments"}},
{"type":"Feature","geometry":{"type":"Point","coordinates":[-8.0053432,12.5752561]},"properties":{"name":"ROSY Boulangerie - Pâtisserie","shop":"bakery"}},
{"type":"Feature","geometry":{"type":"Point","coordinates":[-8.0065933,12.5801685]},"properties":{"name":"Supermarché Nakara","shop":"supermarket"}},
{"type":"Feature","geometry":{"type":"Point","coordinates":[-8.0046956,12.5761168]},"properties":{"name":"Papito","shop":"bakery"}},
{"type":"Feature","geometry":{"type":"Point","coordinates":[-7.9988797,12.5584164]},"properties":{"name":"Souraga Boutique","shop":"bakery"}},
{"type":"Feature","geometry":{"type":"Point","coordinates":[-8.0022915,12.5589609]},"properties":{"name":"Boulangerie Moderne","shop":"bakery"}},
{"type":"Feature","geometry":{"type":"Point","coordinates":[-8.001617,12.558885]},"properties":{"name":"Diallo Boutique","shop":"bakery"}},
{"type":"Feature","geometry":{"type":"Point","coordinates":[-7.9997837,12.5584949]},"properties":{"name":"Dri boutique","shop":"bakery"}},
{"type":"Feature","geometry":{"type":"Point","coordinates":[-7.9991694,12.5593563]},"properties":{"name":"Amadou","shop":"bakery"}},
{"type":"Feature","geometry":{"type":"Point","coordinates":[-7.999443,12.5585604]},"properties":{"shop":"butcher"}},
{"type":"Feature","geometry":{"type":"Point","coordinates":[-8.0028367,12.5576637]},"properties":{"name":"Boutique Alimentaire Diallo","shop":"bakery"}},
{"type":"Feature","geometry":{"type":"Point","coordinates":[-7.9994296,12.5615151]},"properties":{"name":"Alimentation Fanta","shop":"bakery"}},
{"type":"Feature","geometry":{"type":"Point","coordinates":[-7.9925476,12.5609949]},"properties":{"shop":"butcher"}},
{"type":"Feature","geometry":{"type":"Point","coordinates":[-10.216515,13.6405]},"properties":{"name":"Boutique de Sissoko et Frères de Badoumbé","shop":"convenience"}},
{"type":"Feature","geometry":{"type":"Point","coordinates":[-8.0283219,12.6386241]},"properties":{"name":"Supermarché Turc","name:fr":"Discount Market","shop":"supermarket"}},
{"type":"Feature","geometry":{"type":"Point","coordinates":[-8.0596809,12.5859461]},"properties":{"name":"Dibiterie","shop":"butcher"}},
{"type":"Feature","geometry":{"type":"Point","coordinates":[-8.0335777,12.6301702]},"properties":{"name":"Siby Shopping Centet","shop":"supermarket"}},
{"type":"Feature","geometry":{"type":"Point","coordinates":[-10.3019277,14.7114461]},"properties":{"amenity":"marketplace","name":"marché public de Sandaré"}},
{"type":"Feature","geometry":{"type":"Point","coordinates":[-9.1882359,14.5531534]},"properties":{"name":"Boucherie","shop":"butcher"}},
{"type":"Feature","geometry":{"type":"Point","coordinates":[-9.188134,14.5530868]},"properties":{"name":"Boulangerie Binkadi","shop":"bakery"}},
{"type":"Feature","geometry":{"type":"Point","coordinates":[-9.5912181,15.2327136]},"properties":{"name":"Boulangerie Moderne Cheick Ahamed Tidiane","shop":"bakery"}},
{"type":"Feature","geometry":{"type":"Point","coordinates":[-9.5908145,15.2318738]},"properties":{"amenity":"marketplace","name":"Marché de Nioro du Sahel","name:fr":"Marché de Nioro du Sahel"}},
{"type":"Feature","geometry":{"type":"Point","coordinates":[-8.8440595,14.5114968]},"properties":{"name":"Boulagerie Danaya","shop":"bakery"}},
{"type":"Feature","geometry":{"type":"Point","coordinates":[-10.6996027,14.6425098]},"properties":{"shop":"supermarket"}},
{"type":"Feature","geometry":{"type":"Point","coordinates":[-10.698334,14.6423145]},"properties":{"shop":"supermarket"}},
{"type":"Feature","geometry":{"type":"Point","coordinates":[-10.697121,14.642742]},"properties":{"shop":"supermarket"}},
{"type":"Feature","geometry":{"type":"Point","coordinates":[-10.6971042,14.6426194]},"properties":{"shop":"supermarket"}},
{"type":"Feature","geometry":{"type":"Point","coordinates":[-10.6977084,14.6424235]},"properties":{"shop":"butcher"}},
{"type":"Feature","geometry":{"type":"Point","coordinates":[-10.6964021,14.6425143]},"properties":{"shop":"bakery"}},
{"type":"Feature","geometry":{"type":"Point","coordinates":[-8.0583402,12.5839638]},"properties":{"name":"Supermarché (Ikhlass Market)","operator":"Ikhlass","shop":"supermarket"}},
{"type":"Feature","geometry":{"type":"Point","coordinates":[-8.0728591,12.5799524]},"properties":{"name":"Boulangerie de Poste","shop":"bakery"}},
{"type":"Feature","geometry":{"type":"Point","coordinates":[-8.0729207,12.5784851]},"properties":{"name":"Artisan Boulangerie","shop":"bakery"}},
{"type":"Feature","geometry":{"type":"Point","coordinates":[-8.0599514,12.5937487]},"properties":{"name":"Alimentation générale","shop":"supermarket"}},
{"type":"Feature","geometry":{"type":"Point","coordinates":[-8.0576432,12.5960434]},"properties":{"name":"Boulangerie","shop":"bakery"}},
{"type":"Feature","geometry":{"type":"Point","coordinates":[-8.0346433,12.6424618]},"properties":{"name":"Boulangerie Moderne","shop":"bakery"}},
{"type":"Feature","geometry":{"type":"Point","coordinates":[-8.0575833,12.5961504]},"properties":{"name":"Rawda Market","shop":"supermarket"}},
{"type":"Feature","geometry":{"type":"Point","coordinates":[-8.0534392,12.6004281]},"properties":{"name":"Rôtisserie","shop":"butcher"}},
{"type":"Feature","geometry":{"type":"Point","coordinates":[-8.0313245,12.6193808]},"properties":{"name":"Boucherie & Poissonerie","shop":"butcher"}},
{"type":"Feature","geometry":{"type":"Point","coordinates":[-8.0355981,12.6170141]},"properties":{"name":"Patisserie le Requin Bleue","shop":"bakery"}},
{"type":"Feature","geometry":{"type":"Point","coordinates":[-8.0192689,12.6534513]},"properties":{"name":"Dibiterie Titanic","shop":"butcher"}},
{"type":"Feature","geometry":{"type":"Point","coordinates":[-8.0412677,12.6411481]},"properties":{"name":"Boucherie Moderne Touba","shop":"butcher"}},
{"type":"Feature","geometry":{"type":"Point","coordinates":[-6.0692033,13.7016107]},"properties":{"name":"Marché de Kirango","opening_hours":"Mo-Fr 08:30-20:00; Sa,Su 08:00-18:00","shop":"supermarket","wheelchair":"yes"}},
{"type":"Feature","geometry":{"type":"Point","coordinates":[-7.9602586,12.5849942]},"properties":{"name":"Boulangerie Kenedougou","shop":"bakery"}},
{"type":"Feature","geometry":{"type":"Point","coordinates":[-7.9620664,12.5847011]},"properties":{"shop":"bakery"}},
{"type":"Feature","geometry":{"type":"Point","coordinates":[-7.9767221,12.6131003]},"properties":{"name":"Fitini Market","shop":"supermarket"}},
{"type":"Feature","geometry":{"type":"Point","coordinates":[-8.0098719,12.645248]},"properties":{"shop":"convenience"}},
{"type":"Feature","geometry":{"type":"Point","coordinates":[-7.9363261,12.5779011]},"properties":{"name":"Boulangerie Patisserie Resto","shop":"bakery"}},
{"type":"Feature","geometry":{"type":"Point","coordinates":[-7.9774283,12.6441445]},"properties":{"name":"Diarrah Bah","shop":"bakery"}},
{"type":"Feature","geometry":{"type":"Point","coordinates":[-7.9979015,12.6141832]},"properties":{"name":"Diamou","shop":"bakery"}},
{"type":"Feature","geometry":{"type":"Point","coordinates":[-8.0722777,12.5690927]},"properties":{"name":"Alimentation SAMASSA","shop":"supermarket"}},
{"type":"Feature","geometry":{"type":"Point","coordinates":[-4.3129733,13.84772]},"properties":{"name":"Dibitérie(Rotisserie)","shop":"butcher"}},
{"type":"Feature","geometry":{"type":"Point","coordinates":[-4.5549829,13.905904]},"properties":{"amenity":"marketplace","name":"Marché de Djénné"}},
{"type":"Feature","geometry":{"type":"Point","coordinates":[-5.4716167,12.4122483]},"properties":{"shop":"convenience"}},
{"type":"Feature","geometry":{"type":"Point","coordinates":[-5.4713688,12.412107]},"properties":{"shop":"convenience"}},
{"type":"Feature","geometry":{"type":"Point","coordinates":[-5.4454701,12.4115789]},"properties":{"name":"Boutique tantie Mahoua Diallo","shop":"convenience"}},
{"type":"Feature","geometry":{"type":"Point","coordinates":[-5.4714317,12.4122]},"properties":{"shop":"convenience"}},
{"type":"Feature","geometry":{"type":"Point","coordinates":[-5.4696675,12.4116616]},"properties":{"shop":"convenience"}},
{"type":"Feature","geometry":{"type":"Point","coordinates":[-5.47191,12.413285]},"properties":{"shop":"convenience"}},
{"type":"Feature","geometry":{"type":"Point","coordinates":[-5.4450332,12.4124015]},"properties":{"name":"Boulangerie Imam El Hadj Dembelé","shop":"bakery"}},
{"type":"Feature","geometry":{"type":"Point","coordinates":[-5.4547973,12.4053364]},"properties":{"shop":"convenience"}},
{"type":"Feature","geometry":{"type":"Point","coordinates":[-5.4562984,12.4046692]},"properties":{"name":"boutique pour vente des vivres","organic":"vente des vivres","shop":"convenience"}},
{"type":"Feature","geometry":{"type":"Point","coordinates":[-5.4550861,12.4047675]},"properties":{"name":"Boulangerie LAFIA","shop":"bakery"}},
{"type":"Feature","geometry":{"type":"Point","coordinates":[-7.9794635,12.6540221]},"properties":{"name":"Mille marché","shop":"supermarket"}},
{"type":"Feature","geometry":{"type":"Point","coordinates":[-6.091418,13.9015009]},"properties":{"amenity":"marketplace","name":"Marché Bewani"}},
{"type":"Feature","geometry":{"type":"Point","coordinates":[-5.9793279,14.2550743]},"properties":{"name":"Boulangerie Salia Daou Niono A","shop":"bakery"}},
{"type":"Feature","geometry":{"type":"Point","coordinates":[-5.9812851,14.2520965]},"properties":{"amenity":"marketplace","name":"Marché de Niono"}},
{"type":"Feature","geometry":{"type":"Point","coordinates":[-6.0731831,13.6772874]},"properties":{"name":"Boulangerie moderne djenefing","shop":"bakery"}},
{"type":"Feature","geometry":{"type":"Point","coordinates":[-7.9426528,12.6709733]},"properties":{"name":"SOTELMA","shop":"bakery"}},
{"type":"Feature","geometry":{"type":"Point","coordinates":[-7.9506743,12.5872615]},"properties":{"addr:street":"rue du Gouverneur","name":"Fitini Market","opening_hours":"Mo-Su 08:00-22:00","shop":"supermarket"}},
{"type":"Feature","geometry":{"type":"Point","coordinates":[-7.9509978,12.5864349]},"properties":{"addr:street":"rue du Gouverneur","name":"Sanzara","opening_hours":"Mo-Su 09:00-19:00","phone":"99513232","shop":"supermarket","website":"produits-sanzara.com"}},
{"type":"Feature","geometry":{"type":"Point","coordinates":[-8.0004068,12.6399979]},"properties":{"name":"Grand marché de Boucherie (Dibida)","shop":"butcher"}},
{"type":"Feature","geometry":{"type":"Point","coordinates":[-10.7255379,15.1236247]},"properties":{"name":"Dibiterie","shop":"butcher"}},
{"type":"Feature","geometry":{"type":"Point","coordinates":[-11.4430748,14.4517064]},"properties":{"name":"Moulin","shop":"bakery"}},
{"type":"Feature","geometry":{"type":"Point","coordinates":[-11.4437494,14.4533986]},"properties":{"name":"Bathily Lait","shop":"dairy"}},
{"type":"Feature","geometry":{"type":"Point","coordinates":[-6.244238,13.4397294]},"properties":{"amenity":"marketplace","name":"Marché Château de Segou","wheelchair":"yes"}},
{"type":"Feature","geometry":{"type":"Point","coordinates":[-6.2423607,13.4365185]},"properties":{"amenity":"marketplace","name":"céréals"}},
{"type":"Feature","geometry":{"type":"Point","coordinates":[-6.2414155,13.4364493]},"properties":{"name":"alimentation divers","shop":"farm"}},
{"type":"Feature","geometry":{"type":"Point","coordinates":[-6.2429201,13.4360634]},"properties":{"name":"super rotisserie Alfaruk","shop":"butcher"}},
{"type":"Feature","geometry":{"type":"Point","coordinates":[-6.2442537,13.4356119]},"properties":{"name":"djènèfing keïta","shop":"bakery"}},
{"type":"Feature","geometry":{"type":"Point","coordinates":[-8.0301348,12.6398247]},"properties":{"name":"Boulangerie","shop":"bakery"}},
{"type":"Feature","geometry":{"type":"Point","coordinates":[-4.3660431,13.1182386]},"properties":{"amenity":"marketplace","name":"Marché Benena"}},
{"type":"Feature","geometry":{"type":"Point","coordinates":[-5.6117395,12.5811219]},"properties":{"amenity":"marketplace","name":"Marché de Niessoumana"}},
{"type":"Feature","geometry":{"type":"Point","coordinates":[-4.7790338,12.3530203]},"properties":{"amenity":"marketplace","name":"Marché de yorosso"}},
{"type":"Feature","geometry":{"type":"Point","coordinates":[-5.6202377,12.1565905]},"properties":{"amenity":"marketplace","name":"Marché de Zangasso","source":"Bing; GPS; Survey"}},
{"type":"Feature","geometry":{"type":"Point","coordinates":[-7.9381733,12.6647033]},"properties":{"name":"Penny Market","shop":"supermarket"}},
{"type":"Feature","geometry":{"type":"Point","coordinates":[-8.675423,11.7156366]},"properties":{"name":"Dibitérie","shop":"butcher"}},
{"type":"Feature","geometry":{"type":"Point","coordinates":[-8.7125,11.6787617]},"properties":{"name":"Dibitérie","shop":"butcher"}},
{"type":"Feature","geometry":{"type":"Point","coordinates":[-6.2442336,13.4403599]},"properties":{"amenity":"marketplace","name":"Marché"}},
{"type":"Feature","geometry":{"type":"Point","coordinates":[-8.0646649,12.7678608]},"properties":{"amenity":"marketplace","name":"Alimentation"}},
{"type":"Feature","geometry":{"type":"Point","coordinates":[-8.03977,12.6691468]},"properties":{"name":"Boulangerie Moderne","shop":"bakery"}},
{"type":"Feature","geometry":{"type":"Point","coordinates":[-7.9428537,12.6525989]},"properties":{"amenity":"marketplace","name":"Boutique Al Firdaous"}},
{"type":"Feature","geometry":{"type":"Point","coordinates":[-7.9507602,12.6508285]},"properties":{"amenity":"marketplace","name":"Touba Market"}},
{"type":"Feature","geometry":{"type":"Point","coordinates":[-7.9511699,12.6495651]},"properties":{"amenity":"marketplace","name":"Boutique"}},
{"type":"Feature","geometry":{"type":"Point","coordinates":[-7.9573765,12.6206634]},"properties":{"amenity":"marketplace","name":"Boutique"}},
{"type":"Feature","geometry":{"type":"Point","coordinates":[-7.9468972,12.605306]},"properties":{"name":"Boulangerie Patisserie","shop":"bakery"}},
{"type":"Feature","geometry":{"type":"Point","coordinates":[-5.4584530000000008,12.4057175]},"properties":{"name":"Boulangerie","shop":"bakery"}},
{"type":"Feature","geometry":{"type":"Point","coordinates":[-5.4698,12.2982191]},"properties":{"name":"Boulangerie la paix","shop":"bakery"}},
{"type":"Feature","geometry":{"type":"Point","coordinates":[-8.0349608,12.6246732]},"properties":{"shop":"bakery"}},
{"type":"Feature","geometry":{"type":"Point","coordinates":[-8.0370556,12.633474]},"properties":{"amenity":"marketplace","name":"Marché Bara Musso N°3"}},
{"type":"Feature","geometry":{"type":"Point","coordinates":[-8.033391,12.6454398]},"properties":{"name":"Rotisserie","shop":"butcher"}},
{"type":"Feature","geometry":{"type":"Point","coordinates":[-7.9688034,12.5731375]},"properties":{"name":"Yara Libre Services","shop":"supermarket"}},
{"type":"Feature","geometry":{"type":"Point","coordinates":[-4.902544,12.5016417]},"properties":{"amenity":"marketplace"}},
{"type":"Feature","geometry":{"type":"Point","coordinates":[-8.0089043,12.5355804]},"properties":{"name":"Ranch Boeuf et mouton","shop":"butcher"}},
{"type":"Feature","geometry":{"type":"Point","coordinates":[-5.4548056,12.4050293]},"properties":{"name":"boutique de DEMBELE","shop":"convenience"}},
{"type":"Feature","geometry":{"type":"Point","coordinates":[-8.035693,12.6173635]},"properties":{"name":"Bouloangerie Moderne Bon Pai","shop":"bakery"}},
{"type":"Feature","geometry":{"type":"Point","coordinates":[-7.9899265,12.5651246]},"properties":{"name":"Boulangerie Traoréla","shop":"bakery"}},
{"type":"Feature","geometry":{"type":"Point","coordinates":[-7.9901075,12.5623509]},"properties":{"name":"Bara Muso N°14","shop":"supermarket"}},
{"type":"Feature","geometry":{"type":"Point","coordinates":[-7.9902571,12.5573289]},"properties":{"name":"Bolly Commerce Général","shop":"supermarket"}},
{"type":"Feature","geometry":{"type":"Point","coordinates":[-5.4892163,12.3729627]},"properties":{"shop":"convenience"}},
{"type":"Feature","geometry":{"type":"Point","coordinates":[-5.5010724,12.3791528]},"properties":{"name":"Boutique Goussou Coulibaly","shop":"convenience"}},
{"type":"Feature","geometry":{"type":"Point","coordinates":[-6.3136464,13.4104305]},"properties":{"amenity":"marketplace"}},
{"type":"Feature","geometry":{"type":"Point","coordinates":[-1.2208034,17.007091]},"properties":{"amenity":"marketplace","name":"Marché de Garbame"}},
{"type":"Feature","geometry":{"type":"Point","coordinates":[-0.2648306,16.715467]},"properties":{"amenity":"marketplace","name":"Marché"}},
{"type":"Feature","geometry":{"type":"Point","coordinates":[-7.5007821,11.4215001]},"properties":{"name":"Fh","shop":"bakery"}},
{"type":"Feature","geometry":{"type":"Point","coordinates":[-8.0282244,12.595202]},"properties":{"name":"Alimentation Samourai","shop":"supermarket"}},
{"type":"Feature","geometry":{"type":"Point","coordinates":[-8.0259593,12.5967268]},"properties":{"name":"Boulangerie Patisserie Salon de Thé","shop":"bakery"}},
{"type":"Feature","geometry":{"type":"Point","coordinates":[-8.0198908,12.5964493]},"properties":{"name":"Golden Price Market","payment:cash":"yes","payment:credit_cards":"yes","payment:visa":"yes","shop":"supermarket"}},
{"type":"Feature","geometry":{"type":"Point","coordinates":[-8.0020776,12.5621009]},"properties":{"name":"Boulangerie Patisserie Pain de Baraoueli","shop":"bakery"}},
{"type":"Feature","geometry":{"type":"Point","coordinates":[-7.9946204,12.5296985]},"properties":{"name":"Dibiterie","shop":"butcher"}},
{"type":"Feature","geometry":{"type":"Point","coordinates":[-7.990128,12.5724529]},"properties":{"name":"Rotisserie Sangaré & Frères","shop":"butcher"}},
{"type":"Feature","geometry":{"type":"Point","coordinates":[-8.0202884,12.5852115]},"properties":{"name":"Mini Market Dalas","shop":"supermarket","source":"survey"}},
{"type":"Feature","geometry":{"type":"Point","coordinates":[-8.01045,12.5836199]},"properties":{"name":"Pain dorée","shop":"bakery"}},
{"type":"Feature","geometry":{"type":"Point","coordinates":[-8.0081648,12.6485424]},"properties":{"name":"Dibiterie Etoile","shop":"butcher"}},
{"type":"Feature","geometry":{"type":"Point","coordinates":[0.5005002,15.6648325]},"properties":{"amenity":"marketplace","name":"Marché d Ansongo"}},
{"type":"Feature","geometry":{"type":"Point","coordinates":[-7.9905656,12.6465315]},"properties":{"amenity":"marketplace","name":"Marché de Bagadadji"}},
{"type":"Feature","geometry":{"type":"Point","coordinates":[-7.9355367,12.5787246]},"properties":{"name":"Alimantation Grand B","shop":"convenience"}},
{"type":"Feature","geometry":{"type":"Point","coordinates":[-11.4595731,14.4519843]},"properties":{"name":"Boulangerie Soninké","shop":"bakery"}},
{"type":"Feature","geometry":{"type":"Point","coordinates":[-11.4523311,14.4501831]},"properties":{"name":"Bara Muso Agence","shop":"supermarket"}},
{"type":"Feature","geometry":{"type":"Point","coordinates":[-7.9694483,12.6476217]},"properties":{"name":"Boucherie Moderne","shop":"butcher"}},
{"type":"Feature","geometry":{"type":"Point","coordinates":[-7.974426,12.6078489]},"properties":{"name":"Boulangerie ANGATAH","shop":"bakery"}},
{"type":"Feature","geometry":{"type":"Point","coordinates":[-7.9766281,12.6117681]},"properties":{"addr:city":"Bamako","addr:quarter":"Daoudabougou","addr:street":"Av oua","addr:suburb":"Commune V","building:levels":"1","building:material":"cement_block","name":"Boulangerie-Patisserie du Carrefour","roof:material":"concrete","sector":"Secteur I","shop":"bakery"}},
{"type":"Feature","geometry":{"type":"Point","coordinates":[-7.9802451,12.617052]},"properties":{"name":"Boucherie moderne COQ MALI","shop":"butcher"}},
{"type":"Feature","geometry":{"type":"Point","coordinates":[-11.4474696,14.4402713]},"properties":{"shop":"bakery"}},
{"type":"Feature","geometry":{"type":"Point","coordinates":[-8.0499999,12.6961728]},"properties":{"name":"Bara Muso Sugu","shop":"convenience"}},
{"type":"Feature","geometry":{"type":"Point","coordinates":[-8.0395943,12.6724637]},"properties":{"name":"Boulangerie Patisserie Blé-Bleu","shop":"bakery"}},
{"type":"Feature","geometry":{"type":"Point","coordinates":[-8.0371327,12.641872]},"properties":{"name":"Diawara Shop","shop":"supermarket"}},
{"type":"Feature","geometry":{"type":"Point","coordinates":[-8.0406176,12.6413093]},"properties":{"name":"Commerce Général & Divers","shop":"convenience"}},
{"type":"Feature","geometry":{"type":"Point","coordinates":[-8.0377881,12.6215764]},"properties":{"shop":"butcher"}},
{"type":"Feature","geometry":{"type":"Point","coordinates":[-8.0381453,12.6209497]},"properties":{"name":"Boutique Article Divers","shop":"convenience"}},
{"type":"Feature","geometry":{"type":"Point","coordinates":[-7.9547683,12.6696617]},"properties":{"name":"boulangerie-pâtisserie Korofina Nord","shop":"bakery"}},
{"type":"Feature","geometry":{"type":"Point","coordinates":[-7.8981717,12.6054383]},"properties":{"phone":"94520893-66674522","shop":"bakery"}},
{"type":"Feature","geometry":{"type":"Point","coordinates":[-7.9952238,12.5617906]},"properties":{"name":"Koroboro Bouique2","shop":"convenience"}},
{"type":"Feature","geometry":{"type":"Point","coordinates":[-7.994798,12.561736]},"properties":{"name":"Koroboro Bouique1","shop":"supermarket"}},
{"type":"Feature","geometry":{"type":"Point","coordinates":[-8.339301,12.3780148]},"properties":{"name":"Dibiterie","shop":"butcher"}},
{"type":"Feature","geometry":{"type":"Point","coordinates":[-8.3430896,12.3769112]},"properties":{"name":"Bara Muso Boutique","shop":"convenience"}},
{"type":"Feature","geometry":{"type":"Point","coordinates":[-8.3398247,12.3776467]},"properties":{"description":"Dibiterie","shop":"butcher"}},
{"type":"Feature","geometry":{"type":"Point","coordinates":[-8.3391709,12.3777299]},"properties":{"name":"Boulangrie Kamandjan de Siby","shop":"bakery"}},
{"type":"Feature","geometry":{"type":"Point","coordinates":[-8.338853,12.3778288]},"properties":{"name":"Dibiterie","shop":"butcher"}},
{"type":"Feature","geometry":{"type":"Point","coordinates":[-8.3380236,12.3779369]},"properties":{"description":"Dibiterie","shop":"butcher"}},
{"type":"Feature","geometry":{"type":"Point","coordinates":[-8.3445641,12.3822059]},"properties":{"shop":"bakery"}},
{"type":"Feature","geometry":{"type":"Point","coordinates":[-8.3420097,12.3793192]},"properties":{"shop":"bakery"}},
{"type":"Feature","geometry":{"type":"Point","coordinates":[-7.91801,12.61433]},"properties":{"shop":"bakery"}},
{"type":"Feature","geometry":{"type":"Point","coordinates":[-8.0545141,12.5993588]},"properties":{"name":"Super Marché FreshMina","shop":"supermarket"}},
{"type":"Feature","geometry":{"type":"Point","coordinates":[-8.0249126,12.6351824]},"properties":{"name":"Boulangerie Pâttisserie Le Gourman","shop":"bakery"}},
{"type":"Feature","geometry":{"type":"Point","coordinates":[-10.701969,13.4325525]},"properties":{"amenity":"marketplace","name":"Marché"}},
{"type":"Feature","geometry":{"type":"Point","coordinates":[-10.8479684,13.7574845]},"properties":{"amenity":"marketplace","name":"Marché"}},
{"type":"Feature","geometry":{"type":"Point","coordinates":[-7.9654717,12.6507867]},"properties":{"name":"Boulangerie Bakary Dougouré","shop":"bakery"}},
{"type":"Feature","geometry":{"type":"Point","coordinates":[-7.9659215,12.649545]},"properties":{"name":"Vima","shop":"butcher"}},
{"type":"Feature","geometry":{"type":"Point","coordinates":[-8.0583993,12.5498032]},"properties":{"name":"Boulangerie Baraka","shop":"bakery"}},
{"type":"Feature","geometry":{"type":"Point","coordinates":[-8.1238177,12.4491022]},"properties":{"name":"Boulangerie Bon Pain","shop":"bakery"}},
{"type":"Feature","geometry":{"type":"Point","coordinates":[-8.0730307,12.5788601]},"properties":{"name":"Boulagerie Esterrela","shop":"bakery"}},
{"type":"Feature","geometry":{"type":"Point","coordinates":[-8.1172255,12.5464683]},"properties":{"name":"Boulangerie Moderne","shop":"bakery"}},
{"type":"Feature","geometry":{"type":"Point","coordinates":[-8.1018403,12.5575448]},"properties":{"name":"Boulangerie Pattisserie","shop":"bakery"}},
{"type":"Feature","geometry":{"type":"Point","coordinates":[-8.092808,12.5661555]},"properties":{"name":"Boulangerie Pattisserie Bon Goût","shop":"bakery"}},
{"type":"Feature","geometry":{"type":"Point","coordinates":[-8.0919812,12.5665835]},"properties":{"shop":"bakery"}},
{"type":"Feature","geometry":{"type":"Point","coordinates":[-8.0912221,12.5668996]},"properties":{"name":"Dibiterie Boucherie Dogon","shop":"butcher"}},
{"type":"Feature","geometry":{"type":"Point","coordinates":[-8.0892594,12.5679795]},"properties":{"name":"Bara Muso","shop":"convenience"}},
{"type":"Feature","geometry":{"type":"Point","coordinates":[-8.0880283,12.5686562]},"properties":{"name":"Boulangerie Ascofaré","shop":"bakery"}},
{"type":"Feature","geometry":{"type":"Point","coordinates":[-8.023147,12.6257601]},"properties":{"name":"Boulangerie Buru Douman","shop":"bakery"}},
{"type":"Feature","geometry":{"type":"Point","coordinates":[-8.1570402,12.7832392]},"properties":{"amenity":"marketplace","name":"Marché de Diago"}},
{"type":"Feature","geometry":{"type":"Point","coordinates":[-8.0000532,12.6073359]},"properties":{"name":"Fitini Market","shop":"supermarket"}},
{"type":"Feature","geometry":{"type":"Point","coordinates":[-8.0095026,12.6447967]},"properties":{"shop":"supermarket"}},
{"type":"Feature","geometry":{"type":"Point","coordinates":[-7.9938465,12.6132672]},"properties":{"name":"Rotîsserie Sodia","shop":"butcher"}},
{"type":"Feature","geometry":{"type":"Point","coordinates":[-11.4734029,15.3775016]},"properties":{"shop":"supermarket"}},
{"type":"Feature","geometry":{"type":"Point","coordinates":[-11.4745391,15.3766678]},"properties":{"shop":"supermarket"}},
{"type":"Feature","geometry":{"type":"Point","coordinates":[-11.473208,15.3766046]},"properties":{"shop":"supermarket"}},
{"type":"Feature","geometry":{"type":"Point","coordinates":[-11.4729466,15.3765916]},"properties":{"shop":"supermarket"}},
{"type":"Feature","geometry":{"type":"Point","coordinates":[-11.4729801,15.3765367]},"properties":{"shop":"supermarket"}},
{"type":"Feature","geometry":{"type":"Point","coordinates":[-11.7078596,15.4798318]},"properties":{"amenity":"marketplace","name":"restaurant"}},
{"type":"Feature","geometry":{"type":"Point","coordinates":[-11.4752797,15.3762934]},"properties":{"shop":"butcher"}},
{"type":"Feature","geometry":{"type":"Point","coordinates":[-11.4734498,15.3772042]},"properties":{"shop":"supermarket"}},
{"type":"Feature","geometry":{"type":"Point","coordinates":[-11.7081197,15.4798957]},"properties":{"shop":"supermarket"}},
{"type":"Feature","geometry":{"type":"Point","coordinates":[-11.7081324,15.4797753]},"properties":{"shop":"supermarket"}},
{"type":"Feature","geometry":{"type":"Point","coordinates":[-11.4743246,15.3770395]},"properties":{"shop":"supermarket"}},
{"type":"Feature","geometry":{"type":"Point","coordinates":[-11.4735031,15.3772592]},"properties":{"shop":"supermarket"}},
{"type":"Feature","geometry":{"type":"Point","coordinates":[-11.4735503,15.3774305]},"properties":{"shop":"supermarket"}},
{"type":"Feature","geometry":{"type":"Point","coordinates":[-11.4747904,15.3763091]},"properties":{"shop":"supermarket"}},
{"type":"Feature","geometry":{"type":"Point","coordinates":[-11.4736241,15.3775889]},"properties":{"shop":"supermarket"}},
{"type":"Feature","geometry":{"type":"Point","coordinates":[-11.4735299,15.3771203]},"properties":{"shop":"supermarket"}},
{"type":"Feature","geometry":{"type":"Point","coordinates":[-11.4732953,15.3773079]},"properties":{"shop":"butcher"}},
{"type":"Feature","geometry":{"type":"Point","coordinates":[-11.7077295,15.4790466]},"properties":{"shop":"supermarket"}},
{"type":"Feature","geometry":{"type":"Point","coordinates":[-11.7079896,15.4797508]},"properties":{"shop":"supermarket"}},
{"type":"Feature","geometry":{"type":"Point","coordinates":[-11.4731244,15.3771786]},"properties":{"shop":"supermarket"}},
{"type":"Feature","geometry":{"type":"Point","coordinates":[-11.7079387,15.4797164]},"properties":{"shop":"supermarket"}},
{"type":"Feature","geometry":{"type":"Point","coordinates":[-11.4754421,15.3752469]},"properties":{"shop":"supermarket"}},
{"type":"Feature","geometry":{"type":"Point","coordinates":[-11.4754802,15.376019]},"properties":{"shop":"supermarket"}},
{"type":"Feature","geometry":{"type":"Point","coordinates":[-11.7072761,15.4796862]},"properties":{"shop":"supermarket"}},
{"type":"Feature","geometry":{"type":"Point","coordinates":[-11.4729901,15.3767403]},"properties":{"shop":"supermarket"}},
{"type":"Feature","geometry":{"type":"Point","coordinates":[-11.7078642,15.4791416]},"properties":{"shop":"supermarket"}},
{"type":"Feature","geometry":{"type":"Point","coordinates":[-11.4752831,15.3764129]},"properties":{"shop":"supermarket"}},
{"type":"Feature","geometry":{"type":"Point","coordinates":[-11.4729633,15.37675]},"properties":{"shop":"supermarket"}},
{"type":"Feature","geometry":{"type":"Point","coordinates":[-11.7080892,15.4801487]},"properties":{"shop":"supermarket"}},
{"type":"Feature","geometry":{"type":"Point","coordinates":[-11.0542133,14.786517]},"properties":{"shop":"supermarket"}},
{"type":"Feature","geometry":{"type":"Point","coordinates":[-11.0551309,14.7866373]},"properties":{"shop":"supermarket"}},
{"type":"Feature","geometry":{"type":"Point","coordinates":[-11.0548888,14.7865549]},"properties":{"shop":"supermarket"}},
{"type":"Feature","geometry":{"type":"Point","coordinates":[-11.3000695,14.5582172]},"properties":{"shop":"supermarket"}},
{"type":"Feature","geometry":{"type":"Point","coordinates":[-11.0546191,14.7869338]},"properties":{"shop":"supermarket"}},
{"type":"Feature","geometry":{"type":"Point","coordinates":[-11.0552739,14.7865816]},"properties":{"shop":"butcher"}},
{"type":"Feature","geometry":{"type":"Point","coordinates":[-11.0189434,14.7823289]},"properties":{"shop":"bakery"}},
{"type":"Feature","geometry":{"type":"Point","coordinates":[-11.2990933,14.5613862]},"properties":{"shop":"supermarket"}},
{"type":"Feature","geometry":{"type":"Point","coordinates":[-11.2991054,14.5577544]},"properties":{"name":"boulangerie","shop":"supermarket"}},
{"type":"Feature","geometry":{"type":"Point","coordinates":[-11.0550318,14.7865883]},"properties":{"shop":"supermarket"}},
{"type":"Feature","geometry":{"type":"Point","coordinates":[-11.3002018,14.5582713]},"properties":{"shop":"supermarket"}},
{"type":"Feature","geometry":{"type":"Point","coordinates":[-11.0188217,14.7824304]},"properties":{"shop":"supermarket"}},
{"type":"Feature","geometry":{"type":"Point","coordinates":[-11.2976522,14.557429]},"properties":{"shop":"supermarket"}},
{"type":"Feature","geometry":{"type":"Point","coordinates":[-11.2998545,14.5580534]},"properties":{"shop":"butcher"}},
{"type":"Feature","geometry":{"type":"Point","coordinates":[-11.3013486,14.5587106]},"properties":{"name":"boutique","shop":"supermarket"}},
{"type":"Feature","geometry":{"type":"Point","coordinates":[-11.0626701,14.810409]},"properties":{"shop":"supermarket"}},
{"type":"Feature","geometry":{"type":"Point","coordinates":[-11.2997644,14.5594986]},"properties":{"shop":"supermarket"}},
{"type":"Feature","geometry":{"type":"Point","coordinates":[-11.0548243,14.7863587]},"properties":{"shop":"butcher"}},
{"type":"Feature","geometry":{"type":"Point","coordinates":[-11.2999003,14.557982]},"properties":{"shop":"supermarket"}},
{"type":"Feature","geometry":{"type":"Point","coordinates":[-11.0548058,14.786945]},"properties":{"shop":"supermarket"}},
{"type":"Feature","geometry":{"type":"Point","coordinates":[-11.3001636,14.5581987]},"properties":{"shop":"supermarket"}},
{"type":"Feature","geometry":{"type":"Point","coordinates":[-11.2994646,14.5615001]},"properties":{"shop":"supermarket"}},
{"type":"Feature","geometry":{"type":"Point","coordinates":[-11.0549465,14.7866707]},"properties":{"shop":"supermarket"}},
{"type":"Feature","geometry":{"type":"Point","coordinates":[-11.0626676,14.8105015]},"properties":{"shop":"supermarket"}},
{"type":"Feature","geometry":{"type":"Point","coordinates":[-11.2992586,14.5613893]},"properties":{"shop":"supermarket"}},
{"type":"Feature","geometry":{"type":"Point","coordinates":[-11.2977431,14.5572651]},"properties":{"shop":"supermarket"}},
{"type":"Feature","geometry":{"type":"Point","coordinates":[-11.0541717,14.786497]},"properties":{"amenity":"marketplace","name":"dib","shop":"butcher"}},
{"type":"Feature","geometry":{"type":"Point","coordinates":[-11.0549419,14.7867443]},"properties":{"shop":"supermarket"}},
{"type":"Feature","geometry":{"type":"Point","coordinates":[-11.01889,14.7820529]},"properties":{"shop":"supermarket"}},
{"type":"Feature","geometry":{"type":"Point","coordinates":[-11.0543816,14.7864769]},"properties":{"shop":"supermarket"}},
{"type":"Feature","geometry":{"type":"Point","coordinates":[-11.0173086,14.7798433]},"properties":{"shop":"supermarket"}},
{"type":"Feature","geometry":{"type":"Point","coordinates":[-11.3001559,14.5604753]},"properties":{"shop":"supermarket"}},
{"type":"Feature","geometry":{"type":"Point","coordinates":[-11.0536875,14.7883273]},"properties":{"name":"laiterie","shop":"supermarket"}},
{"type":"Feature","geometry":{"type":"Point","coordinates":[-11.2988275,14.5613272]},"properties":{"shop":"supermarket"}},
{"type":"Feature","geometry":{"type":"Point","coordinates":[-11.0201196,14.781997]},"properties":{"shop":"supermarket"}},
{"type":"Feature","geometry":{"type":"Point","coordinates":[-11.0551309,14.7866507]},"properties":{"shop":"supermarket"}},
{"type":"Feature","geometry":{"type":"Point","coordinates":[-11.0535838,14.7868069]},"properties":{"shop":"supermarket"}},
{"type":"Feature","geometry":{"type":"Point","coordinates":[-11.018102,14.7835029]},"properties":{"name":"ecole","shop":"supermarket"}},
{"type":"Feature","geometry":{"type":"Point","coordinates":[-11.054845,14.7868692]},"properties":{"shop":"supermarket"}},
{"type":"Feature","geometry":{"type":"Point","coordinates":[-11.2991175,14.5613506]},"properties":{"shop":"supermarket"}},
{"type":"Feature","geometry":{"type":"Point","coordinates":[-11.2985769,14.5570361]},"properties":{"shop":"supermarket"}},
{"type":"Feature","geometry":{"type":"Point","coordinates":[-11.3001649,14.5584707]},"properties":{"shop":"supermarket"}},
{"type":"Feature","geometry":{"type":"Point","coordinates":[-11.0546629,14.7869472]},"properties":{"shop":"supermarket"}},
{"type":"Feature","geometry":{"type":"Point","coordinates":[-11.3005589,14.5583468]},"properties":{"shop":"supermarket"}},
{"type":"Feature","geometry":{"type":"Point","coordinates":[-11.2988784,14.561065]},"properties":{"name":"restoran","shop":"butcher"}},
{"type":"Feature","geometry":{"type":"Point","coordinates":[-11.2990132,14.5611721]},"properties":{"shop":"supermarket"}},
{"type":"Feature","geometry":{"type":"Point","coordinates":[-11.2992471,14.5613906]},"properties":{"shop":"butcher"}},
{"type":"Feature","geometry":{"type":"Point","coordinates":[-11.0183998,14.7823217]},"properties":{"shop":"supermarket"}},
{"type":"Feature","geometry":{"type":"Point","coordinates":[-11.2990851,14.5578246]},"properties":{"shop":"supermarket"}},
{"type":"Feature","geometry":{"type":"Point","coordinates":[-11.3003064,14.5579676]},"properties":{"name":"boutique","shop":"supermarket"}},
{"type":"Feature","geometry":{"type":"Point","coordinates":[-11.2985821,14.5612976]},"properties":{"shop":"supermarket"}},
{"type":"Feature","geometry":{"type":"Point","coordinates":[-11.0176561,14.7819239]},"properties":{"shop":"butcher"}},
{"type":"Feature","geometry":{"type":"Point","coordinates":[-11.0630048,14.8109402]},"properties":{"shop":"supermarket"}},
{"type":"Feature","geometry":{"type":"Point","coordinates":[-11.0548842,14.7868313]},"properties":{"shop":"supermarket"}},
{"type":"Feature","geometry":{"type":"Point","coordinates":[-11.063329,14.8128622]},"properties":{"shop":"supermarket"}},
{"type":"Feature","geometry":{"type":"Point","coordinates":[-11.055765,14.7860911]},"properties":{"shop":"butcher"}},
{"type":"Feature","geometry":{"type":"Point","coordinates":[-11.2979742,14.5594836]},"properties":{"shop":"supermarket"}},
{"type":"Feature","geometry":{"type":"Point","coordinates":[-11.0549534,14.7863721]},"properties":{"shop":"supermarket"}},
{"type":"Feature","geometry":{"type":"Point","coordinates":[-11.0188445,14.7823009]},"properties":{"shop":"butcher"}},
{"type":"Feature","geometry":{"type":"Point","coordinates":[-11.2984155,14.5613186]},"properties":{"shop":"supermarket"}},
{"type":"Feature","geometry":{"type":"Point","coordinates":[-11.2999945,14.5581593]},"properties":{"shop":"supermarket"}},
{"type":"Feature","geometry":{"type":"Point","coordinates":[-11.2993445,14.5580227]},"properties":{"name":"banque","shop":"supermarket"}},
{"type":"Feature","geometry":{"type":"Point","coordinates":[-11.0182344,14.7827774]},"properties":{"shop":"supermarket"}},
{"type":"Feature","geometry":{"type":"Point","coordinates":[-11.3003619,14.5602931]},"properties":{"shop":"supermarket"}},
{"type":"Feature","geometry":{"type":"Point","coordinates":[-11.2981344,14.5594959]},"properties":{"name":"moulin","shop":"butcher"}},
{"type":"Feature","geometry":{"type":"Point","coordinates":[-11.2979951,14.5569384]},"properties":{"shop":"supermarket"}},
{"type":"Feature","geometry":{"type":"Point","coordinates":[-11.2991906,14.5578184]},"properties":{"shop":"butcher"}},
{"type":"Feature","geometry":{"type":"Point","coordinates":[-11.2979615,14.5574873]},"properties":{"shop":"supermarket"}},
{"type":"Feature","geometry":{"type":"Point","coordinates":[-11.0632304,14.8127668]},"properties":{"shop":"butcher"}},
{"type":"Feature","geometry":{"type":"Point","coordinates":[-11.0553661,14.7862583]},"properties":{"shop":"supermarket"}},
{"type":"Feature","geometry":{"type":"Point","coordinates":[-11.2986934,14.558845]},"properties":{"shop":"supermarket"}},
{"type":"Feature","geometry":{"type":"Point","coordinates":[-11.2996433,14.557987]},"properties":{"shop":"butcher"}},
{"type":"Feature","geometry":{"type":"Point","coordinates":[-11.0547874,14.7865148]},"properties":{"shop":"supermarket"}},
{"type":"Feature","geometry":{"type":"Point","coordinates":[-11.0541648,14.7864435]},"properties":{"shop":"butcher"}},
{"type":"Feature","geometry":{"type":"Point","coordinates":[-11.3001268,14.5582073]},"properties":{"shop":"supermarket"}},
{"type":"Feature","geometry":{"type":"Point","coordinates":[-11.0529566,14.7873062]},"properties":{"name":"boutiaque","shop":"supermarket"}},
{"type":"Feature","geometry":{"type":"Point","coordinates":[-11.0196677,14.7820808]},"properties":{"shop":"supermarket"}},
{"type":"Feature","geometry":{"type":"Point","coordinates":[-11.062499,14.8096088]},"properties":{"shop":"supermarket"}},
{"type":"Feature","geometry":{"type":"Point","coordinates":[-11.055742,14.7860866]},"properties":{"shop":"supermarket"}},
{"type":"Feature","geometry":{"type":"Point","coordinates":[-11.0632573,14.8135469]},"properties":{"shop":"supermarket"}},
{"type":"Feature","geometry":{"type":"Point","coordinates":[-11.2991576,14.557651]},"properties":{"shop":"supermarket"}},
{"type":"Feature","geometry":{"type":"Point","coordinates":[-11.2994633,14.56151]},"properties":{"shop":"supermarket"}},
{"type":"Feature","geometry":{"type":"Point","coordinates":[-11.0174306,14.7817264]},"properties":{"shop":"supermarket"}},
{"type":"Feature","geometry":{"type":"Point","coordinates":[-11.2995658,14.558232]},"properties":{"shop":"supermarket"}},
{"type":"Feature","geometry":{"type":"Point","coordinates":[-11.0548473,14.786361]},"properties":{"shop":"supermarket"}},
{"type":"Feature","geometry":{"type":"Point","coordinates":[-11.2975402,14.5574141]},"properties":{"shop":"supermarket"}},
{"type":"Feature","geometry":{"type":"Point","coordinates":[-11.0625961,14.810304]},"properties":{"shop":"supermarket"}},
{"type":"Feature","geometry":{"type":"Point","coordinates":[-11.2996268,14.5579095]},"properties":{"shop":"supermarket"}},
{"type":"Feature","geometry":{"type":"Point","coordinates":[-11.0554053,14.786508]},"properties":{"shop":"supermarket"}},
{"type":"Feature","geometry":{"type":"Point","coordinates":[-11.0545476,14.7865527]},"properties":{"shop":"butcher"}},
{"type":"Feature","geometry":{"type":"Point","coordinates":[-11.2991677,14.5576904]},"properties":{"shop":"supermarket"}},
{"type":"Feature","geometry":{"type":"Point","coordinates":[-11.0627591,14.8106783]},"properties":{"shop":"supermarket"}},
{"type":"Feature","geometry":{"type":"Point","coordinates":[-11.0550064,14.7866306]},"properties":{"shop":"supermarket"}},
{"type":"Feature","geometry":{"type":"Point","coordinates":[-11.298652,14.561161]},"properties":{"shop":"supermarket"}},
{"type":"Feature","geometry":{"type":"Point","coordinates":[-11.0552785,14.786566]},"properties":{"shop":"supermarket"}},
{"type":"Feature","geometry":{"type":"Point","coordinates":[-11.054732,14.7868714]},"properties":{"shop":"supermarket"}},
{"type":"Feature","geometry":{"type":"Point","coordinates":[-10.6990613,14.6425784]},"properties":{"shop":"supermarket"}},
{"type":"Feature","geometry":{"type":"Point","coordinates":[-10.6975818,14.6424117]},"properties":{"name":"boutique","shop":"supermarket"}},
{"type":"Feature","geometry":{"type":"Point","coordinates":[-10.697135,14.6427854]},"properties":{"shop":"supermarket"}},
{"type":"Feature","geometry":{"type":"Point","coordinates":[-10.697079,14.6424101]},"properties":{"name":"vendeur rideaux","shop":"supermarket"}},
{"type":"Feature","geometry":{"type":"Point","coordinates":[-10.7001721,14.642487]},"properties":{"shop":"supermarket"}},
{"type":"Feature","geometry":{"type":"Point","coordinates":[-10.6973536,14.642407]},"properties":{"name":"boutique","shop":"supermarket"}},
{"type":"Feature","geometry":{"type":"Point","coordinates":[-10.6974318,14.6424564]},"properties":{"name":"kisoque orange money","shop":"supermarket"}},
{"type":"Feature","geometry":{"type":"Point","coordinates":[-10.6974637,14.6424364]},"properties":{"name":"boutique","shop":"supermarket"}},
{"type":"Feature","geometry":{"type":"Point","coordinates":[-10.7006266,14.6403731]},"properties":{"shop":"bakery"}},
{"type":"Feature","geometry":{"type":"Point","coordinates":[-10.6993788,14.6426663]},"properties":{"shop":"supermarket"}},
{"type":"Feature","geometry":{"type":"Point","coordinates":[-10.6972418,14.6424348]},"properties":{"name":"vendeur des chaussures","shop":"supermarket"}},
{"type":"Feature","geometry":{"type":"Point","coordinates":[-10.6971429,14.6423978]},"properties":{"name":"boutique","shop":"supermarket"}},
{"type":"Feature","geometry":{"type":"Point","coordinates":[-10.6972897,14.642441]},"properties":{"shop":"supermarket"}},
{"type":"Feature","geometry":{"type":"Point","coordinates":[-10.6964183,14.6424672]},"properties":{"shop":"supermarket"}},
{"type":"Feature","geometry":{"type":"Point","coordinates":[-10.6976711,14.6424318]},"properties":{"name":"boutique","shop":"supermarket"}},
{"type":"Feature","geometry":{"type":"Point","coordinates":[-10.697419,14.6424425]},"properties":{"name":"boutique","shop":"supermarket"}},
{"type":"Feature","geometry":{"type":"Point","coordinates":[-10.6974589,14.6423947]},"properties":{"name":"boutique","shop":"supermarket"}},
{"type":"Feature","geometry":{"type":"Point","coordinates":[-10.6984299,14.6448888]},"properties":{"name":"boutique","shop":"supermarket"}},
{"type":"Feature","geometry":{"type":"Point","coordinates":[-10.6971429,14.6423777]},"properties":{"name":"vendeur plastique","shop":"supermarket"}},
{"type":"Feature","geometry":{"type":"Point","coordinates":[-10.6995033,14.6425273]},"properties":{"shop":"supermarket"}},
{"type":"Feature","geometry":{"type":"Point","coordinates":[-11.70724,15.2739945]},"properties":{"indoor":"wall","material":"concrete","shop":"supermarket"}},
{"type":"Feature","geometry":{"type":"Point","coordinates":[-11.6511754,15.1505891]},"properties":{"shop":"supermarket"}},
{"type":"Feature","geometry":{"type":"Point","coordinates":[-11.7268969,14.9150318]},"properties":{"shop":"supermarket"}},
{"type":"Feature","geometry":{"type":"Point","coordinates":[-11.7257421,14.918288]},"properties":{"name":"magasin","shop":"supermarket"}},
{"type":"Feature","geometry":{"type":"Point","coordinates":[-11.6519837,15.1539512]},"properties":{"shop":"supermarket"}},
{"type":"Feature","geometry":{"type":"Point","coordinates":[-11.7057257,15.2741146]},"properties":{"indoor":"wall","material":"concrete","shop":"supermarket"}},
{"type":"Feature","geometry":{"type":"Point","coordinates":[-11.7267829,14.9151328]},"properties":{"shop":"supermarket"}},
{"type":"Feature","geometry":{"type":"Point","coordinates":[-11.7267301,14.9155023]},"properties":{"shop":"supermarket"}},
{"type":"Feature","geometry":{"type":"Point","coordinates":[-11.7269281,14.9150514]},"properties":{"shop":"supermarket"}},
{"type":"Feature","geometry":{"type":"Point","coordinates":[-11.7265861,14.9154105]},"properties":{"shop":"supermarket"}},
{"type":"Feature","geometry":{"type":"Point","coordinates":[-11.7274418,14.9156189]},"properties":{"shop":"supermarket"}},
{"type":"Feature","geometry":{"type":"Point","coordinates":[-11.6514246,15.1514895]},"properties":{"shop":"butcher"}},
{"type":"Feature","geometry":{"type":"Point","coordinates":[-11.7268322,14.9163937]},"properties":{"shop":"supermarket"}},
{"type":"Feature","geometry":{"type":"Point","coordinates":[-11.6496914,15.1501853]},"properties":{"shop":"supermarket"}},
{"type":"Feature","geometry":{"type":"Point","coordinates":[-11.728484,14.9165484]},"properties":{"shop":"supermarket"}},
{"type":"Feature","geometry":{"type":"Point","coordinates":[-11.7267017,14.915163]},"properties":{"shop":"supermarket"}},
{"type":"Feature","geometry":{"type":"Point","coordinates":[-11.707397,15.2739612]},"properties":{"indoor":"wall","material":"concrete","shop":"supermarket"}},
{"type":"Feature","geometry":{"type":"Point","coordinates":[-11.725422,14.9188619]},"properties":{"shop":"supermarket"}},
{"type":"Feature","geometry":{"type":"Point","coordinates":[-11.725949,14.9153712]},"properties":{"shop":"supermarket"}},
{"type":"Feature","geometry":{"type":"Point","coordinates":[-11.7268491,14.9154489]},"properties":{"shop":"butcher"}},
{"type":"Feature","geometry":{"type":"Point","coordinates":[-11.651179,15.152236]},"properties":{"shop":"supermarket"}},
{"type":"Feature","geometry":{"type":"Point","coordinates":[-11.726483,14.9154045]},"properties":{"shop":"supermarket"}},
{"type":"Feature","geometry":{"type":"Point","coordinates":[-11.7288499,14.9161695]},"properties":{"shop":"supermarket"}},
{"type":"Feature","geometry":{"type":"Point","coordinates":[-11.6502401,15.1504833]},"properties":{"shop":"supermarket"}},
{"type":"Feature","geometry":{"type":"Point","coordinates":[-11.7267423,14.915326]},"properties":{"name":"habit","shop":"supermarket"}},
{"type":"Feature","geometry":{"type":"Point","coordinates":[-11.6506584,15.150395]},"properties":{"shop":"supermarket"}},
{"type":"Feature","geometry":{"type":"Point","coordinates":[-11.6511365,15.1508164]},"properties":{"shop":"supermarket"}},
{"type":"Feature","geometry":{"type":"Point","coordinates":[-11.7265033,14.9153758]},"properties":{"shop":"supermarket"}},
{"type":"Feature","geometry":{"type":"Point","coordinates":[-11.7276769,14.9147161]},"properties":{"shop":"supermarket"}},
{"type":"Feature","geometry":{"type":"Point","coordinates":[-11.7280993,14.9156627]},"properties":{"shop":"supermarket"}},
{"type":"Feature","geometry":{"type":"Point","coordinates":[-11.6506357,15.1506994]},"properties":{"shop":"supermarket"}},
{"type":"Feature","geometry":{"type":"Point","coordinates":[-11.7060172,15.2739111]},"properties":{"indoor":"wall","material":"concrete","shop":"supermarket"}},
{"type":"Feature","geometry":{"type":"Point","coordinates":[-11.6511414,15.1520164]},"properties":{"shop":"supermarket"}},
{"type":"Feature","geometry":{"type":"Point","coordinates":[-11.650327,15.1504612]},"properties":{"shop":"supermarket"}},
{"type":"Feature","geometry":{"type":"Point","coordinates":[-11.7252186,14.917111]},"properties":{"shop":"supermarket"}},
{"type":"Feature","geometry":{"type":"Point","coordinates":[-11.7267379,14.9161506]},"properties":{"shop":"supermarket"}},
{"type":"Feature","geometry":{"type":"Point","coordinates":[-11.6514392,15.1528382]},"properties":{"shop":"supermarket"}},
{"type":"Feature","geometry":{"type":"Point","coordinates":[-11.7269981,14.9155112]},"properties":{"shop":"supermarket"}},
{"type":"Feature","geometry":{"type":"Point","coordinates":[-11.6513102,15.1520791]},"properties":{"name":"dibiterie","shop":"butcher"}},
{"type":"Feature","geometry":{"type":"Point","coordinates":[-11.7269516,14.9151088]},"properties":{"shop":"supermarket"}},
{"type":"Feature","geometry":{"type":"Point","coordinates":[-11.7047021,15.2726904]},"properties":{"indoor":"wall","material":"concrete","shop":"supermarket"}},
{"type":"Feature","geometry":{"type":"Point","coordinates":[-11.7049283,15.273379]},"properties":{"indoor":"wall","material":"concrete","name":"boulaangerie","shop":"bakery"}},
{"type":"Feature","geometry":{"type":"Point","coordinates":[-11.6514475,15.1515756]},"properties":{"shop":"butcher"}},
{"type":"Feature","geometry":{"type":"Point","coordinates":[-11.7274723,14.9174514]},"properties":{"shop":"supermarket"}},
{"type":"Feature","geometry":{"type":"Point","coordinates":[-11.7049351,15.2731327]},"properties":{"indoor":"wall","material":"concrete","shop":"supermarket"}},
{"type":"Feature","geometry":{"type":"Point","coordinates":[-11.7287428,14.9155872]},"properties":{"shop":"supermarket"}},
{"type":"Feature","geometry":{"type":"Point","coordinates":[-11.6504938,15.1504282]},"properties":{"name":"dibiterie","shop":"butcher"}},
{"type":"Feature","geometry":{"type":"Point","coordinates":[-11.7047244,15.2722737]},"properties":{"indoor":"wall","material":"concrete","shop":"supermarket"}},
{"type":"Feature","geometry":{"type":"Point","coordinates":[-11.6505258,15.1505451]},"properties":{"shop":"supermarket"}},
{"type":"Feature","geometry":{"type":"Point","coordinates":[-11.6499452,15.1506686]},"properties":{"shop":"supermarket"}},
{"type":"Feature","geometry":{"type":"Point","coordinates":[-11.7048238,15.2723415]},"properties":{"indoor":"wall","material":"concrete","shop":"butcher"}},
{"type":"Feature","geometry":{"type":"Point","coordinates":[-11.7260645,14.9155584]},"properties":{"name":"Dibiterie","shop":"butcher"}},
{"type":"Feature","geometry":{"type":"Point","coordinates":[-11.6511868,15.1511563]},"properties":{"shop":"supermarket"}},
{"type":"Feature","geometry":{"type":"Point","coordinates":[-11.7272498,14.9151722]},"properties":{"shop":"supermarket"}},
{"type":"Feature","geometry":{"type":"Point","coordinates":[-11.7075037,15.2744468]},"properties":{"indoor":"wall","material":"concrete","shop":"supermarket"}},
{"type":"Feature","geometry":{"type":"Point","coordinates":[-11.6519115,15.1537841]},"properties":{"shop":"supermarket"}},
{"type":"Feature","geometry":{"type":"Point","coordinates":[-11.725259,14.9160313]},"properties":{"shop":"supermarket"}},
{"type":"Feature","geometry":{"type":"Point","coordinates":[-11.7278524,14.9167941]},"properties":{"shop":"supermarket"}},
{"type":"Feature","geometry":{"type":"Point","coordinates":[-11.6511137,15.1521128]},"properties":{"shop":"supermarket"}},
{"type":"Feature","geometry":{"type":"Point","coordinates":[-11.7269562,14.9151811]},"properties":{"shop":"butcher"}},
{"type":"Feature","geometry":{"type":"Point","coordinates":[-11.7068975,15.2737815]},"properties":{"indoor":"wall","material":"concrete","shop":"supermarket"}},
{"type":"Feature","geometry":{"type":"Point","coordinates":[-11.6513333,15.1522675]},"properties":{"shop":"supermarket"}},
{"type":"Feature","geometry":{"type":"Point","coordinates":[-11.724967,14.9170799]},"properties":{"shop":"bakery"}},
{"type":"Feature","geometry":{"type":"Point","coordinates":[-11.7269671,14.9152324]},"properties":{"shop":"supermarket"}},
{"type":"Feature","geometry":{"type":"Point","coordinates":[-11.7059606,15.2736899]},"properties":{"indoor":"wall","material":"concrete","shop":"supermarket"}},
{"type":"Feature","geometry":{"type":"Point","coordinates":[-11.7283429,14.9155706]},"properties":{"shop":"supermarket"}},
{"type":"Feature","geometry":{"type":"Point","coordinates":[-11.7047587,15.2726507]},"properties":{"indoor":"wall","material":"concrete","shop":"bakery"}},
{"type":"Feature","geometry":{"type":"Point","coordinates":[-11.7265891,14.9155704]},"properties":{"shop":"supermarket"}},
{"type":"Feature","geometry":{"type":"Point","coordinates":[-9.8805872,13.4493527]},"properties":{"shop":"supermarket"}},
{"type":"Feature","geometry":{"type":"Point","coordinates":[-10.4148365,15.0052338]},"properties":{"shop":"convenience"}},
{"type":"Feature","geometry":{"type":"Point","coordinates":[-10.4154386,15.0073394]},"properties":{"shop":"convenience"}},
{"type":"Feature","geometry":{"type":"Point","coordinates":[-9.8723584,13.4449759]},"properties":{"shop":"supermarket"}},
{"type":"Feature","geometry":{"type":"Point","coordinates":[-10.4157806,15.0046428]},"properties":{"shop":"convenience"}},
{"type":"Feature","geometry":{"type":"Point","coordinates":[-10.418534,15.0049487]},"properties":{"shop":"convenience"}},
{"type":"Feature","geometry":{"type":"Point","coordinates":[-9.8724511,13.4434375]},"properties":{"name":"vendeur de tissus","shop":"supermarket"}},
{"type":"Feature","geometry":{"type":"Point","coordinates":[-9.8769358,13.4468052]},"properties":{"shop":"bakery"}},
{"type":"Feature","geometry":{"type":"Point","coordinates":[-11.336393,14.6188965]},"properties":{"shop":"supermarket"}},
{"type":"Feature","geometry":{"type":"Point","coordinates":[-11.3372236,14.6188482]},"properties":{"shop":"supermarket"}},
{"type":"Feature","geometry":{"type":"Point","coordinates":[-9.4548402,13.2023373]},"properties":{"shop":"supermarket"}},
{"type":"Feature","geometry":{"type":"Point","coordinates":[-11.336076,14.6175558]},"properties":{"shop":"supermarket"}},
{"type":"Feature","geometry":{"type":"Point","coordinates":[-10.4156466,15.0055048]},"properties":{"shop":"convenience"}},
{"type":"Feature","geometry":{"type":"Point","coordinates":[-9.4578126,13.2038648]},"properties":{"shop":"supermarket"}},
{"type":"Feature","geometry":{"type":"Point","coordinates":[-10.4148322,15.0064141]},"properties":{"shop":"convenience"}},
{"type":"Feature","geometry":{"type":"Point","coordinates":[-10.4155073,15.0070143]},"properties":{"shop":"convenience"}},
{"type":"Feature","geometry":{"type":"Point","coordinates":[-9.456157,13.2022638]},"properties":{"shop":"supermarket"}},
{"type":"Feature","geometry":{"type":"Point","coordinates":[-9.8719339,13.4445724]},"properties":{"shop":"supermarket"}},