{"type":"FeatureCollection","features":[
{"type":"Feature","geometry":{"type":"Point","coordinates":[17.0913432,-22.5849688]},"properties":{"addr:city":"Windhoek","addr:street":"Centaurus Road","air_conditioning":"yes","check_date":"2024-05-15","name":"Maerua Superspar","opening_hours":"Mo-Sa 07:30-19:30,Su 07:30-18:00","phone":"+264 (0 )61 383 000","shop":"supermarket","website":"https://www.weckevoigtsspar.com/store-location/maerua-super-spar","wheelchair":"yes"}},
{"type":"Feature","geometry":{"type":"Point","coordinates":[17.0714646,-22.6100401]},"properties":{"name":"Checkers Supermarket","shop":"supermarket"}},
{"type":"Feature","geometry":{"type":"Point","coordinates":[16.3627904,-24.1483218]},"properties":{"shop":"convenience"}},
{"type":"Feature","geometry":{"type":"Point","coordinates":[17.1017353,-22.5671791]},"properties":{"name":"Embassy Mini-Mark","shop":"convenience","wheelchair":"limited"}},
{"type":"Feature","geometry":{"type":"Point","coordinates":[17.1027851,-22.571586]},"properties":{"air_conditioning":"yes","brand":"Checkers","brand:wikidata":"Q5089126","brand:wikipedia":"en:Checkers (supermarket chain)","check_date":"2023-10-23","name":"Checkers","operator":"Shoprite","payment:cards":"yes","payment:cash":"yes","payment:coins":"yes","payment:credit_cards":"yes","payment:debit_cards":"yes","payment:mastercard":"yes","payment:notes":"yes","payment:visa":"yes","shop":"supermarket","wheelchair":"limited"}},
{"type":"Feature","geometry":{"type":"Point","coordinates":[17.2453195,-20.5162806]},"properties":{"name":"Waterberg Rest Camp Shop","shop":"convenience"}},
{"type":"Feature","geometry":{"type":"Point","coordinates":[14.5268629,-22.6741915]},"properties":{"check_date":"2024-01-08","email":"swakopmundspar@iway.na","internet_access":"no","name":"Superspar Swakopmund","opening_hours":"Mo-Sa 07:00-20:00; Su 08:00-20:00","payment:cash":"yes","payment:credit_cards":"yes","payment:debit_cards":"yes","phone":"+264 64 415 400","shop":"supermarket","wheelchair":"yes"}},
{"type":"Feature","geometry":{"type":"Point","coordinates":[21.545075,-18.101239]},"properties":{"addr:city":"Divundu","name":"Hombe Supermarket","opening_hours":"Mo-Sa 08:00-18:00; Su 09:00-18:00","shop":"supermarket"}},
{"type":"Feature","geometry":{"type":"Point","coordinates":[14.5330117,-22.6771986]},"properties":{"name":"Shoprite","shop":"supermarket"}},
{"type":"Feature","geometry":{"type":"Point","coordinates":[16.9214579,-21.9961362]},"properties":{"name":"Wood Craft Market","opening_hours":"\"Flexible depending on the presence of the traders (informal market)\"","shop":"convenience"}},
{"type":"Feature","geometry":{"type":"Point","coordinates":[16.9059128,-21.9752499]},"properties":{"name":"Piets Biltong Shop","shop":"butcher"}},
{"type":"Feature","geometry":{"type":"Point","coordinates":[17.0799667,-22.5904025]},"properties":{"check_date":"2024-04-22","name":"Tacoma 24/7 Convenience Store","shop":"convenience"}},
{"type":"Feature","geometry":{"type":"Point","coordinates":[24.2766849,-17.5019379]},"properties":{"name":"Photo Quick Caprivi","shop":"convenience"}},
{"type":"Feature","geometry":{"type":"Point","coordinates":[17.0626156,-22.5118248]},"properties":{"branch":"Lafrenz Industrial","brand":"Shoprite","brand:wikidata":"Q1857639","brand:wikipedia":"en:Shoprite (retailer)","check_date":"2024-04-25","name":"Shoprite","shop":"supermarket","source":"local_knowledge"}},
{"type":"Feature","geometry":{"type":"Point","coordinates":[17.0669367,-22.5735518]},"properties":{"check_date":"2024-04-03","name":"Spar","shop":"supermarket"}},
{"type":"Feature","geometry":{"type":"Point","coordinates":[17.0907034,-22.5502266]},"properties":{"check_date":"2023-12-16","name":"Woermann & Brock","shop":"supermarket"}},
{"type":"Feature","geometry":{"type":"Point","coordinates":[14.2801557,-22.1153967]},"properties":{"addr:city":"Henties Bay","brand":"Spar","brand:wikidata":"Q610492","brand:wikipedia":"en:SPAR (retailer)","name":"Spar","operator":"SPAR","shop":"supermarket"}},
{"type":"Feature","geometry":{"type":"Point","coordinates":[16.0054839,-23.8935295]},"properties":{"alt_name":"Moose's Solitaire Bakery","description":"Best apple pie, fresh pizza, sandwiches, takeaway, pastry, bread","name":"McGregor's Bakery","operator":"Solitaire Namibia","shop":"bakery","source":"local_knowledge"}},
{"type":"Feature","geometry":{"type":"Point","coordinates":[17.0841143,-22.5685746]},"properties":{"brand":"Checkers","brand:wikidata":"Q5089126","check_date":"2024-04-11","name":"Checkers","shop":"supermarket"}},
{"type":"Feature","geometry":{"type":"Point","coordinates":[16.6536854,-20.4590448]},"properties":{"addr:street":"Rikumbi Kandanga St","name":"Shoprite","phone":"+264 67 304 351","shop":"supermarket"}},
{"type":"Feature","geometry":{"type":"Point","coordinates":[17.1019357,-22.5717198]},"properties":{"check_date":"2024-04-26","name":"Woermann & Brock /Ai-//Gams","shop":"supermarket"}},
{"type":"Feature","geometry":{"type":"Point","coordinates":[17.0556781,-22.5736616]},"properties":{"name":"WB Hochland","shop":"supermarket"}},
{"type":"Feature","geometry":{"type":"Point","coordinates":[17.1041314,-22.5718106]},"properties":{"name":"Trans Kalahari Meat & Biltong","shop":"butcher"}},
{"type":"Feature","geometry":{"type":"Point","coordinates":[16.2609699,-26.6667979]},"properties":{"shop":"supermarket"}},
{"type":"Feature","geometry":{"type":"Point","coordinates":[17.0849265,-22.569368]},"properties":{"amenity":"marketplace","check_date":"2024-05-14","name":"Craft Market","opening_hours":"PH,Mo-Su 08:00-18:00"}},
{"type":"Feature","geometry":{"type":"Point","coordinates":[17.0834176,-22.5662111]},"properties":{"amenity":"marketplace","check_date":"2023-06-02","name":"Craft Market"}},
{"type":"Feature","geometry":{"type":"Point","coordinates":[15.7086916,-17.7869283]},"properties":{"brand":"Shoprite","brand:wikidata":"Q1857639","brand:wikipedia":"en:Shoprite (retailer)","name":"Shoprite","shop":"supermarket"}},
{"type":"Feature","geometry":{"type":"Point","coordinates":[15.9451456,-21.4375803]},"properties":{"name":"Patrik Zaako General Dealer","shop":"supermarket"}},
{"type":"Feature","geometry":{"type":"Point","coordinates":[15.6966749,-17.7719575]},"properties":{"name":"Pick 'n Pay","shop":"supermarket"}},
{"type":"Feature","geometry":{"type":"Point","coordinates":[15.7620594,-17.7813278]},"properties":{"name":"Ongwediva SPAR","shop":"supermarket"}},
{"type":"Feature","geometry":{"type":"Point","coordinates":[17.0828279,-22.5873929]},"properties":{"brand":"Pick n Pay","brand:wikidata":"Q7190735","check_date":"2024-04-27","name":"Pick n Pay","shop":"supermarket","wheelchair":"yes"}},
{"type":"Feature","geometry":{"type":"Point","coordinates":[14.8457066,-19.622402]},"properties":{"name":"Impala Meat Market","shop":"butcher"}},
{"type":"Feature","geometry":{"type":"Point","coordinates":[14.8451445,-19.6228075]},"properties":{"name":"Oase","shop":"supermarket"}},
{"type":"Feature","geometry":{"type":"Point","coordinates":[14.8421621,-19.621895]},"properties":{"shop":"supermarket"}},
{"type":"Feature","geometry":{"type":"Point","coordinates":[17.0268128,-22.5242024]},"properties":{"name":"Kwasa Kwasa","shop":"convenience"}},
{"type":"Feature","geometry":{"type":"Point","coordinates":[17.0168452,-22.5171354]},"properties":{"addr:city":"Windhoek","addr:street":"Green Mountain Dam Road","name":"Woermann & Brock Goreangab Express","shop":"supermarket"}},
{"type":"Feature","geometry":{"type":"Point","coordinates":[17.0438678,-22.5071135]},"properties":{"name":"Woermann & Brock Ombili Express","shop":"supermarket"}},
{"type":"Feature","geometry":{"type":"Point","coordinates":[16.6523874,-20.4602275]},"properties":{"name":"SaveMor Otjiwarongo","shop":"supermarket"}},
{"type":"Feature","geometry":{"type":"Point","coordinates":[15.8549582,-21.9360968]},"properties":{"shop":"bakery"}},
{"type":"Feature","geometry":{"type":"Point","coordinates":[15.8548808,-21.9359761]},"properties":{"name":"OK","shop":"supermarket"}},
{"type":"Feature","geometry":{"type":"Point","coordinates":[15.9604342,-21.4155362]},"properties":{"shop":"bakery"}},
{"type":"Feature","geometry":{"type":"Point","coordinates":[15.958727,-21.415783]},"properties":{"shop":"butcher"}},
{"type":"Feature","geometry":{"type":"Point","coordinates":[15.9556665,-21.4171617]},"properties":{"shop":"supermarket"}},
{"type":"Feature","geometry":{"type":"Point","coordinates":[18.1048374,-19.5646104]},"properties":{"description":"in the supermarket","shop":"bakery"}},
{"type":"Feature","geometry":{"type":"Point","coordinates":[18.1034618,-19.5651247]},"properties":{"name":"Grootfontein Sentra Shop","shop":"supermarket"}},
{"type":"Feature","geometry":{"type":"Point","coordinates":[17.0689144,-22.5035901]},"properties":{"addr:housenumber":"41","addr:street":"Rendsburger St","name":"Porky's Meat Market","shop":"butcher"}},
{"type":"Feature","geometry":{"type":"Point","coordinates":[18.9711585,-22.4499974]},"properties":{"shop":"bakery"}},
{"type":"Feature","geometry":{"type":"Point","coordinates":[18.9684155,-22.4512323]},"properties":{"name":"Shoprite Gobabis","shop":"supermarket"}},
{"type":"Feature","geometry":{"type":"Point","coordinates":[18.9780253,-22.4501961]},"properties":{"name":"Spar Gobabis","shop":"supermarket"}},
{"type":"Feature","geometry":{"type":"Point","coordinates":[18.1248558,-25.8818124]},"properties":{"shop":"convenience"}},
{"type":"Feature","geometry":{"type":"Point","coordinates":[18.0175862,-26.7017371]},"properties":{"name":"Brukkaros Meat Processors","shop":"butcher"}},
{"type":"Feature","geometry":{"type":"Point","coordinates":[14.8670516,-21.219775]},"properties":{"name":"Brandberg Multisave Supermarket","shop":"convenience"}},
{"type":"Feature","geometry":{"type":"Point","coordinates":[15.9547479,-21.41885]},"properties":{"name":"SuperSpar","shop":"supermarket"}},
{"type":"Feature","geometry":{"type":"Point","coordinates":[17.0836281,-22.5864039]},"properties":{"check_date":"2024-03-09","email":"ewanvdm@agra.com.na","mobile":"+264811274893","name":"Agra","phone":"+264 61 290 9305","shop":"supermarket","website":"https://www.agra.com.na/","wheelchair":"yes"}},
{"type":"Feature","geometry":{"type":"Point","coordinates":[17.0809919,-22.5894273]},"properties":{"check_date":"2024-04-22","name":"Engen 1-Stop","shop":"convenience"}},
{"type":"Feature","geometry":{"type":"Point","coordinates":[17.0809449,-22.5906819]},"properties":{"check_date":"2024-04-22","shop":"convenience"}},
{"type":"Feature","geometry":{"type":"Point","coordinates":[17.0870082,-22.5766758]},"properties":{"shop":"convenience"}},
{"type":"Feature","geometry":{"type":"Point","coordinates":[16.1515536,-20.1064881]},"properties":{"name":"Outjo Bakery","shop":"bakery"}},
{"type":"Feature","geometry":{"type":"Point","coordinates":[16.1546784,-20.1103576]},"properties":{"name":"Del la Ray Meat","shop":"butcher"}},
{"type":"Feature","geometry":{"type":"Point","coordinates":[12.9502005,-18.7742639]},"properties":{"shop":"convenience"}},
{"type":"Feature","geometry":{"type":"Point","coordinates":[17.6154239,-28.7343893]},"properties":{"name":"Die Miele Farmstall","shop":"convenience"}},
{"type":"Feature","geometry":{"type":"Point","coordinates":[17.6156736,-28.7368276]},"properties":{"shop":"convenience"}},
{"type":"Feature","geometry":{"type":"Point","coordinates":[17.707577,-19.2480003]},"properties":{"brand":"Shoprite","brand:wikidata":"Q1857639","check_date":"2024-09-21","name":"Shoprite","shop":"supermarket"}},
{"type":"Feature","geometry":{"type":"Point","coordinates":[18.1049197,-19.5646624]},"properties":{"name":"Choppies","opening_hours":"Mo-Sa 07:30-19:00; Su 09:00-13:00, 16:00-19:00","shop":"supermarket"}},
{"type":"Feature","geometry":{"type":"Point","coordinates":[13.8422856,-18.0640902]},"properties":{"brand":"Spar","brand:wikidata":"Q610492","brand:wikipedia":"en:Spar (retailer)","name":"Spar","shop":"supermarket"}},
{"type":"Feature","geometry":{"type":"Point","coordinates":[16.0052609,-23.8938147]},"properties":{"description":"Grocery, cold drinks, ice, bottle store, personal items, phone recharge time, ATM, automotive, firewood, curio","name":"Tsondab General Dealer","opening_hours":"07:00-19:00","operator":"Solitaire Namibia","payment:cash":"yes","payment:credit_cards":"yes","payment:debit_cards":"yes","phone":"+264 (0) 63 293 619","shop":"convenience"}},
{"type":"Feature","geometry":{"type":"Point","coordinates":[13.6279359,-19.123756]},"properties":{"name":"Internet Shop","shop":"convenience"}},
{"type":"Feature","geometry":{"type":"Point","coordinates":[17.7126962,-19.2506732]},"properties":{"name":"Mini Market","shop":"convenience"}},
{"type":"Feature","geometry":{"type":"Point","coordinates":[17.7117753,-19.2513538]},"properties":{"name":"OK Goods","operator":"Moruti Trading Enterprise CC","shop":"supermarket"}},
{"type":"Feature","geometry":{"type":"Point","coordinates":[17.057955,-22.5881122]},"properties":{"name":"Pionierspark Square","shop":"supermarket"}},
{"type":"Feature","geometry":{"type":"Point","coordinates":[16.1529227,-20.1066367]},"properties":{"name":"Outjo Supermarket","shop":"supermarket"}},
{"type":"Feature","geometry":{"type":"Point","coordinates":[16.9172748,-21.9821208]},"properties":{"addr:city":"Okahandja","name":"Super Spar","shop":"supermarket"}},
{"type":"Feature","geometry":{"type":"Point","coordinates":[16.9143944,-21.9796087]},"properties":{"shop":"bakery"}},
{"type":"Feature","geometry":{"type":"Point","coordinates":[18.9529019,-22.3768427]},"properties":{"addr:place":"Farm Digby","amenity":"marketplace","name":"Namibia Nutrition","source":"GPS"}},
{"type":"Feature","geometry":{"type":"Point","coordinates":[13.8394631,-18.0596038]},"properties":{"shop":"supermarket"}},
{"type":"Feature","geometry":{"type":"Point","coordinates":[14.5250117,-22.6796267]},"properties":{"name":"Woermann & Brock","shop":"supermarket"}},
{"type":"Feature","geometry":{"type":"Point","coordinates":[16.4278323,-28.5522725]},"properties":{"addr:street":"7th Avenue","brand":"Spar","brand:wikidata":"Q610492","name":"Spar","name:en":"Spar Oranjemund","shop":"supermarket"}},
{"type":"Feature","geometry":{"type":"Point","coordinates":[16.435707,-28.5543314]},"properties":{"shop":"supermarket"}},
{"type":"Feature","geometry":{"type":"Point","coordinates":[16.4238275,-25.3822727]},"properties":{"name":"Betta's","shop":"convenience"}},
{"type":"Feature","geometry":{"type":"Point","coordinates":[15.8025973,-24.489429]},"properties":{"email":"admin@soussusvleilodge.com","fax":"+264 63 693231","internet_access":"wlan","name":"Sossus Oasis","opening_hours":"Mo-Su 05:30-18:30","phone":"+264 63 693223","shop":"convenience","website":"http://www.soussusvleilodge.com"}},
{"type":"Feature","geometry":{"type":"Point","coordinates":[16.2619537,-26.6682768]},"properties":{"name":"Kubub Verspreiders","opening_hours":"Mo-Fr 08:00-17:30; Sa 08:00-13:00","shop":"supermarket"}},
{"type":"Feature","geometry":{"type":"Point","coordinates":[14.9913487,-17.503277]},"properties":{"name":"Take Away","shop":"supermarket"}},
{"type":"Feature","geometry":{"type":"Point","coordinates":[16.8226743,-25.8900055]},"properties":{"name":"Helmering Winkel & Bottle Store","shop":"convenience"}},
{"type":"Feature","geometry":{"type":"Point","coordinates":[19.1181259,-25.9350912]},"properties":{"shop":"supermarket"}},
{"type":"Feature","geometry":{"type":"Point","coordinates":[19.6495669,-26.8002259]},"properties":{"shop":"butcher"}},
{"type":"Feature","geometry":{"type":"Point","coordinates":[19.6493299,-26.7997364]},"properties":{"addr:city":"Aroab","addr:postcode":"23005","name":"Bronco General Store","shop":"convenience"}},
{"type":"Feature","geometry":{"type":"Point","coordinates":[15.9189989,-19.1784616]},"properties":{"name":"Tourist shop","opening_hours":"PH,Mo-Su 08:00-13:00,14:00-17:00","shop":"convenience"}},
{"type":"Feature","geometry":{"type":"Point","coordinates":[13.8408028,-18.0596561]},"properties":{"name":"Bakery","shop":"bakery"}},
{"type":"Feature","geometry":{"type":"Point","coordinates":[13.8413026,-18.0586287]},"properties":{"name":"Opuwo Supermarket","shop":"supermarket"}},
{"type":"Feature","geometry":{"type":"Point","coordinates":[16.4708605,-19.0348939]},"properties":{"check_date":"2023-12-28","name":"Shop","shop":"convenience"}},
{"type":"Feature","geometry":{"type":"Point","coordinates":[19.7693839,-17.9122884]},"properties":{"addr:city":"Rundu","addr:street":"Eugene Kakururu Street","name":"Shoprite","shop":"supermarket"}},
{"type":"Feature","geometry":{"type":"Point","coordinates":[19.7704726,-17.9181821]},"properties":{"name":"PEP","phone":"+264 66 255552","shop":"supermarket","website":"https://www.pepstores.com/"}},
{"type":"Feature","geometry":{"type":"Point","coordinates":[14.5263284,-22.6787852]},"properties":{"name":"Pick & Pay","shop":"supermarket"}},
{"type":"Feature","geometry":{"type":"Point","coordinates":[17.0860071,-22.5926089]},"properties":{"name":"Natal Self Service","shop":"convenience"}},
{"type":"Feature","geometry":{"type":"Point","coordinates":[19.7745164,-17.911991]},"properties":{"addr:city":"Rundu","addr:street":"Markus Siwarongo Street","name":"Pick n Pay","shop":"supermarket","source":"survey"}},
{"type":"Feature","geometry":{"type":"Point","coordinates":[19.7742064,-17.9112205]},"properties":{"addr:city":"Rundu","addr:street":"Markus Siwarongo St","name":"Oceano Atlantico Woermann Brock","operator":"Woermann Supermarkets","shop":"supermarket"}},
{"type":"Feature","geometry":{"type":"Point","coordinates":[18.5167272,-21.4150783]},"properties":{"shop":"convenience"}},
{"type":"Feature","geometry":{"type":"Point","coordinates":[18.553275,-21.4464676]},"properties":{"name":"Agra Summerdown","shop":"convenience"}},
{"type":"Feature","geometry":{"type":"Point","coordinates":[16.8697184,-21.5919534]},"properties":{"shop":"farm"}},
{"type":"Feature","geometry":{"type":"Point","coordinates":[17.0563078,-22.5512623]},"properties":{"name":"Woermann Brock","shop":"supermarket"}},
{"type":"Feature","geometry":{"type":"Point","coordinates":[14.5037252,-22.9566679]},"properties":{"brand":"Pick n Pay","brand:wikidata":"Q7190735","brand:wikipedia":"en:Pick n Pay Stores","name":"Pick n Pay","shop":"supermarket"}},
{"type":"Feature","geometry":{"type":"Point","coordinates":[14.49905,-22.9571784]},"properties":{"brand":"Shoprite","brand:wikidata":"Q1857639","name":"Shoprite","shop":"supermarket"}},
{"type":"Feature","geometry":{"type":"Point","coordinates":[14.5055373,-22.9547033]},"properties":{"addr:housenumber":"106-120","addr:street":"Hage Geingob Street","name":"Woermann Brock","shop":"supermarket"}},
{"type":"Feature","geometry":{"type":"Point","coordinates":[14.5038268,-22.9559218]},"properties":{"addr:street":"Hage Geingob Street","name":"Choppies","operator":"Choppies","shop":"supermarket"}},
{"type":"Feature","geometry":{"type":"Point","coordinates":[16.5599357,-23.9676157]},"properties":{"disused:amenity":"fuel","name":"Minimarkt Rietoog","shop":"convenience"}},
{"type":"Feature","geometry":{"type":"Point","coordinates":[18.9672913,-22.4505633]},"properties":{"name":"Die Plaaskombuis","shop":"convenience"}},
{"type":"Feature","geometry":{"type":"Point","coordinates":[16.5799137,-18.3600903]},"properties":{"name":"PEP","shop":"supermarket"}},
{"type":"Feature","geometry":{"type":"Point","coordinates":[17.05766,-22.5450458]},"properties":{"name":"Woermann Brock Supermarket","shop":"supermarket"}},
{"type":"Feature","geometry":{"type":"Point","coordinates":[17.7094549,-19.259987]},"properties":{"addr:city":"Tsumeb","addr:country":"NA","addr:street":"Kupferstrasse","bar":"yes","big_rigs":"yes","camp_type":"established","caravans":"yes","description":"Large grass terrain next to lodges near main road. New, well maintained, very well equiped provisions.","dish_washing":"yes","dryer":"yes","email":"booking@kupferquelle.com","fee":"NAD 230 (2 adults, camper)","guarded":"nighttime","internet":"WiFi","kitchen":"yes","laundry":"machine","name":"Kupferquelle Resort","opening_hours":"6:00-21:00","phone":"+264 67 220 139","restaurant":"yes","sanitary_dumpstation":"yes","shop":"convenience","shower":"hot","source":"Survey","swimming_pool":"yes","tents":"yes","toilets:disposal":"flush","toilets:position":"sitting","tourism":"camp_site","water:location":"at_sites","water:quality":"potable","website":"https://www.kupferquelle.com"}},
{"type":"Feature","geometry":{"type":"Point","coordinates":[18.102839,-19.5652654]},"properties":{"name":"OK Foods","shop":"supermarket"}},
{"type":"Feature","geometry":{"type":"Point","coordinates":[17.0633884,-22.5867588]},"properties":{"shop":"convenience"}},
{"type":"Feature","geometry":{"type":"Point","coordinates":[18.1337243,-26.576671]},"properties":{"addr:city":"Keetmanshoop","brand":"Pick n Pay","brand:wikidata":"Q7190735","name":"Pick n Pay","shop":"supermarket"}},
{"type":"Feature","geometry":{"type":"Point","coordinates":[17.0531362,-22.5816436]},"properties":{"name":"SPAR","shop":"supermarket","wheelchair":"yes"}},
{"type":"Feature","geometry":{"type":"Point","coordinates":[17.0568343,-22.5794895]},"properties":{"name":"Tauben Glenn Minimark","shop":"convenience"}},
{"type":"Feature","geometry":{"type":"Point","coordinates":[17.0624794,-22.5453472]},"properties":{"amenity":"marketplace","name":"Khomasdal Open Market","operator":"City of Windhoek"}},
{"type":"Feature","geometry":{"type":"Point","coordinates":[17.0805766,-22.5667932]},"properties":{"addr:city":"Windhoek","brand":"Pick n Pay","brand:wikidata":"Q7190735","check_date":"2023-06-02","email":"pnpmanager.wernhil@olfitra.com.na","fax":"+26461 2964550","name":"Pick n Pay","opening_hours":"Mo-Fr 09:00-19:00, Sa 09:00-17:00, Su 09:00-15:00","phone":"+26461 226544","shop":"supermarket"}},
{"type":"Feature","geometry":{"type":"Point","coordinates":[17.0945475,-22.5842791]},"properties":{"check_date":"2024-05-20","name":"Checkers","shop":"supermarket"}},
{"type":"Feature","geometry":{"type":"Point","coordinates":[17.0637014,-22.6003191]},"properties":{"addr:city":"Windhoek","name":"OK Foods","shop":"supermarket"}},
{"type":"Feature","geometry":{"type":"Point","coordinates":[17.0567436,-22.5794932]},"properties":{"name":"Tauben Bakery","shop":"bakery"}},
{"type":"Feature","geometry":{"type":"Point","coordinates":[17.046951,-22.5736974]},"properties":{"addr:city":"Windhoek","addr:street":"Sal Island Street","name":"Rocky Crest Market","shop":"supermarket"}},
{"type":"Feature","geometry":{"type":"Point","coordinates":[17.0456268,-22.5526698]},"properties":{"name":"OK Grocers","shop":"supermarket"}},
{"type":"Feature","geometry":{"type":"Point","coordinates":[17.0759234,-22.5381178]},"properties":{"check_date":"2024-06-03","name":"Hartlief","shop":"butcher"}},
{"type":"Feature","geometry":{"type":"Point","coordinates":[24.2689385,-17.496019]},"properties":{"shop":"convenience"}},
{"type":"Feature","geometry":{"type":"Point","coordinates":[17.0639898,-22.6006547]},"properties":{"name":"Chinese shop","shop":"convenience"}},
{"type":"Feature","geometry":{"type":"Point","coordinates":[17.0682532,-22.5654672]},"properties":{"check_date":"2024-04-10","name":"OK Express","shop":"convenience"}},
{"type":"Feature","geometry":{"type":"Point","coordinates":[17.0457894,-22.5778166]},"properties":{"shop":"convenience"}},
{"type":"Feature","geometry":{"type":"Point","coordinates":[17.0710791,-22.6096695]},"properties":{"shop":"convenience"}},
{"type":"Feature","geometry":{"type":"Point","coordinates":[17.0565127,-22.5734339]},"properties":{"shop":"convenience"}},
{"type":"Feature","geometry":{"type":"Point","coordinates":[17.0701226,-22.5339445]},"properties":{"name":"Klein Windhoek Schlachterei","shop":"butcher"}},
{"type":"Feature","geometry":{"type":"Point","coordinates":[17.7081592,-19.2487117]},"properties":{"brand":"Pick n Pay","brand:wikidata":"Q7190735","name":"Pick n Pay","shop":"supermarket"}},
{"type":"Feature","geometry":{"type":"Point","coordinates":[16.5863764,-18.3658523]},"properties":{"name":"Shoprite","shop":"supermarket"}},
{"type":"Feature","geometry":{"type":"Point","coordinates":[15.6925398,-17.7720083]},"properties":{"brand":"Spar","brand:wikidata":"Q610492","brand:wikipedia":"en:Spar (retailer)","name":"Spar","shop":"supermarket"}},
{"type":"Feature","geometry":{"type":"Point","coordinates":[15.0646852,-17.8858129]},"properties":{"name":"Shoprite","shop":"supermarket"}},
{"type":"Feature","geometry":{"type":"Point","coordinates":[13.6234417,-19.1213332]},"properties":{"name":"Okiti Mini","shop":"convenience"}},
{"type":"Feature","geometry":{"type":"Point","coordinates":[18.1386184,-26.5843263]},"properties":{"brand":"Shoprite","brand:wikidata":"Q1857639","brand:wikipedia":"en:Shoprite (South Africa)","name":"Shoprite","opening_hours":"Mo-Fr 08:00-18:00; Sa 07:00-16:00; Su 08:00-13:00","phone":"+264 063 226440","shop":"supermarket","wheelchair":"yes"}},
{"type":"Feature","geometry":{"type":"Point","coordinates":[18.7492295,-28.0143946]},"properties":{"addr:city":"Karasburg","branch":"U Save","brand":"Shoprite","brand:wikidata":"Q1857639","brand:wikipedia":"en:Shoprite Holdings Ltd","name":"Shoprite","shop":"supermarket"}},
{"type":"Feature","geometry":{"type":"Point","coordinates":[16.9090642,-21.986095]},"properties":{"addr:city":"Okahandja","brand":"Shoprite","brand:wikidata":"Q1857639","name":"Shoprite","shop":"supermarket"}},
{"type":"Feature","geometry":{"type":"Point","coordinates":[16.9133483,-21.9762235]},"properties":{"brand":"Pick n Pay","brand:wikidata":"Q7190735","name":"Pick n Pay","shop":"supermarket"}},
{"type":"Feature","geometry":{"type":"Point","coordinates":[16.9139974,-21.9774039]},"properties":{"name":"Shoprite Usave","shop":"supermarket"}},
{"type":"Feature","geometry":{"type":"Point","coordinates":[17.1177664,-22.6032646]},"properties":{"shop":"convenience"}},
{"type":"Feature","geometry":{"type":"Point","coordinates":[15.7532473,-17.7863272]},"properties":{"brand":"Pick n Pay","brand:wikidata":"Q7190735","brand:wikipedia":"en:Pick n Pay Stores","name":"Pick n Pay","shop":"supermarket"}},
{"type":"Feature","geometry":{"type":"Point","coordinates":[15.6971871,-17.7804659]},"properties":{"name":"CYMOT","shop":"supermarket"}},
{"type":"Feature","geometry":{"type":"Point","coordinates":[15.6954201,-17.7708826]},"properties":{"name":"GAME","shop":"supermarket"}},
{"type":"Feature","geometry":{"type":"Point","coordinates":[15.7647805,-17.7784881]},"properties":{"name":"OK Foods","not:brand:wikidata":"Q116520377","shop":"supermarket"}},
{"type":"Feature","geometry":{"type":"Point","coordinates":[15.7018157,-17.7913792]},"properties":{"shop":"convenience"}},
{"type":"Feature","geometry":{"type":"Point","coordinates":[17.3436362,-19.6408268]},"properties":{"name":"Sentra","shop":"supermarket"}},
{"type":"Feature","geometry":{"type":"Point","coordinates":[16.7573663,-27.9640757]},"properties":{"name":"Spar Rosh Pinah","opening_hours":"08:00-19:00","operator":"Spar","shop":"supermarket"}},
{"type":"Feature","geometry":{"type":"Point","coordinates":[16.1549939,-20.1092664]},"properties":{"name":"OK Foods","shop":"supermarket"}},
{"type":"Feature","geometry":{"type":"Point","coordinates":[17.490228,-27.9173575]},"properties":{"shop":"convenience"}},
{"type":"Feature","geometry":{"type":"Point","coordinates":[16.262173,-26.6684129]},"properties":{"shop":"butcher"}},
{"type":"Feature","geometry":{"type":"Point","coordinates":[15.8674507,-21.9299423]},"properties":{"addr:city":"Karibib","name":"Farmers Market","shop":"convenience"}},
{"type":"Feature","geometry":{"type":"Point","coordinates":[17.0786594,-23.3191526]},"properties":{"addr:street":"D1210","name":"Woerman Brock","opening_hours":"Mo-Su 08:00-19:00","shop":"supermarket"}},
{"type":"Feature","geometry":{"type":"Point","coordinates":[17.0750558,-23.3245356]},"properties":{"addr:street":"D1210","name":"Agra","opening_hours":"Mo-Sa 08:00-18:00; Su","shop":"supermarket"}},
{"type":"Feature","geometry":{"type":"Point","coordinates":[17.0784596,-23.3159824]},"properties":{"name":"Volkwinkel Spar","opening_hours":"Mo-Su 08:00-19:00","shop":"supermarket"}},
{"type":"Feature","geometry":{"type":"Point","coordinates":[17.0749093,-23.324945]},"properties":{"addr:street":"D1210","name":"Shoprite","opening_hours":"Mo-Sa 08:00-18:00; Su 08:00-14:00","shop":"supermarket"}},
{"type":"Feature","geometry":{"type":"Point","coordinates":[18.9778573,-22.4495392]},"properties":{"name":"Quick Shop","shop":"convenience"}},
{"type":"Feature","geometry":{"type":"Point","coordinates":[15.9912744,-17.9181644]},"properties":{"addr:city":"Ondangwa","brand":"Shoprite","brand:wikidata":"Q1857639","check_date":"2023-12-27","name":"Shoprite","shop":"supermarket"}},
{"type":"Feature","geometry":{"type":"Point","coordinates":[17.0918727,-22.6214913]},"properties":{"brand":"Checkers","brand:wikidata":"Q5089126","check_date":"2024-04-04","name":"Checkers","opening_hours":"Mo-Fr 09:00-20:00; Sa 07:00-18:00; Su 09:00-18:00","payment:cash":"yes","payment:credit_cards":"yes","payment:visa":"yes","shop":"supermarket"}},
{"type":"Feature","geometry":{"type":"Point","coordinates":[17.090277,-22.6197201]},"properties":{"brand":"Pick n Pay","brand:wikidata":"Q7190735","check_date":"2024-08-26","internet_access":"no","name":"Pick n Pay","opening_hours":"Mo-Sa 07:30-19:00; Su,PH 08:00-18:00","payment:credit_cards":"yes","payment:debit_cards":"yes","shop":"supermarket","wheelchair":"yes"}},
{"type":"Feature","geometry":{"type":"Point","coordinates":[14.5051632,-22.953424299999999]},"properties":{"addr:housenumber":"164–178","addr:street":"Sam Nujoma Avenue","name":"Trust Market","opening_hours":"Mo-Su 08:00-23:00","shop":"supermarket"}},
{"type":"Feature","geometry":{"type":"Point","coordinates":[19.7750937,-17.9116792]},"properties":{"addr:city":"Rundu","addr:street":"Markus Siwarongo Street","name":"Butchery","name:en":"Butchery","shop":"butcher"}},
{"type":"Feature","geometry":{"type":"Point","coordinates":[17.082213,-22.5730146]},"properties":{"addr:city":"Windhoek","addr:housenumber":"28","addr:street":"Trift Street","check_date":"2024-04-17","food":"yes","internet_access":"no","name":"Raith's Bakery & Deli","opening_hours":"Mo-Fr 06:00-16:30","payment:cash":"yes","payment:credit_cards":"yes","payment:debit_cards":"yes","phone":"+264 81 222 6878","shop":"bakery","website":"https://www.raithbakedeli.com/windhoek","wheelchair":"no"}},
{"type":"Feature","geometry":{"type":"Point","coordinates":[19.7713616,-17.9114163]},"properties":{"name":"Netushi Meat Shop","name:en":"Netushi Meat Shop","shop":"butcher"}},
{"type":"Feature","geometry":{"type":"Point","coordinates":[16.9172789,-21.983467]},"properties":{"name":"Butchery On Wheels","name:en":"Butchery On Wheels","shop":"butcher"}},
{"type":"Feature","geometry":{"type":"Point","coordinates":[17.0626773,-22.5431833]},"properties":{"shop":"butcher"}},
{"type":"Feature","geometry":{"type":"Point","coordinates":[14.5045985,-22.9537909]},"properties":{"name":"Charlie's Meat Market","name:en":"Charlie's Meat Market","shop":"butcher"}},
{"type":"Feature","geometry":{"type":"Point","coordinates":[14.4941076,-22.9621867]},"properties":{"name":"Venus Shopping Centre","shop":"supermarket"}},
{"type":"Feature","geometry":{"type":"Point","coordinates":[14.5349618,-22.9316013]},"properties":{"name":"2gether Mini Shop","shop":"convenience"}},
{"type":"Feature","geometry":{"type":"Point","coordinates":[14.5313367,-22.932454]},"properties":{"shop":"butcher"}},
{"type":"Feature","geometry":{"type":"Point","coordinates":[17.0462542,-22.5204207]},"properties":{"name":"Shoprite","name:en":"Shoprite","shop":"supermarket"}},
{"type":"Feature","geometry":{"type":"Point","coordinates":[16.6471862,-20.4593912]},"properties":{"name":"Oryx Wild Products","shop":"butcher"}},
{"type":"Feature","geometry":{"type":"Point","coordinates":[16.6534707,-20.4592028]},"properties":{"name":"Elite Biltong","phone":"067 302 818","shop":"butcher"}},
{"type":"Feature","geometry":{"type":"Point","coordinates":[16.6551596,-20.4615414]},"properties":{"addr:street":"Dr. Libertina Amathila Avenue","name":"Woermann & Brock","phone":"+264812943280","shop":"supermarket","website":"https://www.woermannbrock.com/branches/family-stores-contacts/18-otjiwarongo-supermarket"}},
{"type":"Feature","geometry":{"type":"Point","coordinates":[16.6547014,-20.4581917]},"properties":{"name":"Otjiwarongo Cash & Carry","shop":"supermarket"}},
{"type":"Feature","geometry":{"type":"Point","coordinates":[16.6651758,-20.4639796]},"properties":{"brand":"7-Eleven","brand:wikidata":"Q259340","brand:wikipedia":"en:7-Eleven","name":"7-Eleven","shop":"convenience"}},
{"type":"Feature","geometry":{"type":"Point","coordinates":[16.6653052,-20.4638403]},"properties":{"name":"People's Corner","shop":"butcher"}},
{"type":"Feature","geometry":{"type":"Point","coordinates":[16.6726602,-20.4695001]},"properties":{"name":"Anton","shop":"butcher"}},
{"type":"Feature","geometry":{"type":"Point","coordinates":[16.6495767,-20.4656281]},"properties":{"name":"Vimona Supermarket","shop":"supermarket"}},
{"type":"Feature","geometry":{"type":"Point","coordinates":[16.6520364,-20.4587017]},"properties":{"name":"Otji Meat & Meals","shop":"butcher"}},
{"type":"Feature","geometry":{"type":"Point","coordinates":[17.0749898,-23.3252176]},"properties":{"addr:housenumber":"103 B","addr:street":"Church Street","name":"H.van Wyk Slagtery","shop":"butcher"}},
{"type":"Feature","geometry":{"type":"Point","coordinates":[17.07711,-23.3216643]},"properties":{"addr:housenumber":"14 Blok B","name":"Rehoboth Shopping Centre","shop":"convenience"}},
{"type":"Feature","geometry":{"type":"Point","coordinates":[17.0811803,-23.3143974]},"properties":{"name":"Protea Self Help","shop":"convenience"}},
{"type":"Feature","geometry":{"type":"Point","coordinates":[17.0795485,-23.3147543]},"properties":{"name":"Knock Out","shop":"convenience"}},
{"type":"Feature","geometry":{"type":"Point","coordinates":[17.0743548,-23.3317783]},"properties":{"name":"Echo Supermarket","name:en":"Echo Supermarket","shop":"supermarket"}},
{"type":"Feature","geometry":{"type":"Point","coordinates":[17.0727395,-23.318734]},"properties":{"name":"Super 7","shop":"convenience"}},
{"type":"Feature","geometry":{"type":"Point","coordinates":[17.0836089,-23.3187533]},"properties":{"name":"Woermann Hyper Rehoboth","shop":"supermarket"}},
{"type":"Feature","geometry":{"type":"Point","coordinates":[17.0782103,-23.3191094]},"properties":{"name":"Pick Mor","name:en":"Pick Mor","shop":"supermarket"}},
{"type":"Feature","geometry":{"type":"Point","coordinates":[14.537103,-22.6556874]},"properties":{"name":"Benguella Butchery","shop":"butcher"}},
{"type":"Feature","geometry":{"type":"Point","coordinates":[14.540157,-22.6450081]},"properties":{"name":"Ocean View Butchery","shop":"butcher"}},
{"type":"Feature","geometry":{"type":"Point","coordinates":[16.9415027,-18.8069849]},"properties":{"shop":"convenience"}},
{"type":"Feature","geometry":{"type":"Point","coordinates":[24.2765959,-17.5001383]},"properties":{"name":"Shoprite","shop":"supermarket"}},
{"type":"Feature","geometry":{"type":"Point","coordinates":[24.2767666,-17.4996538]},"properties":{"name":"Coimbra Megasave","shop":"supermarket"}},
{"type":"Feature","geometry":{"type":"Point","coordinates":[23.3972189,-17.8210745]},"properties":{"name":"Chicken Hut","shop":"convenience"}},
{"type":"Feature","geometry":{"type":"Point","coordinates":[14.5258484,-22.6736272]},"properties":{"name":"Namaqua Meat Market","shop":"butcher"}},
{"type":"Feature","geometry":{"type":"Point","coordinates":[17.6183709,-28.7205048]},"properties":{"name":"Supermarket","name:en":"Supermarket","shop":"supermarket"}},
{"type":"Feature","geometry":{"type":"Point","coordinates":[21.548875,-18.1002057]},"properties":{"name":"Metro","shop":"supermarket"}},
{"type":"Feature","geometry":{"type":"Point","coordinates":[18.9776467,-22.4515409]},"properties":{"name":"Woermann","shop":"supermarket"}},
{"type":"Feature","geometry":{"type":"Point","coordinates":[16.7568848,-27.9654627]},"properties":{"name":"Shoprite Usave","opening_hours":"Mo-Fr 08:00-19:00; Sa 08:00-16:00; Su 08:00-13:00","shop":"supermarket"}},
{"type":"Feature","geometry":{"type":"Point","coordinates":[13.841658,-18.0627682]},"properties":{"shop":"convenience"}},
{"type":"Feature","geometry":{"type":"Point","coordinates":[13.2482582,-17.0024402]},"properties":{"name":"Arsenal Mini Market and Bar","shop":"convenience"}},
{"type":"Feature","geometry":{"type":"Point","coordinates":[13.2485627,-17.0022042]},"properties":{"shop":"bakery"}},
{"type":"Feature","geometry":{"type":"Point","coordinates":[13.8416631,-17.3360349]},"properties":{"shop":"convenience"}},
{"type":"Feature","geometry":{"type":"Point","coordinates":[14.991418,-17.5074424]},"properties":{"name":"Shoprite","not:brand:wikidata":"Q1857639","opening_hours":"Mo-Fr 08:00-18:00;Sa 08:00-16:00;Su,PH 08:00-13:00","shop":"supermarket"}},
{"type":"Feature","geometry":{"type":"Point","coordinates":[16.031584,-17.9364587]},"properties":{"check_date":"2024-09-28","name":"Woermann Supermarket","name:en":"Woermann Supermatket","shop":"supermarket"}},
{"type":"Feature","geometry":{"type":"Point","coordinates":[17.659557,-19.2258124]},"properties":{"name":"Puma Farmhouse Deli","name:en":"Puma Farmhouse Deli","shop":"bakery"}},
{"type":"Feature","geometry":{"type":"Point","coordinates":[17.6593714,-19.2259285]},"properties":{"name":"OK Express","shop":"supermarket"}},
{"type":"Feature","geometry":{"type":"Point","coordinates":[20.5038349,-19.5912066]},"properties":{"name":"Fruits & Veg","shop":"convenience"}},
{"type":"Feature","geometry":{"type":"Point","coordinates":[19.7718135,-17.9319544]},"properties":{"name":"Corner Bakery","name:en":"Corner Bakery","shop":"bakery"}},
{"type":"Feature","geometry":{"type":"Point","coordinates":[19.7708841,-17.9203223]},"properties":{"name":"Corner Bakery","shop":"bakery"}},
{"type":"Feature","geometry":{"type":"Point","coordinates":[18.1107977,-19.5601712]},"properties":{"name":"Café Bonjour","shop":"convenience"}},
{"type":"Feature","geometry":{"type":"Point","coordinates":[19.7708744,-17.9202428]},"properties":{"name":"Engen Shop","shop":"convenience"}},
{"type":"Feature","geometry":{"type":"Point","coordinates":[16.9131615,-21.9754169]},"properties":{"name":"Corner Bakery","shop":"bakery"}},
{"type":"Feature","geometry":{"type":"Point","coordinates":[16.917514100000003,-21.9838217]},"properties":{"name":"Backerei Dekker","name:en":"Bakery Dekker","shop":"bakery"}},
{"type":"Feature","geometry":{"type":"Point","coordinates":[16.9129415,-21.9746564]},"properties":{"name":"Multisave","shop":"supermarket"}},
{"type":"Feature","geometry":{"type":"Point","coordinates":[16.7454921,-22.1130857]},"properties":{"shop":"convenience"}},
{"type":"Feature","geometry":{"type":"Point","coordinates":[14.3423573,-20.4224208]},"properties":{"name":"General Dealer","shop":"supermarket"}},
{"type":"Feature","geometry":{"type":"Point","coordinates":[16.9146505,-21.9786682]},"properties":{"addr:city":"Okahandja","addr:housenumber":"2456","addr:street":"Voortrekker Street","email":"info@closwa.com","fax":"Fax: + 264 62 501593","internet_access":"wlan","name":"Closwa Biltong","opening_hours":"Mo-Th 08:00-17:00, Fr 08:00-17:00, Sa 08:00-13:00","phone":"+264 62 501123​","shop":"butcher","website":"https://www.closwa.com/"}},
{"type":"Feature","geometry":{"type":"Point","coordinates":[14.2831335,-22.1174903]},"properties":{"addr:city":"Henties Bay","addr:street":"Jakkalsputz Road","branch":"Usave","brand":"Shoprite","name":"Shoprite Usave","not:brand:wikidata":"Q1857639","shop":"supermarket"}},
{"type":"Feature","geometry":{"type":"Point","coordinates":[17.410385,-28.3605064]},"properties":{"addr:city":"Aussenkehr","name":"Spar","shop":"supermarket"}},
{"type":"Feature","geometry":{"type":"Point","coordinates":[17.9086965,-27.2157828]},"properties":{"name":"Canyon Farm Yard","shop":"convenience"}},
{"type":"Feature","geometry":{"type":"Point","coordinates":[14.9662872,-20.3727824]},"properties":{"name":"Butchery","shop":"butcher"}},
{"type":"Feature","geometry":{"type":"Point","coordinates":[18.1012474,-19.5647737]},"properties":{"addr:city":"Grootfontaein","addr:street":"Sam Nujoma Drive","name":"Otjiwanda Meat Market CC","shop":"butcher"}},
{"type":"Feature","geometry":{"type":"Point","coordinates":[18.1054494,-19.5640828]},"properties":{"name":"Bakery","shop":"bakery"}},
{"type":"Feature","geometry":{"type":"Point","coordinates":[13.6261571,-19.1230393]},"properties":{"name":"Mini Market","shop":"convenience"}},
{"type":"Feature","geometry":{"type":"Point","coordinates":[18.9720457,-22.4500212]},"properties":{"name":"Food Zone","shop":"supermarket"}},
{"type":"Feature","geometry":{"type":"Point","coordinates":[18.9828716,-22.448182]},"properties":{"name":"Metro","shop":"supermarket"}},
{"type":"Feature","geometry":{"type":"Point","coordinates":[14.5503647,-22.656518]},"properties":{"name":"Woerman & Brock Mondesa","opening_hours":"Mo-Su 07:30-20:00","shop":"supermarket"}},
{"type":"Feature","geometry":{"type":"Point","coordinates":[17.0942978,-22.6192226]},"properties":{"brand":"Spar","brand:wikidata":"Q610492","check_date":"2024-04-12","name":"Spar","opening_hours":"Mo-Fr 07:00-20:00; Sa 07:00-19:00; Su 08:00-19:00","operator":"Superspar","shop":"supermarket"}},
{"type":"Feature","geometry":{"type":"Point","coordinates":[14.5416331,-22.656771]},"properties":{"shop":"convenience"}},
{"type":"Feature","geometry":{"type":"Point","coordinates":[18.1354332,-26.582525]},"properties":{"shop":"supermarket"}},
{"type":"Feature","geometry":{"type":"Point","coordinates":[17.9506566,-25.4660827]},"properties":{"name":"Small General Dealers","shop":"convenience"}},
{"type":"Feature","geometry":{"type":"Point","coordinates":[18.1054444,-19.5688217]},"properties":{"brand":"Pick n Pay","brand:wikidata":"Q7190735","name":"Pick n Pay","shop":"supermarket","wheelchair":"yes"}},
{"type":"Feature","geometry":{"type":"Point","coordinates":[13.6256633,-18.350846]},"properties":{"name":"Omevameu","shop":"farm"}},
{"type":"Feature","geometry":{"type":"Point","coordinates":[14.9749636,-20.8687429]},"properties":{"name":"Ugab grocery liquor outlet","shop":"convenience"}},
{"type":"Feature","geometry":{"type":"Point","coordinates":[23.8239534,-17.7654711]},"properties":{"name":"Meat Market","shop":"butcher"}},
{"type":"Feature","geometry":{"type":"Point","coordinates":[17.0485078,-22.5412795]},"properties":{"name":"SPAR Khomasdal Beukes","shop":"supermarket"}},
{"type":"Feature","geometry":{"type":"Point","coordinates":[15.1540793,-26.6460324]},"properties":{"brand":"Spar","brand:wikidata":"Q610492","name":"Spar","shop":"supermarket"}},
{"type":"Feature","geometry":{"type":"Point","coordinates":[14.527846,-22.6767131]},"properties":{"addr:street":"Daniel Tjongarero Avenue (Post St)","name":"Bäckerei Przybylski","name:en":"Bakery Przybylski","opening_hours":"Mo-Fr 06:00-15:00; Sa 06:30-12:30","phone":"+264 64 402 731","shop":"bakery"}},
{"type":"Feature","geometry":{"type":"Point","coordinates":[13.8036423,-18.5090574]},"properties":{"name":"Otjahorovara","shop":"farm"}},
{"type":"Feature","geometry":{"type":"Point","coordinates":[16.5801088,-18.3588359]},"properties":{"name":"OK Supermarket","shop":"supermarket"}},
{"type":"Feature","geometry":{"type":"Point","coordinates":[16.5787237,-18.3576974]},"properties":{"name":"Choppies","shop":"supermarket","website":"https://choppies.co.na/"}},
{"type":"Feature","geometry":{"type":"Point","coordinates":[17.6575828,-22.9470871]},"properties":{"name":"Store Dordabis","opening_hours":"Mo-Fr 08:00-13:00, 15:00-18:00; Sa 08:00-13:00","phone":"+264(0)62 573 500","shop":"convenience"}},
{"type":"Feature","geometry":{"type":"Point","coordinates":[18.1455642,-26.5813812]},"properties":{"name":"Woermann and Brock","opening_hours":"Mo-Su 08:00-19:00","shop":"supermarket"}},
{"type":"Feature","geometry":{"type":"Point","coordinates":[17.077605,-23.3061463]},"properties":{"brand":"Shoprite","brand:wikidata":"Q1857639","name":"Shoprite","shop":"supermarket"}},
{"type":"Feature","geometry":{"type":"Point","coordinates":[17.0782638,-22.5919451]},"properties":{"brand":"Closwa Biltong","check_date":"2024-08-10","description":"Butcher and Biltong Shop","internet_access":"no","name":"Closwa Biltong Windhoek","operator":"Closwa Biltong","payment:cash":"yes","payment:credit_cards":"yes","payment:debit_cards":"yes","payment:mastercard":"yes","payment:visa":"yes","phone":"+264 81 800 0459","shop":"butcher","website":"https://www.closwa.com","wheelchair":"limited"}},
{"type":"Feature","geometry":{"type":"Point","coordinates":[18.8109966,-24.8584516]},"properties":{"shop":"supermarket"}},
{"type":"Feature","geometry":{"type":"Point","coordinates":[19.2061174,-19.2840108]},"properties":{"name":"Savannah","shop":"convenience"}},
{"type":"Feature","geometry":{"type":"Point","coordinates":[17.0742644,-22.5511524]},"properties":{"name":"Tall Tree Supermarket","shop":"supermarket"}},
{"type":"Feature","geometry":{"type":"Point","coordinates":[13.6260021,-19.1236004]},"properties":{"shop":"convenience"}},
{"type":"Feature","geometry":{"type":"Point","coordinates":[15.8010638,-17.8217461]},"properties":{"shop":"convenience"}},
{"type":"Feature","geometry":{"type":"Point","coordinates":[13.0356029,-19.9960256]},"properties":{"shop":"convenience"}},
{"type":"Feature","geometry":{"type":"Point","coordinates":[15.4649544,-17.6533678]},"properties":{"addr:city":"Oshikuku","addr:postcode":"16003","name":"Usave","shop":"supermarket"}},
{"type":"Feature","geometry":{"type":"Point","coordinates":[15.1982986,-17.6090611]},"properties":{"shop":"convenience"}},
{"type":"Feature","geometry":{"type":"Point","coordinates":[13.6399291,-17.7694382]},"properties":{"shop":"convenience"}},
{"type":"Feature","geometry":{"type":"Point","coordinates":[13.7218141,-18.6294159]},"properties":{"shop":"convenience"}},
{"type":"Feature","geometry":{"type":"Point","coordinates":[13.9499609,-19.8848333]},"properties":{"shop":"convenience"}},
{"type":"Feature","geometry":{"type":"Point","coordinates":[14.8338826,-20.9511987]},"properties":{"shop":"convenience"}},
{"type":"Feature","geometry":{"type":"Point","coordinates":[17.0505083,-22.5325033]},"properties":{"name":"Open Market","shop":"supermarket"}},
{"type":"Feature","geometry":{"type":"Point","coordinates":[24.2706025,-17.4977427]},"properties":{"name":"Cash&Carry","shop":"supermarket"}},
{"type":"Feature","geometry":{"type":"Point","coordinates":[24.2706168,-17.4981184]},"properties":{"name":"SHAKAR","shop":"supermarket"}},
{"type":"Feature","geometry":{"type":"Point","coordinates":[17.0667742,-22.5326249]},"properties":{"addr:city":"Windhoek","addr:street":"Independence Avenue","brand":"Pick n Pay","brand:wikidata":"Q7190735","check_date":"2023-06-17","name":"Pick n Pay","shop":"supermarket"}},
{"type":"Feature","geometry":{"type":"Point","coordinates":[17.0520846,-22.521922]},"properties":{"name":"WB Supermarkets Katutura","shop":"supermarket"}},
{"type":"Feature","geometry":{"type":"Point","coordinates":[14.2920927,-22.1245391]},"properties":{"addr:city":"Henties Bay","addr:street":"Jakkalsputz Road","name":"Woermann Brock","operator":"Woermann, Brock & Co.","shop":"supermarket","website":"https://www.woermannbrock.com"}},
{"type":"Feature","geometry":{"type":"Point","coordinates":[17.0898073,-23.3290771]},"properties":{"name":"Usave Reoboth","shop":"convenience"}},
{"type":"Feature","geometry":{"type":"Point","coordinates":[17.2243571,-17.5799117]},"properties":{"name":"Pick’n Pay Okongo","shop":"supermarket"}},
{"type":"Feature","geometry":{"type":"Point","coordinates":[16.8228111,-25.8900979]},"properties":{"description":"Offers the necessary items in small amounts.","name":"General Store","shop":"supermarket"}},
{"type":"Feature","geometry":{"type":"Point","coordinates":[15.042834,-17.9810362]},"properties":{"name":"Ehafo","shop":"supermarket"}},
{"type":"Feature","geometry":{"type":"Point","coordinates":[15.5872303,-22.0006515]},"properties":{"name":"OK MiniMark","shop":"supermarket"}},
{"type":"Feature","geometry":{"type":"Point","coordinates":[15.8270899,-19.5109424]},"properties":{"addr:street":"c38","internet_access":"wlan","name":"Taleni Trading post","operator":"Taleni","shop":"convenience"}},
{"type":"Feature","geometry":{"type":"Point","coordinates":[14.4989352,-22.9583356]},"properties":{"amenity":"parking"}},
{"type":"Feature","geometry":{"type":"Point","coordinates":[19.7697751,-17.9168495]},"properties":{"name":"Shoprite","shop":"supermarket"}},
{"type":"Feature","geometry":{"type":"Point","coordinates":[19.771172,-17.9199199]},"properties":{"shop":"bakery"}},
{"type":"Feature","geometry":{"type":"Point","coordinates":[19.7564414,-17.9231303]},"properties":{"name":"Paradise","shop":"convenience"}},
{"type":"Feature","geometry":{"type":"Point","coordinates":[16.6527867,-20.4576322]},"properties":{"facebook":"https://www.facebook.com/Farm-to-Folk-Otjiwarongo-101535691233904/","name":"Farm to Folk","shop":"convenience"}},
{"type":"Feature","geometry":{"type":"Point","coordinates":[16.1893064,-20.8898505]},"properties":{"shop":"convenience"}},
{"type":"Feature","geometry":{"type":"Point","coordinates":[15.1538479,-26.6460323]},"properties":{"name":"Harmony General Dealer","shop":"convenience"}},
{"type":"Feature","geometry":{"type":"Point","coordinates":[18.1333273,-26.5831506]},"properties":{"name":"Mudi's Butchery","shop":"butcher"}},
{"type":"Feature","geometry":{"type":"Point","coordinates":[17.0274428,-22.5475607]},"properties":{"bus":"yes","name":"Delhi Square-","public_transport":"stop_position"}},
{"type":"Feature","geometry":{"type":"Point","coordinates":[13.8427211,-18.0557279]},"properties":{"name":"SPAR SaveMor","shop":"supermarket"}},
{"type":"Feature","geometry":{"type":"Point","coordinates":[16.3337781,-17.474473]},"properties":{"name":"Woermann Brock","shop":"supermarket"}},
{"type":"Feature","geometry":{"type":"Point","coordinates":[17.0830444,-22.5834109]},"properties":{"addr:city":"Windhoek","addr:street":"Nobel Street","check_date":"2024-05-13","name":"Southern Butchers","shop":"butcher","website":"http://southernbutchers.com"}},
{"type":"Feature","geometry":{"type":"Point","coordinates":[14.5289186,-22.9393693]},"properties":{"addr:city":"Walvis Bay","addr:street":"Sardyn Street","name":"Independence Butchery","shop":"butcher"}},
{"type":"Feature","geometry":{"type":"Point","coordinates":[15.8919252,-17.3958351]},"properties":{"addr:street":"Oshikango Main Road","brand":"Pick n Pay","brand:wikidata":"Q7190735","brand:wikipedia":"en:Pick n Pay Stores","name":"Pick n Pay","shop":"supermarket"}},
{"type":"Feature","geometry":{"type":"Point","coordinates":[12.5139369,-17.6260729]},"properties":{"name":"General Dealer","shop":"convenience"}},
{"type":"Feature","geometry":{"type":"Point","coordinates":[12.4398164,-17.2712074]},"properties":{"name":"Marienfluss Shop - ice cold beer & drinks … open by appointment","shop":"convenience"}},
{"type":"Feature","geometry":{"type":"Point","coordinates":[14.9661134,-20.3720116]},"properties":{"name":"OK Foods","shop":"supermarket"}},
{"type":"Feature","geometry":{"type":"Point","coordinates":[18.0756944,-22.3587972]},"properties":{"name":"Kaap Agri - Kalahari Padstal Depot","opening_hours":"Mo-Fr 08:00-17:30; Sa 08:00-13:00","shop":"convenience"}},
{"type":"Feature","geometry":{"type":"Point","coordinates":[17.5889708,-22.4440702]},"properties":{"description":"Shop inside old freight car","name":"Der Bahnladen","opening_hours":"Mo-Fr 07:00-09:00, 12:00-14:00, 17:00-19:00; Sa 08:00-13:00","shop":"convenience"}},
{"type":"Feature","geometry":{"type":"Point","coordinates":[17.0816725,-22.5700818]},"properties":{"drinking_water":"yes","name":"Cafe bonjour","shop":"convenience"}},
{"type":"Feature","geometry":{"type":"Point","coordinates":[19.652071,-26.797711]},"properties":{"name":"Lucky 7","shop":"convenience"}},
{"type":"Feature","geometry":{"type":"Point","coordinates":[17.0581493,-22.5520937]},"properties":{"addr:city":"Windhoek","addr:street":"Paul van Hartes Road","name":"Choppies","shop":"supermarket"}},
{"type":"Feature","geometry":{"type":"Point","coordinates":[14.5069484,-22.9528407]},"properties":{"name":"Self Service MultiSave","opening_hours":"Mo-Sa 07:45-20:00; Su 09:00-13:30, 16:00-19:30; PH 09:00-13:30, 16:00-19:30","operator":"MultiSave","shop":"supermarket"}},
{"type":"Feature","geometry":{"type":"Point","coordinates":[15.5864749,-22.0010605]},"properties":{"name":"Butchery","shop":"butcher"}},
{"type":"Feature","geometry":{"type":"Point","coordinates":[14.292372,-22.1246919]},"properties":{"name":"Best Meats","shop":"butcher"}},
{"type":"Feature","geometry":{"type":"Point","coordinates":[14.2936755,-22.1246249]},"properties":{"name":"Smokeries","shop":"butcher"}},
{"type":"Feature","geometry":{"type":"Point","coordinates":[17.0781037,-22.5770026]},"properties":{"check_date":"2024-05-13","name":"OK MiniMark","shop":"supermarket"}},
{"type":"Feature","geometry":{"type":"Point","coordinates":[14.5169834,-22.9492842]},"properties":{"name":"Food Lovers","shop":"supermarket"}},
{"type":"Feature","geometry":{"type":"Point","coordinates":[17.0733306,-23.327216]},"properties":{"name":"MultiSave","shop":"supermarket"}},
{"type":"Feature","geometry":{"type":"Point","coordinates":[17.5886943,-24.0703697]},"properties":{"shop":"convenience"}},
{"type":"Feature","geometry":{"type":"Point","coordinates":[18.3816277,-27.7197077]},"properties":{"shop":"convenience"}},
{"type":"Feature","geometry":{"type":"Point","coordinates":[14.5032961,-22.9543576]},"properties":{"name":"Caren's Bakery Corner cc","phone":"064207916","shop":"bakery"}},
{"type":"Feature","geometry":{"type":"Point","coordinates":[17.1013198,-22.5731696]},"properties":{"check_date":"2024-04-26","name":"Zero Waste Store Namibia","opening_hours":"Mo, Tu, Th, Fr 08:30-17:00; We 09:00-17:00; Sa 08:30-13:00","shop":"convenience","zero_waste":"yes"}},
{"type":"Feature","geometry":{"type":"Point","coordinates":[14.5031382,-22.9587173]},"properties":{"brand":"OK Foods","brand:wikidata":"Q116520377","name":"OK Foods","shop":"supermarket"}},
{"type":"Feature","geometry":{"type":"Point","coordinates":[14.5162538,-22.9454401]},"properties":{"description":"Industrial Bakery with Factory Shop","name":"Namibian Pie Company","opening_hours":"Mo-Fr 07:00-04:00","shop":"bakery"}},
{"type":"Feature","geometry":{"type":"Point","coordinates":[15.8899147,-17.3996117]},"properties":{"name":"Shoprite","shop":"supermarket"}},
{"type":"Feature","geometry":{"type":"Point","coordinates":[15.9921771,-17.9165244]},"properties":{"check_date":"2024-09-21","name":"Pick n pay","opening_hours":"Mo-Fr 07:00-19:00; Sa 07:00-18:00; Su 08:00-17:00","shop":"supermarket"}},
{"type":"Feature","geometry":{"type":"Point","coordinates":[15.9920723,-17.9169612]},"properties":{"check_date":"2023-12-25","name":"pep","shop":"supermarket"}},
{"type":"Feature","geometry":{"type":"Point","coordinates":[13.8467535,-18.045593]},"properties":{"name":"Arsenal minimarket","shop":"supermarket"}},
{"type":"Feature","geometry":{"type":"Point","coordinates":[13.8452201,-18.0517919]},"properties":{"name":"Arsenal mini market","shop":"supermarket"}},
{"type":"Feature","geometry":{"type":"Point","coordinates":[14.5058344,-22.952823]},"properties":{"name":"Magic & Jumbo Discounters","shop":"supermarket"}},
{"type":"Feature","geometry":{"type":"Point","coordinates":[14.5270006,-22.6460669]},"properties":{"brand":"Checkers","brand:wikidata":"Q5089126","name":"Checkers","operator":"Shoprite Checkers Pty Ltd","payment:cash":"yes","payment:credit_cards":"yes","payment:debit_cards":"yes","payment:maestro":"yes","shop":"supermarket"}},
{"type":"Feature","geometry":{"type":"Point","coordinates":[17.9586893,-24.6255882]},"properties":{"name":"Metro liquor","shop":"supermarket"}},
{"type":"Feature","geometry":{"type":"Point","coordinates":[18.101566,-19.5644983]},"properties":{"name":"Woermann Brock Liquor","shop":"supermarket"}},
{"type":"Feature","geometry":{"type":"Point","coordinates":[18.1017817,-19.56466]},"properties":{"name":"Woermann Brock","shop":"supermarket"}},
{"type":"Feature","geometry":{"type":"Point","coordinates":[18.1020325,-19.565407]},"properties":{"name":"Megasave","shop":"supermarket"}},
{"type":"Feature","geometry":{"type":"Point","coordinates":[14.9672112,-20.3728327]},"properties":{"name":"Choppies Supermarket","shop":"supermarket"}},
{"type":"Feature","geometry":{"type":"Point","coordinates":[15.9289512,-17.6443029]},"properties":{"name":"Ongha Super","shop":"supermarket"}},
{"type":"Feature","geometry":{"type":"Point","coordinates":[15.6969054,-17.7743794]},"properties":{"addr:city":"Oshakati","name":"African Meat Supplies","shop":"supermarket"}},
{"type":"Feature","geometry":{"type":"Point","coordinates":[15.9489203,-21.4241731]},"properties":{"check_date":"2024-04-27","name":"Shoprite Usave","not:brand:wikidata":"Q1857639","opening_hours":"Mo-Fr 09:00-17:00","payment:cash":"yes","payment:credit_cards":"yes","shop":"supermarket"}},
{"type":"Feature","geometry":{"type":"Point","coordinates":[17.0820501,-22.6252743]},"properties":{"check_date":"2023-09-01","name":"Prosperity Mini Market","shop":"convenience"}},
{"type":"Feature","geometry":{"type":"Point","coordinates":[17.0849382,-22.574771]},"properties":{"name":"Oliveira Mini Market","shop":"supermarket"}},
{"type":"Feature","geometry":{"type":"Point","coordinates":[16.2684587,-23.7372176]},"properties":{"shop":"convenience"}},
{"type":"Feature","geometry":{"type":"Point","coordinates":[14.5341807,-22.9281388]},"properties":{"name":"Pomwene Paw Tuck Shop","shop":"convenience"}},
{"type":"Feature","geometry":{"type":"Point","coordinates":[14.5340679,-22.9282674]},"properties":{"name":"Mweneni Mini Shop","shop":"convenience"}},
{"type":"Feature","geometry":{"type":"Point","coordinates":[15.4677272,-17.6523766]},"properties":{"name":"Fozia Inv Cc","shop":"supermarket"}},
{"type":"Feature","geometry":{"type":"Point","coordinates":[16.3231293,-21.9131128]},"properties":{"name":"Convenience Store","name:en":"Wilhemstal Padstal","shop":"convenience"}},
{"type":"Feature","geometry":{"type":"Point","coordinates":[23.3965364,-17.8225922]},"properties":{"name":"Metro","shop":"supermarket"}},
{"type":"Feature","geometry":{"type":"Point","coordinates":[17.0933092,-22.6218233]},"properties":{"branch":"Hilltop Village","brand":"Food Lover's Market","brand:wikidata":"Q65071570","check_date":"2024-08-26","internet_access":"no","name":"Food Lover's Market","opening_hours":"Mo-Sa 08:00-19:00; Su,PH 08:00-17:00","payment:credit_cards":"yes","payment:debit_cards":"yes","shop":"supermarket","wheelchair":"yes"}},
{"type":"Feature","geometry":{"type":"Point","coordinates":[17.0362797,-22.5076753]},"properties":{"amenity":"marketplace","building":"yes","check_date":"2023-06-04","description":"A vendor market for informal traders. Mostly sells inferior goods","internet_access":"wlan","internet_access:fee":"no","name":"Hakahana Open Market","opening_hours":"07:00-21:00","wheelchair":"limited"}},
{"type":"Feature","geometry":{"type":"Point","coordinates":[17.0582511,-22.4958795]},"properties":{"air_conditioning":"no","check_date":"2024-04-25","currency:NAD":"yes","description":"Mini groceries shop","internet_access":"no","name":"Tangeni Shop","opening_hours":"Mo-Sa 05:00-22:00; Su 06:00-21:00","organic":"no","payment:cash":"yes","shop":"convenience","stroller":"no","toilets":"no","toilets:wheelchair":"no","wheelchair":"no"}},
{"type":"Feature","geometry":{"type":"Point","coordinates":[17.0772789,-22.5695673]},"properties":{"check_date":"2024-04-28","description":"A small convience store. That sells food","name":"Louis Botha","opening_hours":"07:00-19:00","payment:cash":"yes","payment:credit_cards":"yes","shop":"convenience","wheelchair":"limited"}},
{"type":"Feature","geometry":{"type":"Point","coordinates":[17.0567504,-22.4903019]},"properties":{"check_date":"2024-04-25","fixme:type":"mini shop","name":"Minas","shop":"convenience"}},
{"type":"Feature","geometry":{"type":"Point","coordinates":[17.0549573,-22.4934552]},"properties":{"air_conditioning":"yes","check_date":"2024-04-25","currency:NAD":"yes","internet_access":"no","name":"Nelu","organic":"no","payment:cards":"no","payment:credit_cards":"no","payment:debit_cards":"no","second_hand":"yes","shop":"convenience","stroller":"no","toilets":"no","toilets:wheelchair":"no","wheelchair":"no"}},
{"type":"Feature","geometry":{"type":"Point","coordinates":[17.0590043,-22.4923248]},"properties":{"check_date":"2024-04-01","fixme:type":"theo tuckshop","name":"Thoe Tuckshop","shop":"convenience"}},
{"type":"Feature","geometry":{"type":"Point","coordinates":[17.0508066,-22.5093812]},"properties":{"amenity":"marketplace","check_date":"2023-06-10","description":"Open market with informal vendors","name":"Tukondjeni Market","opening_hours":"07:00-20:00","operator":"City of Windhoek","wheelchair":"limited"}},
{"type":"Feature","geometry":{"type":"Point","coordinates":[17.0503582,-22.5097346]},"properties":{"addr:city":"Windhoek","addr:street":"Ondoto Street","check_date":"2023-06-10","name":"Usave Shoprite","opening_hours":"Mo-Fr 07:00-17:00","organic":"yes","payment:cash":"yes","payment:credit_cards":"yes","second_hand":"no","shop":"convenience","stroller":"yes","toilets":"no","wheelchair":"limited"}},
{"type":"Feature","geometry":{"type":"Point","coordinates":[17.0501115,-22.5105304]},"properties":{"addr:city":"Windhoek","addr:street":"Ondoto Street","air_conditioning":"yes","check_date":"2023-06-11","internet_access":"no","name":"Namica Shopping Center","opening_hours":"Mo-Fr 07:00-17:00; Sa-Su 07:00-16:00","operator":"Namica","organic":"yes","payment:mastercard":"yes","payment:visa":"yes","second_hand":"no","shop":"supermarket","stroller":"yes","toilets":"no"}},
{"type":"Feature","geometry":{"type":"Point","coordinates":[17.0497658,-22.511504]},"properties":{"addr:city":"Windhoek","addr:street":"Ondoto Street","check_date":"2023-06-10","name":"Metro Cash and Carry","opening_hours":"Mo-Fr 08:00-17:00","shop":"convenience"}},
{"type":"Feature","geometry":{"type":"Point","coordinates":[14.8900181,-17.7470498]},"properties":{"addr:city":"Tsandi","name":"Usave Shoprite","shop":"supermarket"}},
{"type":"Feature","geometry":{"type":"Point","coordinates":[14.8889166,-17.7416528]},"properties":{"addr:city":"Tsandi","name":"Woermann Brock","shop":"supermarket"}},
{"type":"Feature","geometry":{"type":"Point","coordinates":[14.3342604,-17.409206]},"properties":{"addr:city":"Ruacana","addr:street":"Otjaandjamwenyo Village","opening_hours":"Mo-Su 09:00-20:00","shop":"supermarket"}},
{"type":"Feature","geometry":{"type":"Point","coordinates":[14.3363115,-17.4095847]},"properties":{"addr:city":"Ruacana","addr:street":"Otjaandjamwenyo Village","name":"Holiday Special","opening_hours":"Mo-Sa 08:00-18:00","shop":"supermarket"}},
{"type":"Feature","geometry":{"type":"Point","coordinates":[17.086733,-22.6291397]},"properties":{"contact:facebook":"https://www.facebook.com/people/Arebbusch-Supermarket-and-Take-Away/100083332598213/","email":"christinecarelse1@gmail.com","name":"Arebbush Supermarket & Take Away","opening_hours":"Mo-Sa 07:00-21:00; Su 08:00-21:00","phone":"+264 81 737 5439","shop":"supermarket"}},
{"type":"Feature","geometry":{"type":"Point","coordinates":[17.0985389,-22.6044964]},"properties":{"check_date":"2024-02-25","email":"feedback@woermannbrock.com","internet_access":"no","name":"Woermann Fresh Supermarket","opening_hours":"Mo-Sa 07:00-19:00; Su,PH 08:00-19:00","payment:cash":"yes","payment:credit_cards":"yes","payment:visa":"yes","phone":"+264 81 792 1140","shop":"supermarket","website":"https://www.woermannfresh.com/","wheelchair":"yes"}},
{"type":"Feature","geometry":{"type":"Point","coordinates":[17.1011482,-22.5677015]},"properties":{"brand":"Spar","brand:wikidata":"Q610492","check_date":"2023-11-01","contact:facebook":"https://www.facebook.com/SparKleinWindhoek/","email":"customerservice@kwspar.com.na","name":"Spar","opening_hours":"Mo-Sa 07:00-20:00; Su 07:00-19:00","shop":"convenience","website":"https://www.weckevoigtsspar.com/","wheelchair":"yes"}},
{"type":"Feature","geometry":{"type":"Point","coordinates":[17.0863639,-22.6130705]},"properties":{"brand":"Spar","brand:wikidata":"Q610492","check_date":"2023-11-05","internet_access":"no","name":"Spar Express","opening_hours":"24/7","payment:mastercard":"yes","payment:visa":"yes","shop":"convenience","wheelchair":"yes"}},
{"type":"Feature","geometry":{"type":"Point","coordinates":[17.0842027,-22.5839227]},"properties":{"check_date":"2023-08-30","name":"Southern Butchers","shop":"butcher"}},
{"type":"Feature","geometry":{"type":"Point","coordinates":[19.4383824,-17.8755985]},"properties":{"name":"HALILI OPEN MARKET","shop":"supermarket"}},
{"type":"Feature","geometry":{"type":"Point","coordinates":[14.4303484,-17.4342274]},"properties":{"addr:city":"Oshifo, ruacana","air_conditioning":"yes","brand":"Shoprite","brand:wikidata":"Q1857639","name":"Shoprite","opening_hours":"Mo-Fr 08:00-19:00","payment:cash":"yes","payment:visa":"yes","shop":"supermarket"}},
{"type":"Feature","geometry":{"type":"Point","coordinates":[14.4309008,-17.4336464]},"properties":{"addr:city":"Oshifo, ruacana","name":"Okalunga Pick n' Shop","opening_hours":"Mo-Su 10:00-21:00","payment:cash":"yes","payment:visa":"yes","shop":"supermarket"}},
{"type":"Feature","geometry":{"type":"Point","coordinates":[14.4320109,-17.4350286]},"properties":{"amenity":"atm","operator":"Bank Windhoek"}},
{"type":"Feature","geometry":{"type":"Point","coordinates":[23.7766802,-17.818049]},"properties":{"addr:city":"Makanga","name":"market place","payment:cash":"yes","shop":"supermarket"}},
{"type":"Feature","geometry":{"type":"Point","coordinates":[17.0912407,-22.5505489]},"properties":{"check_date":"2024-02-16","contact:facebook":"https://facebook.com/lepaincafe","internet_access":"no","name":"Let Pain Café","opening_hours":"Mo-Fr 06:00-16:00; Sa 06:00-12:00; Su 06:00-10:00","payment:mastercard":"yes","payment:visa":"yes","phone":"+264 61 240 491","shop":"bakery","wheelchair":"yes"}},
{"type":"Feature","geometry":{"type":"Point","coordinates":[17.0844748,-22.574392]},"properties":{"check_date":"2023-11-17","name":"Seefeldt Deli & Bakery","opening_hours":"Mo-Fri 08:00-16:00; Sa-Su off","phone":"+264 81 397 0751","shop":"bakery"}},
{"type":"Feature","geometry":{"type":"Point","coordinates":[17.0790799,-22.5887535]},"properties":{"check_date":"2024-04-12","name":"The Coffee & Wine Co.","shop":"supermarket"}},
{"type":"Feature","geometry":{"type":"Point","coordinates":[17.0875908,-22.5528574]},"properties":{"amenity":"marketplace","check_date":"2023-11-12","name":"The Village Sunday Market","opening_hours":"Mo-Fr,Su off; Sa 09:00-15:00","payment:cash":"yes","payment:credit_cards":"yes","payment:debit_cards":"yes","wheelchair":"limited"}},
{"type":"Feature","geometry":{"type":"Point","coordinates":[17.0937249,-22.6211436]},"properties":{"check_date":"2024-06-15","name":"Hartlief","opening_hours":"Mo-Fr 07:00-19:00; Sa-Su 07:00-15:00","shop":"butcher","wheelchair":"yes"}},
{"type":"Feature","geometry":{"type":"Point","coordinates":[16.5755584,-18.3569881]},"properties":{"brand":"Spar","brand:wikidata":"Q610492","check_date":"2023-12-28","name":"Spar","shop":"supermarket"}},
{"type":"Feature","geometry":{"type":"Point","coordinates":[17.0845648,-22.5773343]},"properties":{"name":"Ausspannplatz Self Service & Take Away","shop":"supermarket"}},
{"type":"Feature","geometry":{"type":"Point","coordinates":[17.0908089,-22.5504462]},"properties":{"check_date":"2023-12-16","name":"Eros Meat Market","shop":"butcher","wheelchair":"yes"}},
{"type":"Feature","geometry":{"type":"Point","coordinates":[15.9729923,-17.9145924]},"properties":{"check_date":"2023-12-26","name":"Smart Choice Biltong Shop","shop":"butcher"}},
{"type":"Feature","geometry":{"type":"Point","coordinates":[15.9725848,-17.9149984]},"properties":{"check_date":"2023-12-26","name":"Shoprite","shop":"supermarket"}},
{"type":"Feature","geometry":{"type":"Point","coordinates":[16.4696753,-19.03707]},"properties":{"check_date":"2023-12-28","name":"36","shop":"convenience"}},
{"type":"Feature","geometry":{"type":"Point","coordinates":[16.4696671,-19.0368602]},"properties":{"check_date":"2023-12-28","name":"34","shop":"convenience"}},
{"type":"Feature","geometry":{"type":"Point","coordinates":[16.4701439,-19.0362292]},"properties":{"check_date":"2023-12-28","name":"24","shop":"convenience"}},
{"type":"Feature","geometry":{"type":"Point","coordinates":[16.4702504,-19.0361668]},"properties":{"check_date":"2023-12-28","name":"23","shop":"convenience"}},
{"type":"Feature","geometry":{"type":"Point","coordinates":[16.5822366,-18.3595527]},"properties":{"description":"Indian Grocery Store","name":"Omuthiya Retail & Wohlesalers","shop":"supermarket"}},
{"type":"Feature","geometry":{"type":"Point","coordinates":[17.0921828,-22.6212935]},"properties":{"check_date":"2024-05-20","name":"Vat n Bietjie Biltong","shop":"butcher"}},
{"type":"Feature","geometry":{"type":"Point","coordinates":[17.0782098,-22.5799736]},"properties":{"check_date":"2024-04-11","name":"Multisave","shop":"supermarket"}},
{"type":"Feature","geometry":{"type":"Point","coordinates":[17.0625147,-22.530458]},"properties":{"addr:city":"Windhoek","addr:street":"Independence Avenue","brand":"Shoprite","brand:wikidata":"Q1857639","name":"Shoprite","shop":"supermarket"}},
{"type":"Feature","geometry":{"type":"Point","coordinates":[17.0856777,-22.5897425]},"properties":{"check_date":"2024-04-26","name":"Future Fresh","opening_hours":"Mo-Fr 06:30-22:00; Sa-Su 08:00-21:00","shop":"supermarket"}},
{"type":"Feature","geometry":{"type":"Point","coordinates":[14.9009692,-21.2300678]},"properties":{"check_date":"2024-04-27","name":"China Shop","shop":"convenience"}},
{"type":"Feature","geometry":{"type":"Point","coordinates":[13.5771461,-18.2863971]},"properties":{"name":"Oruvandjei West","shop":"farm"}},
{"type":"Feature","geometry":{"type":"Point","coordinates":[15.6012955,-17.4336896]},"properties":{"amenity":"marketplace","name":"Omadenga Cucashops"}},
{"type":"Feature","geometry":{"type":"Point","coordinates":[13.6584539,-18.2999954]},"properties":{"name":"Kaoko-Otavi","shop":"farm"}},
{"type":"Feature","geometry":{"type":"Point","coordinates":[13.5751228,-18.5186094]},"properties":{"name":"Ongango Pos","shop":"farm"}},
{"type":"Feature","geometry":{"type":"Point","coordinates":[15.9660071,-17.8978278]},"properties":{"brand":"Pick n Pay","brand:wikidata":"Q7190735","name":"Pick n Pay","shop":"supermarket"}},
{"type":"Feature","geometry":{"type":"Point","coordinates":[20.8148072,-20.2404972]},"properties":{"addr:city":"Gam","addr:postcode":"99999","addr:street":"gam shopping centre","name":"Saketji brothers","opening_hours":"monday-sunday 07:00am-08:00pm","payment:cash":"yes","payment:credit_cards":"yes","phone":"0813630264","shop":"supermarket"}},
{"type":"Feature","geometry":{"type":"Point","coordinates":[16.6867485,-20.4664563]},"properties":{"amenity":"marketplace","building":"yes","name":"Rukumbi Kandanga mini market","opening_hours":"Mo-Su 09:00-21:00"}},
{"type":"Feature","geometry":{"type":"Point","coordinates":[15.6088999,-17.6126221]},"properties":{"name":"Negongo's store","shop":"convenience"}},
{"type":"Feature","geometry":{"type":"Point","coordinates":[16.0466721,-17.9078212]},"properties":{"check_date":"2024-09-23","name":"Spar SaveMor Oniipa","opening_hours":"Mo-Sa 08:00-19:00; Su 09:00-16:00","shop":"supermarket"}},
{"type":"Feature","geometry":{"type":"Point","coordinates":[18.4914701,-22.410247]},"properties":{"shop":"supermarket"}},
{"type":"Feature","geometry":{"type":"LineString","coordinates":[[15.7990453,-24.4861497],[15.7991611,-24.4861322],[15.7991879,-24.4862798],[15.7990721,-24.4862973],[15.7990453,-24.4861497]]},"properties":{"building":"yes","shop":"convenience"}},
{"type":"Feature","geometry":{"type":"LineString","coordinates":[[17.0630757,-22.5548968],[17.0637509,-22.5552236],[17.0635956,-22.5555137],[17.0635162,-22.5555304],[17.0630684,-22.5553503],[17.0630757,-22.5548968]]},"properties":{"addr:city":"Windhoek","addr:street":"Kuaima Riruako Street","brand":"Shoprite","brand:wikidata":"Q1857639","brand:wikipedia":"en:Shoprite (retailer)","building":"yes","check_date":"2023-06-17","name":"Shoprite Usave","shop":"supermarket"}},
{"type":"Feature","geometry":{"type":"LineString","coordinates":[[15.9442213,-21.4376292],[15.9442866,-21.4377063],[15.9442256,-21.4378042],[15.9442155,-21.4378974],[15.9442358,-21.4381263],[15.9452137,-21.4379836],[15.9455432,-21.4376671],[15.9450251,-21.437184],[15.9448147,-21.4371983],[15.9446184,-21.4373699],[15.9445079,-21.4373828],[15.9442213,-21.4376292]]},"properties":{"amenity":"marketplace","name":"Ozondje Market"}},
{"type":"Feature","geometry":{"type":"LineString","coordinates":[[14.5340842,-22.6536149],[14.5340905,-22.6534746],[14.5336183,-22.6534566],[14.5336302,-22.6531906],[14.5342831,-22.6532154],[14.5342749,-22.6533991],[14.5342107,-22.6533967],[14.5342008,-22.6536194],[14.5340842,-22.6536149]]},"properties":{"addr:city":"Swakopmund","addr:postcode":"13001","addr:street":"Vrede Rede Avenue","building":"yes","name":"Your Woermann Vineta","shop":"supermarket"}},
{"type":"Feature","geometry":{"type":"LineString","coordinates":[[13.2736338,-17.4280236],[13.2736577,-17.4279663],[13.2737509,-17.4280017],[13.2737029,-17.4281167],[13.2735469,-17.4280575],[13.273571,-17.4279998],[13.2736338,-17.4280236]]},"properties":{"building":"yes","name":"Shop","shop":"convenience","source":"Bing aerial imagery"}},
{"type":"Feature","geometry":{"type":"LineString","coordinates":[[15.8983023,-17.4703844],[15.8982924,-17.4701942],[15.8982359,-17.4701261],[15.8980646,-17.4701343],[15.8980602,-17.4700492],[15.897874,-17.4700581],[15.8978891,-17.4703471],[15.8981946,-17.4703326],[15.8981976,-17.4703894],[15.8983023,-17.4703844]]},"properties":{"building":"yes","name":"Usave","opening_hours":"Mo-Su 07:00-22:00; Sa 07:00-19:00","shop":"supermarket"}},
{"type":"Feature","geometry":{"type":"LineString","coordinates":[[18.6105205,-17.628934],[18.6108638,-17.6289028],[18.6108667,-17.6289319],[18.6109746,-17.6289221],[18.6109722,-17.6288983],[18.6111371,-17.6288833],[18.6111399,-17.6289109],[18.611279,-17.6288983],[18.6112763,-17.6288718],[18.6113131,-17.6288685],[18.6113032,-17.6287688],[18.6114917,-17.6287519],[18.6114782,-17.6286156],[18.6112827,-17.6286331],[18.6112762,-17.6285673],[18.6110006,-17.628592],[18.6110082,-17.6286692],[18.610934,-17.6286759],[18.6109314,-17.6286497],[18.6108308,-17.6286586],[18.6108391,-17.6287428],[18.6105857,-17.6287654],[18.6105828,-17.6287355],[18.6105018,-17.6287427],[18.6105205,-17.628934]]},"properties":{"addr:city":"Nkurenkuru","building":"yes","name":"PEP","operator":"PEP","phone":"+264 66 258 048","shop":"supermarket","website":"https://www.pepstores.com/"}},
{"type":"Feature","geometry":{"type":"LineString","coordinates":[[18.6113383,-17.630231],[18.6111404,-17.6302942],[18.6112179,-17.6305147],[18.6114158,-17.6304514],[18.6113383,-17.630231]]},"properties":{"addr:city":"Nkurenkuru","building":"yes","name":"Nkurenkuru Supermarket","shop":"supermarket"}},
{"type":"Feature","geometry":{"type":"LineString","coordinates":[[19.7754621,-17.9099089],[19.7747805,-17.910135],[19.77508,-17.9110783],[19.7757926,-17.910849],[19.7754621,-17.9099089]]},"properties":{"amenity":"marketplace","name":"Rundu Open Market"}},
{"type":"Feature","geometry":{"type":"LineString","coordinates":[[19.738383,-17.9185431],[19.7382702,-17.9188751],[19.7378835,-17.9187538],[19.7379985,-17.9184218],[19.738383,-17.9185431]]},"properties":{"amenity":"marketplace","name":"Sauyemwa Open Market"}},
{"type":"Feature","geometry":{"type":"LineString","coordinates":[[18.9787891,-22.4446504],[18.9797434,-22.4446438],[18.9797505,-22.4450322],[18.9787749,-22.4450388],[18.978839,-22.4449466],[18.9787891,-22.4446504]]},"properties":{"addr:city":"Gobabis","addr:country":"NA","addr:province":"Omaheke","opening_hours":"9:00-18:00","shop":"supermarket"}},
{"type":"Feature","geometry":{"type":"LineString","coordinates":[[24.2774234,-17.5007139],[24.2791434,-17.5007301],[24.2791525,-17.5001024],[24.2788935,-17.5000996],[24.278901,-17.4996307],[24.2774216,-17.4996597],[24.2774234,-17.5007139]]},"properties":{"addr:city":"Katima Mulilo","addr:country":"NA","amenity":"marketplace","name":"Open Market"}},
{"type":"Feature","geometry":{"type":"LineString","coordinates":[[15.1553343,-26.644789],[15.1555614,-26.6447467],[15.155579,-26.6448158],[15.1555974,-26.6448878],[15.1556129,-26.6448847],[15.1556434,-26.6448959],[15.1556699,-26.6449045],[15.1557185,-26.6450906],[15.155756,-26.6451127],[15.1557409,-26.6451283],[15.1556811,-26.6450985],[15.1555959,-26.6452479],[15.1554593,-26.6452725],[15.155361,-26.6448922],[15.1553272,-26.6448991],[15.1553088,-26.6448282],[15.1553426,-26.6448212],[15.1553343,-26.644789]]},"properties":{"building":"yes","name":"OK Grocer","shop":"supermarket","source":"bing"}},
{"type":"Feature","geometry":{"type":"LineString","coordinates":[[17.0531061,-22.5415025],[17.0532374,-22.5414826],[17.053257,-22.541593],[17.0531257,-22.5416129],[17.0531061,-22.5415025]]},"properties":{"building":"yes","name":"Flamingo Butchery","opening_hours":"Mo-Sa 07:00-17:00","shop":"butcher"}},
{"type":"Feature","geometry":{"type":"LineString","coordinates":[[13.8423913,-18.0626823],[13.8422391,-18.0629497],[13.8426923,-18.0631828],[13.842743,-18.0630938],[13.8427198,-18.0630818],[13.8427952,-18.0629493],[13.8425472,-18.0628218],[13.8425801,-18.0627639],[13.8425485,-18.0627477],[13.8425684,-18.0627128],[13.8424521,-18.062653],[13.8424253,-18.0626999],[13.8423913,-18.0626823]]},"properties":{"building":"yes","name":"OK Grocer","shop":"supermarket"}},
{"type":"Feature","geometry":{"type":"LineString","coordinates":[[20.5036193,-19.5926699],[20.5037372,-19.5926652],[20.5037417,-19.5927637],[20.5036238,-19.5927684],[20.5036193,-19.5926699]]},"properties":{"building":"yes","shop":"convenience"}},
{"type":"Feature","geometry":{"type":"LineString","coordinates":[[20.5033092,-19.5920304],[20.5033684,-19.5920108],[20.5034133,-19.5921312],[20.5033014,-19.5921683],[20.503275,-19.5920976],[20.5032061,-19.5921204],[20.5031578,-19.5919908],[20.5032795,-19.5919506],[20.5033092,-19.5920304]]},"properties":{"building":"yes","name":"Tsumkwe General Dealer","shop":"convenience"}},
{"type":"Feature","geometry":{"type":"LineString","coordinates":[[18.9271416,-18.7943214],[18.9272442,-18.7942165],[18.9273292,-18.7942909],[18.9273548,-18.7943133],[18.9272522,-18.7944183],[18.9271416,-18.7943214]]},"properties":{"building":"yes","name":"Mururani Shop","shop":"convenience"}},
{"type":"Feature","geometry":{"type":"LineString","coordinates":[[18.7483386,-28.0171416],[18.7483223,-28.0169954],[18.7482964,-28.0169977],[18.7482759,-28.0168138],[18.7484141,-28.0168018],[18.748425,-28.0169],[18.7484774,-28.0168954],[18.7484744,-28.016869],[18.7484668,-28.0167983],[18.7485366,-28.0167924],[18.7485278,-28.0167109],[18.7483526,-28.0167256],[18.7481362,-28.0167425],[18.7480416,-28.016749],[18.7480498,-28.0168429],[18.7480247,-28.0168446],[18.7480487,-28.0171179],[18.7481124,-28.0171613],[18.7483386,-28.0171416]]},"properties":{"addr:city":"Karasburg","addr:housenumber":"81","addr:postcode":"23008","addr:street":"Main Street","brand":"Spar","brand:wikidata":"Q610492","brand:wikipedia":"en:SPAR (retailer)","building":"yes","building:levels":"1","email":"xlspar@iway.na","fax":"+264 63 270 239","name":"Spar","opening_hours":"Mo-Fr 07:30-19:00; Sa 07:30-14:30; Su 08:00-12:00","phone":"+264 63 270 001","shop":"supermarket","source":"https://www.spar.co.za/Home/Store-View/SPAR-Karas-Namibia"}},
{"type":"Feature","geometry":{"type":"LineString","coordinates":[[19.9906051,-22.2827772],[19.9905999,-22.2827619],[19.9905609,-22.2826459],[19.9905845,-22.2826391],[19.9908737,-22.2825556],[19.990918,-22.2826868],[19.9906051,-22.2827772]]},"properties":{"building":"commercial","name":"Eastgate","opening_hours":"Mo-Su 07:00-21:00","shop":"convenience","wheelchair":"limited"}},
{"type":"Feature","geometry":{"type":"LineString","coordinates":[[17.0774953,-22.5814088],[17.077497,-22.5812935],[17.0773342,-22.5812879],[17.0773307,-22.5814051],[17.0774953,-22.5814088]]},"properties":{"building":"yes","check_date":"2024-04-12","name":"Readibytes Meat Shop","shop":"butcher"}},
{"type":"Feature","geometry":{"type":"LineString","coordinates":[[17.0834061,-22.5630565],[17.0840633,-22.5630684],[17.0840471,-22.5638312],[17.0837667,-22.5638262],[17.0837652,-22.5638964],[17.0835758,-22.5638929],[17.0835802,-22.5636842],[17.083511,-22.5636829],[17.0834289,-22.5636815],[17.0833929,-22.5636808],[17.0834061,-22.5630565]]},"properties":{"brand":"Shoprite","brand:wikidata":"Q1857639","building":"yes","check_date":"2023-06-17","name":"Shoprite","shop":"supermarket"}},
{"type":"Feature","geometry":{"type":"LineString","coordinates":[[14.5369541,-22.6408506],[14.5372611,-22.6404093],[14.5380488,-22.6405045],[14.5379884,-22.6406253],[14.5375555,-22.6405672],[14.5372686,-22.6409876],[14.5369541,-22.6408506]]},"properties":{"brand":"Spar","brand:wikidata":"Q610492","brand:wikipedia":"en:SPAR (retailer)","building":"yes","name":"Spar","shop":"supermarket"}},
{"type":"Feature","geometry":{"type":"LineString","coordinates":[[15.7628293,-17.7795647],[15.7626065,-17.7803276],[15.7630888,-17.7804459],[15.763293000000001,-17.779675],[15.7628293,-17.7795647]]},"properties":{"amenity":"marketplace","name":"Ongwediva Open Market"}},
{"type":"Feature","geometry":{"type":"LineString","coordinates":[[18.9828679,-22.4484765],[18.9832243,-22.4484647],[18.983225,-22.4484831],[18.9833168,-22.4484801],[18.9833175,-22.448499],[18.9833699,-22.4484973],[18.9833892,-22.448999],[18.9828887,-22.4490155],[18.9828679,-22.4484765]]},"properties":{"building":"yes","name":"Omaheke Megasave Wholesavers","shop":"supermarket"}},
{"type":"Feature","geometry":{"type":"LineString","coordinates":[[17.083696,-22.571853],[17.0837599,-22.5718286],[17.0837898,-22.5718985],[17.0838587,-22.5718713],[17.0840127,-22.5718151],[17.0841219,-22.5717765],[17.0840417,-22.5715835],[17.0838918,-22.5716366],[17.0837546,-22.5713063],[17.0839169,-22.5712489],[17.0838661,-22.5711266],[17.0833739,-22.5713007],[17.0834246,-22.5714247],[17.0834642,-22.5714161],[17.0834754,-22.5714429],[17.0835128,-22.5714328],[17.083696,-22.571853]]},"properties":{"amenity":"marketplace","building":"yes","building:levels":"5","name":"NamCraft Centre"}},
{"type":"Feature","geometry":{"type":"LineString","coordinates":[[17.051788,-22.5569108],[17.0515498,-22.5566003],[17.0515228,-22.5566025],[17.0515147,-22.5565183],[17.0518756,-22.5564888],[17.0520644,-22.5567021],[17.051788,-22.5569108]]},"properties":{"building":"yes","name":"Park Foods Shopping Mall","shop":"supermarket"}},
{"type":"Feature","geometry":{"type":"LineString","coordinates":[[15.8586179,-21.934823],[15.858878,-21.934908],[15.8587405,-21.93527],[15.8585479,-21.9352071],[15.8585765,-21.9351319],[15.8585089,-21.9351098],[15.8586179,-21.934823]]},"properties":{"brand":"Megasave","brand:wikidata":"Q116520541","building":"yes","name":"Megasave","shop":"supermarket"}},
{"type":"Feature","geometry":{"type":"LineString","coordinates":[[20.5022602,-19.594213],[20.5024045,-19.5942329],[20.5023854,-19.5943559],[20.5022411,-19.594336],[20.5022602,-19.594213]]},"properties":{"building":"yes","name":"Tsumkwe Supermarket","shop":"convenience"}},
{"type":"Feature","geometry":{"type":"LineString","coordinates":[[14.5376548,-22.9515657],[14.5378801,-22.9516317],[14.5378195,-22.951807],[14.5377638,-22.9517907],[14.537744,-22.9518479],[14.5377122,-22.9518385],[14.5377006,-22.9518719],[14.5377682,-22.9518917],[14.5377426,-22.9519657],[14.5375427,-22.9519071],[14.5375868,-22.9517799],[14.5375708,-22.9517503],[14.5375895,-22.9517071],[14.5376056,-22.9517083],[14.5376548,-22.9515657]]},"properties":{"addr:city":"Walvis Bay","addr:postcode":"13014","building":"yes","name":"Oasis","phone":"+264 64 203938","shop":"supermarket"}},
{"type":"Feature","geometry":{"type":"LineString","coordinates":[[14.523163,-22.9500065],[14.5235224,-22.9503746],[14.5229629,-22.9508379],[14.5226034,-22.9504697],[14.523163,-22.9500065]]},"properties":{"addr:city":"Walvis Bay","addr:postcode":"13013","addr:street":"Grand Avenue","building":"yes","name":"WB Cash & Carry","shop":"supermarket"}},
{"type":"Feature","geometry":{"type":"LineString","coordinates":[[14.499436,-22.9579333],[14.4995942,-22.9578126],[14.4998411,-22.9580873],[14.4996309,-22.9582475],[14.4994411,-22.9580364],[14.4994931,-22.9579968],[14.499436,-22.9579333]]},"properties":{"addr:city":"Walvis Bay","addr:postcode":"13013","addr:street":"Sam Nujoma Avenue","brand":"OK Foods","brand:wikidata":"Q116520377","building":"yes","name":"OK Foods","operator":"OK Foods","shop":"supermarket"}},
{"type":"Feature","geometry":{"type":"LineString","coordinates":[[14.5256899,-22.94365],[14.5257809,-22.9436049],[14.52588,-22.9437744],[14.525789,-22.9438195],[14.5256899,-22.94365]]},"properties":{"addr:city":"Walvis Bay","addr:postcode":"13015","addr:street":"Twahangana Street","building":"yes","name":"OK Kuisebmond","not:brand:wikidata":"Q3268010","shop":"convenience"}},
{"type":"Feature","geometry":{"type":"LineString","coordinates":[[20.5092524,-19.5962881],[20.5093061,-19.5960696],[20.5094187,-19.5960936],[20.5094026,-19.5962035],[20.5093745,-19.5961997],[20.509349,-19.5963084],[20.5092524,-19.5962881]]},"properties":{"building":"yes","name":"Ovatelo Bar and OK Market","shop":"convenience"}},
{"type":"Feature","geometry":{"type":"LineString","coordinates":[[20.5092377,-19.5964221],[20.5092538,-19.5963475],[20.5092994,-19.5963576],[20.5092873,-19.5964334],[20.5092377,-19.5964221]]},"properties":{"amenity":"marketplace","building":"yes"}},
{"type":"Feature","geometry":{"type":"LineString","coordinates":[[15.5965664,-21.9829023],[15.5966237,-21.9830425],[15.5967917,-21.9829835],[15.5967344,-21.9828433],[15.5965664,-21.9829023]]},"properties":{"addr:city":"Usakos","building":"yes","shop":"supermarket"}},
{"type":"Feature","geometry":{"type":"LineString","coordinates":[[15.5968782,-21.9836026],[15.5968514,-21.9837376],[15.5969204,-21.9837305],[15.5969089,-21.9837766],[15.596997,-21.9837944],[15.5970429,-21.9836275],[15.5970046,-21.9835849],[15.5968782,-21.9836026]]},"properties":{"addr:city":"Usakos","building":"yes","shop":"supermarket"}},
{"type":"Feature","geometry":{"type":"LineString","coordinates":[[14.861282,-18.9712603],[14.8613826,-18.9712609],[14.8613823,-18.9713034],[14.8612817,-18.9713027],[14.861282,-18.9712603]]},"properties":{"building":"yes","shop":"convenience"}},
{"type":"Feature","geometry":{"type":"LineString","coordinates":[[16.6512799,-20.4620014],[16.6510466,-20.4627652],[16.651668,-20.4629319],[16.6517045,-20.4628123],[16.6517375,-20.4628211],[16.6517691,-20.4627179],[16.651736,-20.462709],[16.6517485,-20.4626683],[16.6517531,-20.4626532],[16.651713,-20.4626424],[16.6517305,-20.4625858],[16.651747,-20.462532],[16.6515733,-20.4624851],[16.6515376,-20.4626011],[16.6514528,-20.4625782],[16.6515289,-20.4623311],[16.6517962,-20.4624033],[16.6518117,-20.4623529],[16.6520002,-20.4624039],[16.6520591,-20.4622128],[16.6517568,-20.462131],[16.6518412,-20.4618575],[16.6515939,-20.4617905],[16.6513818,-20.4617331],[16.651369,-20.4617745],[16.6512119,-20.461732],[16.651172,-20.4617495],[16.6511091,-20.4619556],[16.6512799,-20.4620014]]},"properties":{"addr:housenumber":"9","addr:street":"Hage Geingob Avenue","building":"retail","building:levels":"1","email":"theospar@mweb.com.na","name":"Super Spar","opening_hours":"Mo-Fr 08:00-20:00, Sa 08:00-19:00, Su 08:00-12:00","phone":"+26467303187","roof:levels":"0","shop":"supermarket","website":"https://www.spar.co.za/Home/Store-View/SUPERSPAR-Otjiwarongo-Western-Cape","wheelchair":"yes"}},
{"type":"Feature","geometry":{"type":"LineString","coordinates":[[17.959497,-24.620669],[17.9600522,-24.6207495],[17.9599796,-24.6211634],[17.9594244,-24.621083],[17.959497,-24.620669]]},"properties":{"building":"yes","name":"Spar Mariental","shop":"supermarket"}},
{"type":"Feature","geometry":{"type":"LineString","coordinates":[[17.9581478,-24.6253695],[17.9585528,-24.6254256],[17.9585063,-24.6257028],[17.9581013,-24.6256467],[17.9581478,-24.6253695]]},"properties":{"building":"yes","name":"Hyper Metro Mariental","shop":"supermarket"}},
{"type":"Feature","geometry":{"type":"LineString","coordinates":[[17.9643183,-24.6277632],[17.9643139,-24.6277932],[17.9642435,-24.6277846],[17.9642513,-24.6277359],[17.9639644,-24.6277033],[17.9639759,-24.6276548],[17.9640182,-24.6276584],[17.9640207,-24.6276247],[17.9640517,-24.6274286],[17.9642851,-24.6274522],[17.9643253,-24.6271848],[17.9646091,-24.62722],[17.9645239,-24.6277871],[17.9643183,-24.6277632]]},"properties":{"brand":"Shoprite","brand:wikidata":"Q1857639","brand:wikipedia":"en:Shoprite (South Africa)","building":"yes","name":"Shoprite","shop":"supermarket"}},
{"type":"Feature","geometry":{"type":"LineString","coordinates":[[17.0683808,-22.5609886],[17.0686598,-22.5609281],[17.0686508,-22.5608927],[17.0686321,-22.5608194],[17.0685197,-22.5608438],[17.068513,-22.5608174],[17.0685594,-22.5608073],[17.0685126,-22.5606231],[17.0683352,-22.5606615],[17.0683718,-22.5608057],[17.0684389,-22.5607912],[17.0684478,-22.5608261],[17.0683452,-22.5608484],[17.0683808,-22.5609886]]},"properties":{"addr:city":"Windhoek","addr:street":"Salk Street","building":"retail","check_date":"2023-06-17","name":"Tom Thumb","opening_hours":"Mo-Fr 06:30-21:00; Sa,Su 08:00-21:00","shop":"supermarket"}},
{"type":"Feature","geometry":{"type":"LineString","coordinates":[[17.4528434,-20.5876182],[17.4529877,-20.5875635],[17.4530439,-20.5876936],[17.4528996,-20.5877483],[17.4528434,-20.5876182]]},"properties":{"building":"yes","shop":"supermarket"}},
{"type":"Feature","geometry":{"type":"LineString","coordinates":[[15.8980765,-17.3970286],[15.8966194,-17.3974475],[15.8967642,-17.398116],[15.8961898,-17.3982229],[15.8968856,-17.4006873],[15.8969977,-17.4005848],[15.8972826,-17.399854],[15.8974133,-17.3997381],[15.8975435,-17.3992224],[15.8976666,-17.3987935],[15.8977666,-17.3985109],[15.8979723,-17.3978714],[15.8980048,-17.3976483],[15.8980186,-17.397295],[15.8980376,-17.3972076],[15.8980765,-17.3970286]]},"properties":{"amenity":"marketplace"}},
{"type":"Feature","geometry":{"type":"LineString","coordinates":[[16.3342871,-17.4759022],[16.3347056,-17.4768406],[16.3351571,-17.4767897],[16.3356518,-17.4766713],[16.3351615,-17.4755209],[16.3342871,-17.4759022]]},"properties":{"amenity":"marketplace","name":"Eenhana Open Market"}},
{"type":"Feature","geometry":{"type":"LineString","coordinates":[[16.3328317,-17.4768202],[16.3331034,-17.4767095],[16.3332475,-17.4770314],[16.3329757,-17.477142],[16.3328317,-17.4768202]]},"properties":{"building":"yes","name":"Usave Eenhana","shop":"supermarket"}},
{"type":"Feature","geometry":{"type":"LineString","coordinates":[[17.0838221,-22.5576486],[17.0841284,-22.5576138],[17.0840904,-22.5573285],[17.0838831,-22.557352],[17.0838525,-22.5573268],[17.0837623,-22.5574201],[17.0837953,-22.5574473],[17.0838221,-22.5576486]]},"properties":{"addr:city":"Windhoek","addr:street":"Independence Avenue","building":"yes","check_date":"2023-10-08","name":"OK Foods","opening_hours":"Mo-Fr 07:00-21:00, Sa 08:00-21:00, Su 09:00-20:00, PH 09:00-20:00","operator":"OK Foods","payment:cash":"yes","payment:credit_cards":"yes","shop":"supermarket"}},
{"type":"Feature","geometry":{"type":"LineString","coordinates":[[23.3962078,-17.8219245],[23.3963166,-17.8217367],[23.3964556,-17.8218097],[23.3963468,-17.8219974],[23.3962078,-17.8219245]]},"properties":{"building":"yes","name":"Kaza Kongola","shop":"supermarket"}},
{"type":"Feature","geometry":{"type":"LineString","coordinates":[[17.4635868,-20.5855419],[17.4636259,-20.5858434],[17.4638259,-20.585816],[17.4638357,-20.5858936],[17.4639818,-20.5858741],[17.4639691,-20.5857946],[17.4641517,-20.5857688],[17.4641071,-20.5854765],[17.4635868,-20.5855419]]},"properties":{"addr:city":"Okakarara","addr:postcode":"12005","brand":"Usave","brand:wikidata":"Q115696368","building":"retail","name":"Usave","shop":"supermarket"}},
{"type":"Feature","geometry":{"type":"LineString","coordinates":[[17.0989224,-22.5623492],[17.0990283,-22.5625114],[17.099145,-22.562439],[17.0990448,-22.5622853],[17.0989224,-22.5623492]]},"properties":{"building":"yes","name":"Puma","opening_hours":"24/7","operator":"Puma","shop":"convenience"}},
{"type":"Feature","geometry":{"type":"LineString","coordinates":[[16.5810766,-18.3591631],[16.5805896,-18.3599534],[16.5829263,-18.3619502],[16.5831448,-18.3617214],[16.582721,-18.3606353],[16.5826362,-18.36004],[16.5810766,-18.3591631]]},"properties":{"amenity":"marketplace","name":"Omuthiya Open Market"}},
{"type":"Feature","geometry":{"type":"LineString","coordinates":[[18.0081016,-22.290124],[18.0082357,-22.2902519],[18.008423,-22.2900811],[18.0082845,-22.2899547],[18.0081016,-22.290124]]},"properties":{"building":"yes","shop":"convenience"}},
{"type":"Feature","geometry":{"type":"LineString","coordinates":[[15.965516,-17.8981671],[15.9659196,-17.8975218],[15.9658636,-17.89749],[15.9659472,-17.8973565],[15.9662631,-17.8975358],[15.9661804,-17.8976676],[15.9666258,-17.8979206],[15.9665222,-17.8980856],[15.9660936,-17.8978421],[15.9659356,-17.897895],[15.9657002,-17.8982714],[15.965516,-17.8981671]]},"properties":{"brand":"Pick n Pay","brand:wikidata":"Q7190735","brand:wikipedia":"en:Spar (retailer)","building":"yes","name":"Pick n Pay","shop":"supermarket"}},
{"type":"Feature","geometry":{"type":"LineString","coordinates":[[15.7583094,-17.7586592],[15.758414,-17.75884],[15.7589477,-17.7585603],[15.7594916,-17.7595016],[15.7592327,-17.7596373],[15.7593019,-17.7597569],[15.7599052,-17.7594407],[15.7591876,-17.7581989],[15.7583094,-17.7586592]]},"properties":{"building":"yes","name":"Choppies","opening_hours":"08:00-20:00","shop":"supermarket"}},
{"type":"Feature","geometry":{"type":"LineString","coordinates":[[16.1514688,-20.1060485],[16.15191,-20.106177],[16.1519172,-20.1061212],[16.1519276,-20.1060413],[16.1519931,-20.1055372],[16.1517584,-20.1055498],[16.1514688,-20.1060485]]},"properties":{"building":"supermarket","height":"10","name":"Spar Super Market","shop":"supermarket"}},
{"type":"Feature","geometry":{"type":"LineString","coordinates":[[16.9173993,-21.9835591],[16.9174391,-21.9836476],[16.9170134,-21.9838113],[16.916984,-21.9837453],[16.9170148,-21.9837335],[16.9170031,-21.9837073],[16.9169849,-21.9837143],[16.916929,-21.9835896],[16.9170665,-21.9835366],[16.9170957,-21.9836017],[16.917181,-21.9835688],[16.9172095,-21.9836323],[16.9173993,-21.9835591]]},"properties":{"building":"yes","shop":"butcher"}},
{"type":"Feature","geometry":{"type":"LineString","coordinates":[[17.0221135,-22.5173004],[17.0223155,-22.5174625],[17.0222498,-22.517719],[17.0221841,-22.5179754],[17.0220037,-22.518024],[17.0220057,-22.5178962],[17.0220237,-22.517736],[17.0220652,-22.5175865],[17.0220867,-22.5174167],[17.0221135,-22.5173004]]},"properties":{"addr:city":"Windhoek","addr:street":"Eveline Street","amenity":"marketplace","name":"Eveline Street Market / kapana"}},
{"type":"Feature","geometry":{"type":"LineString","coordinates":[[17.0273944,-22.5473059],[17.0281166,-22.5474296],[17.0281528,-22.547658],[17.0281862,-22.5478768],[17.0282045,-22.5479958],[17.028121,-22.5480143],[17.0275516,-22.5481327],[17.0274428,-22.5475607],[17.0273944,-22.5473059]]},"properties":{"addr:city":"Windhoek","addr:street":"Bonn Street","name":"Dehli Superstore","shop":"supermarket"}},
{"type":"Feature","geometry":{"type":"LineString","coordinates":[[17.0281166,-22.5474296],[17.0283523,-22.5473976],[17.0285038,-22.547379],[17.0285574,-22.5478729],[17.0285641,-22.5479882],[17.0284029,-22.5479667],[17.0282045,-22.5479958],[17.0281862,-22.5478768],[17.0281528,-22.547658],[17.0281166,-22.5474296]]},"properties":{"addr:city":"Windhoek","addr:street":"Delhi Square Street","name":"WB Supermarket Otjomuise","shop":"supermarket"}},
{"type":"Feature","geometry":{"type":"LineString","coordinates":[[16.6626103,-20.466478],[16.6625546,-20.4665698],[16.6628088,-20.4667049],[16.6628644,-20.4666132],[16.6626103,-20.466478]]},"properties":{"building":"yes","name":"Sonnegroet Butchery","shop":"butcher"}},
{"type":"Feature","geometry":{"type":"LineString","coordinates":[[16.5853469,-18.3533176],[16.5857412,-18.353511],[16.5858485,-18.353534],[16.5860215,-18.3535658],[16.5860899,-18.3541946],[16.5857848,-18.354178],[16.5851089,-18.3536415],[16.5853469,-18.3533176]]},"properties":{"amenity":"marketplace"}},
{"type":"Feature","geometry":{"type":"LineString","coordinates":[[17.0673792,-22.5338494],[17.0675161,-22.533658],[17.0676626,-22.5337352],[17.06754,-22.5339414],[17.0675248,-22.5339327],[17.0673792,-22.5338494]]},"properties":{"brand":"Total","brand:wikidata":"Q154037","building":"yes","name":"Total","shop":"convenience"}},
{"type":"Feature","geometry":{"type":"LineString","coordinates":[[17.0555311,-22.5246277],[17.0556038,-22.5248109],[17.0558882,-22.5247146],[17.0557245,-22.5245622],[17.0555311,-22.5246277]]},"properties":{"addr:city":"Windhoek","addr:street":"Johannes Tuejijama Street","building":"yes","name":"OneTau Meat","operator":"One Tau Investments","shop":"butcher","website":"https://onetauinvestments.com"}},
{"type":"Feature","geometry":{"type":"LineString","coordinates":[[17.0511218,-22.5245825],[17.050841,-22.5251476],[17.0507864,-22.5252626],[17.0507728,-22.5252914],[17.0520028,-22.5258366],[17.0521317,-22.5256225],[17.0521505,-22.5255803],[17.0521632,-22.5255345],[17.0521679,-22.5254986],[17.0521652,-22.5254602],[17.0521558,-22.5254273],[17.052133,-22.5253964],[17.0520204,-22.5252465],[17.0518401,-22.5250264],[17.0517092,-22.5248655],[17.0516623,-22.5248216],[17.0516335,-22.5248048],[17.0514953,-22.524746],[17.0511218,-22.5245825]]},"properties":{"amenity":"marketplace","name":"Herero Mall Market"}},
{"type":"Feature","geometry":{"type":"LineString","coordinates":[[17.0486374,-22.529642],[17.0485828,-22.5297593],[17.0487801,-22.5298376],[17.0488347,-22.5297204],[17.0486374,-22.529642]]},"properties":{"building":"yes","name":"Zarde","shop":"supermarket"}},
{"type":"Feature","geometry":{"type":"LineString","coordinates":[[17.0502254,-22.5266004],[17.0503317,-22.5266465],[17.0502772,-22.5267538],[17.050205,-22.5267225],[17.0502353,-22.5266629],[17.0502012,-22.5266481],[17.0502254,-22.5266004]]},"properties":{"building":"yes","name":"Otjandje Butchery","shop":"butcher","website":"http://www.otjandje.com/"}},
{"type":"Feature","geometry":{"type":"LineString","coordinates":[[16.664995,-20.4645705],[16.6652861,-20.4647548],[16.6654816,-20.4644838],[16.6653294,-20.4643874],[16.6652242,-20.4645333],[16.6650853,-20.4644453],[16.664995,-20.4645705]]},"properties":{"addr:city":"Otjiwarongo","addr:street":"Dr. Libertina Amathila Avenue","building":"yes","name":"SaveMor Orwetoveni","operator":"SPAR","shop":"supermarket"}},
{"type":"Feature","geometry":{"type":"LineString","coordinates":[[19.7708993,-17.9291192],[19.7709605,-17.9291215],[19.770952,-17.9293305],[19.7709459,-17.9294798],[19.7708846,-17.9294775],[19.7708993,-17.9291192]]},"properties":{"addr:city":"Rundu","addr:street":"Eugene Kakururu Street","building":"yes","email":"info@kwsnamibia.com","name":"Klein Windhoek Schlachterei","opening_hours":"Mo-Fr 08:00-12:00, 13:00-18:00; Sa 08:00-13:00","operator":"Klein Windhoek Schlachterei","phone":"+264 61 261 499","shop":"butcher","website":"https://kwsnamibia.com/","wikidata":"Q67197237"}},