{"type":"FeatureCollection","features":[
{"type":"Feature","geometry":{"type":"Point","coordinates":[2.1169684,13.5070277]},"properties":{"name":"Marina Market","shop":"supermarket"}},
{"type":"Feature","geometry":{"type":"Point","coordinates":[2.1111688,13.5132987]},"properties":{"name":"Haddad Khalil","shop":"supermarket"}},
{"type":"Feature","geometry":{"type":"Point","coordinates":[0.7608179,14.0048332]},"properties":{"source":"Microsoft Bing satellite imagery 2012"}},
{"type":"Feature","geometry":{"type":"Point","coordinates":[0.7596705,14.0050685]},"properties":{"source":"Microsoft Bing satellite imagery 2012"}},
{"type":"Feature","geometry":{"type":"Point","coordinates":[0.760879,14.0058062]},"properties":{"source":"Microsoft Bing satellite imagery 2012"}},
{"type":"Feature","geometry":{"type":"Point","coordinates":[0.759862,14.0059307]},"properties":{"source":"Microsoft Bing satellite imagery 2012"}},
{"type":"Feature","geometry":{"type":"Point","coordinates":[13.310057,13.7005449]},"properties":{"amenity":"marketplace"}},
{"type":"Feature","geometry":{"type":"Point","coordinates":[2.0845144,13.5338115]},"properties":{"name":"Boulangerie Dady","project:mappingforniger":"yes","shop":"bakery","source":"survey"}},
{"type":"Feature","geometry":{"type":"Point","coordinates":[3.1951285,13.0483032]},"properties":{"amenity":"marketplace","project:mappingforniger":"yes","source":"survey"}},
{"type":"Feature","geometry":{"type":"Point","coordinates":[3.0800053,13.0729442]},"properties":{"amenity":"marketplace","name":"Marché","project":"mappingforniger","source":"survey"}},
{"type":"Feature","geometry":{"type":"Point","coordinates":[2.8501934,13.1025526]},"properties":{"amenity":"marketplace","project":"mappingforniger","source":"survey"}},
{"type":"Feature","geometry":{"type":"Point","coordinates":[2.6869213,13.2306365]},"properties":{"addr:city":"Kodo","addr:district":"Fakara","addr:place":"Kodo","amenity":"marketplace","marketplace:status":"formal","name":"Marche de Kodo","opening_hours":"Su 8:00-19:00","operator:type":"government","ownership":"market union","project":"mappingforniger","source":"WNA Hub - Ruwa Niger project"}},
{"type":"Feature","geometry":{"type":"Point","coordinates":[3.1970879,13.0461758]},"properties":{"amenity":"marketplace","name":"habou keyna","project:mappingforniger":"yes","source":"survey"}},
{"type":"Feature","geometry":{"type":"Point","coordinates":[3.4567193,11.8899938]},"properties":{"name":"Alimentation Firdaoussi","project:mappingforniger":"yes","shop":"convenience","source":"survey"}},
{"type":"Feature","geometry":{"type":"Point","coordinates":[3.7226786,12.8953404]},"properties":{"amenity":"marketplace","name":"Marché de Lido","project":"mappingforniger","source":"survey"}},
{"type":"Feature","geometry":{"type":"Point","coordinates":[3.4513621,12.9595756]},"properties":{"amenity":"marketplace","name":"Marché de Touraben","project":"mappingforniger","source":"survey"}},
{"type":"Feature","geometry":{"type":"Point","coordinates":[3.4620823,11.8948435]},"properties":{"name":"Alimentation","project:mappingforniger":"yes","shop":"convenience","source":"survey"}},
{"type":"Feature","geometry":{"type":"Point","coordinates":[3.4624208,11.8954258]},"properties":{"name":"boulangérie","project:mappingforniger":"yes","shop":"bakery","source":"survey"}},
{"type":"Feature","geometry":{"type":"Point","coordinates":[5.9661704,14.0662561]},"properties":{"name":"Abattoire Traditionnelle de Madaoua","project:mappingforniger":"yes","shop":"butcher","source":"survey"}},
{"type":"Feature","geometry":{"type":"Point","coordinates":[5.9593252,14.0727635]},"properties":{"amenity":"marketplace","name":"Grand marché de Madaoua","project:mappingforniger":"yes","source":"survey"}},
{"type":"Feature","geometry":{"type":"Point","coordinates":[5.977654,14.054713]},"properties":{"amenity":"marketplace","name":"Marché Bétail de Tounfafi","project:mappingforniger":"yes","source":"survey"}},
{"type":"Feature","geometry":{"type":"Point","coordinates":[5.9857802,14.0454125]},"properties":{"amenity":"marketplace","name":"Marché hebdomadaire de Tounfafi","project:mappingforniger":"yes","source":"survey"}},
{"type":"Feature","geometry":{"type":"Point","coordinates":[8.9863885,13.8068897]},"properties":{"name":"CFAO","project:pdevii":"yes","shop":"supermarket","source":"survey"}},
{"type":"Feature","geometry":{"type":"Point","coordinates":[5.5186433,14.6970926]},"properties":{"amenity":"marketplace","name":"Marché de Samo","project:mappingforniger":"yes","source":"survey","survey:date":"2013-09-29"}},
{"type":"Feature","geometry":{"type":"Point","coordinates":[8.9794429,13.8158208]},"properties":{"name":"Boulangerie La Racine","project:pdevii":"yes","shop":"bakery","source":"survey","survey:date":"2016-07-16"}},
{"type":"Feature","geometry":{"type":"Point","coordinates":[5.9628283,14.0758994]},"properties":{"amenity":"marketplace","name":"Kassouar Kassa","project:mappingforniger":"yes","source":"survey"}},
{"type":"Feature","geometry":{"type":"Point","coordinates":[5.9630477,14.0761288]},"properties":{"name":"Gobir Toudou Boutique I","project:mappingforniger":"yes","shop":"convenience","source":"knowledge"}},
{"type":"Feature","geometry":{"type":"Point","coordinates":[12.980069,13.9780289]},"properties":{"amenity":"marketplace"}},
{"type":"Feature","geometry":{"type":"Point","coordinates":[13.1736519,13.882328]},"properties":{"amenity":"marketplace"}},
{"type":"Feature","geometry":{"type":"Point","coordinates":[13.2000647,13.8428555]},"properties":{"amenity":"marketplace"}},
{"type":"Feature","geometry":{"type":"Point","coordinates":[4.0282008,13.6419568]},"properties":{"amenity":"marketplace","name":"Marché de Dogondoutchi","name:fr":"Marché de Dogondoutchi","name:ha":"Hasuwar Dogondoutsi","source":"bing;knowledge"}},
{"type":"Feature","geometry":{"type":"Point","coordinates":[4.0039234,13.7667599]},"properties":{"amenity":"marketplace","name":"Marché Hebdomadaire de Matankari","name:en":"Matankari Weekly Market","opening_hours":"Su 07:00-20:00"}},
{"type":"Feature","geometry":{"type":"Point","coordinates":[5.9059246,14.1376321]},"properties":{"amenity":"marketplace","name":"marché hebdomadaire de Azérori","source":"survey","survey:date":"2014-01-03"}},
{"type":"Feature","geometry":{"type":"Point","coordinates":[5.3127739,14.0114551]},"properties":{"amenity":"marketplace","name":"Marché de Guidan Idder","project:mappingforniger":"yes","source":"survey"}},
{"type":"Feature","geometry":{"type":"Point","coordinates":[4.0322042,13.6308963]},"properties":{"amenity":"marketplace","name":"Marché de Hebdomadaire de Doutchi","opening_hours":"Fr 07:00-17:00"}},
{"type":"Feature","geometry":{"type":"Point","coordinates":[2.1179838,13.529775]},"properties":{"amenity":"marketplace","name":"Marché de Boukoki","opening_hours":"PH,Mo-Su 08:00-18:00","wheelchair":"yes"}},
{"type":"Feature","geometry":{"type":"Point","coordinates":[2.1176183,13.524251]},"properties":{"amenity":"marketplace","name":"Marché de Katako"}},
{"type":"Feature","geometry":{"type":"Point","coordinates":[4.0026129,13.7662372]},"properties":{"amenity":"marketplace","name":"Tourakou"}},
{"type":"Feature","geometry":{"type":"Point","coordinates":[2.1475437,13.513865]},"properties":{"name":"Wadata","name:ar":"واداتا","place":"neighbourhood","shop":"convenience","wikidata":"Q65034986","wikipedia":"de:Wadata (Niamey)"}},
{"type":"Feature","geometry":{"type":"Point","coordinates":[5.2633363,14.8915567]},"properties":{"shop":"butcher"}},
{"type":"Feature","geometry":{"type":"Point","coordinates":[2.076658,13.5044424]},"properties":{"shop":"butcher","source":"survey"}},
{"type":"Feature","geometry":{"type":"Point","coordinates":[2.0774321,13.5063234]},"properties":{"shop":"butcher","source":"survery"}},
{"type":"Feature","geometry":{"type":"Point","coordinates":[2.0982042,13.4894492]},"properties":{"name":"S M","phone":"20315011","shop":"supermarket","source":"survery"}},
{"type":"Feature","geometry":{"type":"Point","coordinates":[2.0971913,13.488177]},"properties":{"name":"Mounkaila Djibo","phone":"96032679","shop":"supermarket","source":"survery"}},
{"type":"Feature","geometry":{"type":"Point","coordinates":[2.1047628,13.4857537]},"properties":{"name":"Ets Zarmaganda","shop":"convenience","source":"survey"}},
{"type":"Feature","geometry":{"type":"Point","coordinates":[2.0978333,13.4926046]},"properties":{"name":"Carrefour marquet","not:brand:wikidata":"Q217599","shop":"supermarket","source":"survery"}},
{"type":"Feature","geometry":{"type":"Point","coordinates":[2.1132961,13.4820441]},"properties":{"name":"Salifou","shop":"convenience","source":"survey"}},
{"type":"Feature","geometry":{"type":"Point","coordinates":[2.106915,13.4845439]},"properties":{"shop":"convenience","source":"survey"}},
{"type":"Feature","geometry":{"type":"Point","coordinates":[2.1138298,13.4802813]},"properties":{"shop":"convenience","source":"survey"}},
{"type":"Feature","geometry":{"type":"Point","coordinates":[2.1129747,13.480798]},"properties":{"shop":"convenience","source":"survey"}},
{"type":"Feature","geometry":{"type":"Point","coordinates":[2.1128731,13.4808649]},"properties":{"shop":"convenience","source":"survey"}},
{"type":"Feature","geometry":{"type":"Point","coordinates":[2.1128481,13.4808792]},"properties":{"shop":"convenience","source":"survey"}},
{"type":"Feature","geometry":{"type":"Point","coordinates":[2.1128001,13.4809107]},"properties":{"shop":"convenience","source":"survey"}},
{"type":"Feature","geometry":{"type":"Point","coordinates":[2.1120952,13.4812874]},"properties":{"shop":"convenience","source":"survey"}},
{"type":"Feature","geometry":{"type":"Point","coordinates":[2.1112712,13.4820986]},"properties":{"shop":"convenience","source":"survey"}},
{"type":"Feature","geometry":{"type":"Point","coordinates":[2.1100804,13.4824689]},"properties":{"shop":"convenience","source":"survey"}},
{"type":"Feature","geometry":{"type":"Point","coordinates":[2.1098405,13.4828854]},"properties":{"shop":"convenience","source":"survey"}},
{"type":"Feature","geometry":{"type":"Point","coordinates":[2.108747,13.4835281]},"properties":{"shop":"convenience","source":"survey"}},
{"type":"Feature","geometry":{"type":"Point","coordinates":[2.1077177,13.483663]},"properties":{"shop":"convenience","source":"survey"}},
{"type":"Feature","geometry":{"type":"Point","coordinates":[2.1077624,13.4837143]},"properties":{"shop":"convenience","source":"survey"}},
{"type":"Feature","geometry":{"type":"Point","coordinates":[2.1063129,13.48473]},"properties":{"shop":"convenience","source":"survey"}},
{"type":"Feature","geometry":{"type":"Point","coordinates":[2.1062814,13.4847406]},"properties":{"shop":"convenience","source":"survey"}},
{"type":"Feature","geometry":{"type":"Point","coordinates":[2.0833866,13.5284459]},"properties":{"name":"Hajj Market","shop":"supermarket","source":"survery"}},
{"type":"Feature","geometry":{"type":"Point","coordinates":[2.071319,13.5417757]},"properties":{"name":"Boulangerie SYMPEX route Tillabery","shop":"bakery"}},
{"type":"Feature","geometry":{"type":"Point","coordinates":[2.0681593,13.5403319]},"properties":{"name":"Alimentation Djado","shop":"supermarket"}},
{"type":"Feature","geometry":{"type":"Point","coordinates":[2.0649783,13.5418403]},"properties":{"name":"Alimentation le Diament","shop":"supermarket"}},
{"type":"Feature","geometry":{"type":"Point","coordinates":[2.1173037,13.5548565]},"properties":{"amenity":"marketplace","name":"Marché de Lazaret"}},
{"type":"Feature","geometry":{"type":"Point","coordinates":[2.0963713,13.4905441]},"properties":{"name":"Commerce General Ancien Cinéma Harobanda","project:pdevii":"yes","shop":"convenience","source":"survey"}},
{"type":"Feature","geometry":{"type":"Point","coordinates":[2.0951921,13.4906153]},"properties":{"name":"Boulangérie Banga Bana","phone":"20753751","shop":"bakery"}},
{"type":"Feature","geometry":{"type":"Point","coordinates":[2.1113707,13.5163904]},"properties":{"name":"Boulangerie Petit Marché","shop":"bakery"}},
{"type":"Feature","geometry":{"type":"Point","coordinates":[2.0961979,13.5218971]},"properties":{"level":"0","name":"Baklini","opening_hours":"Mo-Su 06:00-24:00","shop":"supermarket"}},
{"type":"Feature","geometry":{"type":"Point","coordinates":[2.0784315,13.5448967]},"properties":{"shop":"supermarket","source":"survey"}},
{"type":"Feature","geometry":{"type":"Point","coordinates":[5.9580625,14.070208]},"properties":{"shop":"bakery"}},
{"type":"Feature","geometry":{"type":"Point","coordinates":[3.2009837,13.0425418]},"properties":{"name":"Boulangerie Moderne","shop":"bakery"}},
{"type":"Feature","geometry":{"type":"Point","coordinates":[3.1974754,13.0515781]},"properties":{"name":"Mouderne","shop":"bakery"}},
{"type":"Feature","geometry":{"type":"Point","coordinates":[3.206957,13.0401423]},"properties":{"shop":"butcher"}},
{"type":"Feature","geometry":{"type":"Point","coordinates":[3.2082294,13.0425241]},"properties":{"shop":"butcher"}},
{"type":"Feature","geometry":{"type":"Point","coordinates":[3.2109247,13.049273]},"properties":{"amenity":"marketplace","name":"Marché Légume"}},
{"type":"Feature","geometry":{"type":"Point","coordinates":[3.2078436,13.0558749]},"properties":{"shop":"butcher"}},
{"type":"Feature","geometry":{"type":"Point","coordinates":[3.2054813,13.0505863]},"properties":{"shop":"butcher"}},
{"type":"Feature","geometry":{"type":"Point","coordinates":[2.1122393,13.5516757]},"properties":{"name":"Super Marché HD","shop":"supermarket"}},
{"type":"Feature","geometry":{"type":"Point","coordinates":[2.1384988,13.5376571]},"properties":{"amenity":"marketplace","name":"Marché Bonkaney"}},
{"type":"Feature","geometry":{"type":"Point","coordinates":[2.1277183,13.5461834]},"properties":{"name":"Boulangerie Cité Caisse","name:fr":"Boulangerie Cité Caisse","opening_hours":"PH,Mo-Su 06:00-22:00+","shop":"bakery"}},
{"type":"Feature","geometry":{"type":"Point","coordinates":[2.1044516,13.4866232]},"properties":{"shop":"convenience","source":"survey"}},
{"type":"Feature","geometry":{"type":"Point","coordinates":[2.1044252,13.4866454]},"properties":{"shop":"convenience","source":"survey"}},
{"type":"Feature","geometry":{"type":"Point","coordinates":[2.1043194,13.4867171]},"properties":{"shop":"convenience","source":"survey"}},
{"type":"Feature","geometry":{"type":"Point","coordinates":[2.1042695,13.4867449]},"properties":{"shop":"convenience","source":"survey"}},
{"type":"Feature","geometry":{"type":"Point","coordinates":[2.1041058,13.4868201]},"properties":{"shop":"convenience","source":"survey"}},
{"type":"Feature","geometry":{"type":"Point","coordinates":[2.1040887,13.486895]},"properties":{"shop":"convenience","source":"survey"}},
{"type":"Feature","geometry":{"type":"Point","coordinates":[2.1041108,13.4869279]},"properties":{"shop":"convenience","source":"survey"}},
{"type":"Feature","geometry":{"type":"Point","coordinates":[2.1041358,13.4869761]},"properties":{"shop":"convenience","source":"survey"}},
{"type":"Feature","geometry":{"type":"Point","coordinates":[2.1042256,13.4871133]},"properties":{"shop":"convenience","source":"survey"}},
{"type":"Feature","geometry":{"type":"Point","coordinates":[7.1076186,13.4943543]},"properties":{"entrance":"yes"}},
{"type":"Feature","geometry":{"type":"Point","coordinates":[7.1094385,13.494719]},"properties":{"entrance":"yes"}},
{"type":"Feature","geometry":{"type":"Point","coordinates":[7.1071086,13.4968933]},"properties":{"entrance":"yes"}},
{"type":"Feature","geometry":{"type":"Point","coordinates":[7.1089187,13.4972386]},"properties":{"entrance":"yes"}},
{"type":"Feature","geometry":{"type":"Point","coordinates":[7.1246447,13.49147]},"properties":{"indoor_seating":"yes","name":"Boulangerie Plaza","opening_hours":"24/7","outdoor_seating":"no","payment:credit_cards":"no","payment:debit_cards":"no","project:pdevii":"yes","shop":"bakery","smoking":"no","source":"survey","wheelchair":"yes"}},
{"type":"Feature","geometry":{"type":"Point","coordinates":[7.1033604,13.5159231]},"properties":{"amenity":"marketplace","name":"Kasouwa Matta"}},
{"type":"Feature","geometry":{"type":"Point","coordinates":[7.1044371,13.5264134]},"properties":{"name":"Niger lait SA","shop":"convenience"}},
{"type":"Feature","geometry":{"type":"Point","coordinates":[7.0999879,13.5316434]},"properties":{"amenity":"fuel","brand":"Station Oriba","compressed_air":"no","fuel:diesel":"yes","name":"Oriba","shop":"convenience","source":"survey"}},
{"type":"Feature","geometry":{"type":"Point","coordinates":[7.0975,13.5345978]},"properties":{"amenity":"fuel","compressed_air":"no","fuel:diesel":"yes","name":"Mabourouk","shop":"convenience","source":"survey"}},
{"type":"Feature","geometry":{"type":"Point","coordinates":[7.0661436,13.5737808]},"properties":{"amenity":"marketplace"}},
{"type":"Feature","geometry":{"type":"Point","coordinates":[6.4824439,13.7366518]},"properties":{"amenity":"marketplace","name":"Marché de Mortiere"}},
{"type":"Feature","geometry":{"type":"Point","coordinates":[5.3421766999999999,13.8888129]},"properties":{"amenity":"fuel","fuel:diesel":"yes","name":"Sahara","shop":"convenience","source":"survey"}},
{"type":"Feature","geometry":{"type":"Point","coordinates":[1.7995826,13.1195918]},"properties":{"amenity":"marketplace"}},
{"type":"Feature","geometry":{"type":"Point","coordinates":[2.0801054,13.5027705]},"properties":{"shop":"butcher","source":"survey"}},
{"type":"Feature","geometry":{"type":"Point","coordinates":[2.0796201,13.5031049]},"properties":{"shop":"butcher","source":"survey"}},
{"type":"Feature","geometry":{"type":"Point","coordinates":[2.0842425,13.4960493]},"properties":{"shop":"butcher"}},
{"type":"Feature","geometry":{"type":"Point","coordinates":[4.0463799,13.8490386]},"properties":{"amenity":"marketplace","name":"Marché de Mercredi"}},
{"type":"Feature","geometry":{"type":"Point","coordinates":[2.1170706,13.5186435]},"properties":{"amenity":"marketplace","name":"Marché Coulbagou Haoussa"}},
{"type":"Feature","geometry":{"type":"Point","coordinates":[7.9899254,16.9758974]},"properties":{"amenity":"marketplace","name":"Rotch Marche de Nuit","project:pdevii":"yes"}},
{"type":"Feature","geometry":{"type":"Point","coordinates":[7.9913651,16.9730023]},"properties":{"name":"Maison de boulange Esalé","project:pdevii":"yes","shop":"bakery","source":"survey"}},
{"type":"Feature","geometry":{"type":"Point","coordinates":[7.991471,16.9739085]},"properties":{"amenity":"marketplace","name":"Marche Gari (Kassouwa Gari)","project:pdevii":"yes"}},
{"type":"Feature","geometry":{"type":"Point","coordinates":[7.975036,16.958677]},"properties":{"date":"25/02/2015","name":"Boulangerie Mousrata","project:pdevii":"yes","shop":"bakery","source":"survey"}},
{"type":"Feature","geometry":{"type":"Point","coordinates":[7.9784352,16.970753]},"properties":{"amenity":"marketplace","date":"25/02/2015","name":"Marche de Bétaille","project:pdevii":"yes","source":"survey"}},
{"type":"Feature","geometry":{"type":"Point","coordinates":[5.2523358,13.7936183]},"properties":{"amenity":"marketplace","name":"GRAND MARCHE KONNI"}},
{"type":"Feature","geometry":{"type":"Point","coordinates":[2.1119264,13.5543602]},"properties":{"name":"Alimentation Générale GH","shop":"supermarket"}},
{"type":"Feature","geometry":{"type":"Point","coordinates":[2.11182,13.5547491]},"properties":{"name":"Alimentation Générale","opening_hours":"Mo-Su 08:00-23:00","phone":"99225686","shop":"supermarket"}},
{"type":"Feature","geometry":{"type":"Point","coordinates":[2.1111797,13.5624138]},"properties":{"name":"Boulangérie-Patisserie Cité Chinoise","phone":"+227 98504849","shop":"bakery"}},
{"type":"Feature","geometry":{"type":"Point","coordinates":[2.1111149,13.5629701]},"properties":{"name":"Patisserie Rayan","shop":"bakery"}},
{"type":"Feature","geometry":{"type":"Point","coordinates":[2.1110168,13.5638626]},"properties":{"name":"Alimentation Cité Chinoise","shop":"supermarket"}},
{"type":"Feature","geometry":{"type":"Point","coordinates":[2.1107814,13.5672094]},"properties":{"name":"Alimentation Générale","shop":"supermarket"}},
{"type":"Feature","geometry":{"type":"Point","coordinates":[2.1155674,13.5750685]},"properties":{"shop":"supermarket"}},
{"type":"Feature","geometry":{"type":"Point","coordinates":[2.1164594,13.5284648]},"properties":{"shop":"supermarket"}},
{"type":"Feature","geometry":{"type":"Point","coordinates":[2.0978129,13.5245073]},"properties":{"name":"Les Délices","shop":"bakery"}},
{"type":"Feature","geometry":{"type":"Point","coordinates":[2.081083,13.5312882]},"properties":{"shop":"supermarket"}},
{"type":"Feature","geometry":{"type":"Point","coordinates":[2.1331643,13.5049005]},"properties":{"name":"Super Mini Market Le Régal","project:pdevii":"yes","shop":"supermarket","source":"survey"}},
{"type":"Feature","geometry":{"type":"Point","coordinates":[2.1158969,13.5217594]},"properties":{"name":"Boulangerie du Kassai","shop":"bakery"}},
{"type":"Feature","geometry":{"type":"Point","coordinates":[7.1119735,13.4849183]},"properties":{"name":"Alimentation Generale AZ","shop":"convenience","source":"survey"}},
{"type":"Feature","geometry":{"type":"Point","coordinates":[7.105191,13.49113]},"properties":{"shop":"bakery"}},
{"type":"Feature","geometry":{"type":"Point","coordinates":[7.1096995,13.4938678]},"properties":{"name":"Etablissement Hadadad Khalil","shop":"supermarket"}},
{"type":"Feature","geometry":{"type":"Point","coordinates":[7.1085471,13.4944786]},"properties":{"entrance":"yes"}},
{"type":"Feature","geometry":{"type":"Point","coordinates":[1.5686158,13.8583937]},"properties":{"amenity":"marketplace","name":"Marché de Gothèye","organic":"yes"}},
{"type":"Feature","geometry":{"type":"Point","coordinates":[2.0810918,13.4920518]},"properties":{"addr:postcode":"28501","name":"Boulangérie Banga Bana","phone":"96 96 70 96/ 94 94 70 94","project:pdevii":"yes","shop":"bakery","source":"survey"}},
{"type":"Feature","geometry":{"type":"Point","coordinates":[2.0900339,13.4907045]},"properties":{"name":"Boutique Riz Nigerien","phone":"20 73 72 47 / 20 73 64 71","project:pdevii":"yes","shop":"convenience","source":"survey"}},
{"type":"Feature","geometry":{"type":"Point","coordinates":[2.092308,13.4871883]},"properties":{"project:pdevii":"yes","shop":"butcher","source":"survey"}},
{"type":"Feature","geometry":{"type":"Point","coordinates":[9.2911695,13.3652593]},"properties":{"amenity":"marketplace","name":"marché","place":"marché","project:pdevii":"yes","source":"bing"}},
{"type":"Feature","geometry":{"type":"Point","coordinates":[7.9900921,16.9704173]},"properties":{"name":"Patisserie Madara Rahama","project:pdevii":"yes","shop":"bakery","source":"survey","survey:date":"2016-04-14"}},
{"type":"Feature","geometry":{"type":"Point","coordinates":[12.4228018,13.2048003]},"properties":{"amenity":"marketplace"}},
{"type":"Feature","geometry":{"type":"Point","coordinates":[12.4230608,13.1846579]},"properties":{"amenity":"marketplace"}},
{"type":"Feature","geometry":{"type":"Point","coordinates":[2.139163,13.5101759]},"properties":{"name":"Centre de Commerce et de Loisirs Zabarkan","shop":"supermarket"}},
{"type":"Feature","geometry":{"type":"Point","coordinates":[2.1361932,13.5084263]},"properties":{"name":"Boulangerie Poudrière","shop":"bakery"}},
{"type":"Feature","geometry":{"type":"Point","coordinates":[8.9761043,13.7998422]},"properties":{"fair_trade":"ONG Sahara Sahel Foods","project:pdevii":"yes","shop":"convenience","source":"survey"}},
{"type":"Feature","geometry":{"type":"Point","coordinates":[8.9842865,13.8086638]},"properties":{"name":"Boulangerie Albarka","name:ar":"مخبزة البركة","phone":"00227 96 47 48 66/96 08 59 50","project:pdevii":"yes","shop":"bakery","source":"survey"}},
{"type":"Feature","geometry":{"type":"Point","coordinates":[8.9857444,13.8091731]},"properties":{"name":"Boulangerie de l'Espoir","phone":"00227 91 45 43 96","project:pdevii":"yes","shop":"bakery","source":"survey"}},
{"type":"Feature","geometry":{"type":"Point","coordinates":[8.9928603,13.8063159]},"properties":{"name":"Boulangerie du Grand Marché","project:pdevii":"yes","shop":"bakery","source":"survey"}},
{"type":"Feature","geometry":{"type":"Point","coordinates":[8.996856,13.8007939]},"properties":{"name":"Boulangerie la Racine","name:ar":"مخبز الجذر","project:pdevii":"yes","shop":"bakery","source":"survey"}},
{"type":"Feature","geometry":{"type":"Point","coordinates":[8.9932733,13.8057103]},"properties":{"amenity":"marketplace","name":"Marché Sabon Gari","project:pdevii":"yes","source":"survey"}},
{"type":"Feature","geometry":{"type":"Point","coordinates":[8.9869364,13.8131227]},"properties":{"name":"Kantin Sauki Quincaillerie et Divers","project:pdevii":"yes","shop":"supermarket","source":"survey"}},
{"type":"Feature","geometry":{"type":"Point","coordinates":[9.0104157,13.8020277]},"properties":{"amenity":"marketplace","name":"Marché aux Bétail","project:pdevii":"yes","source":"survey"}},
{"type":"Feature","geometry":{"type":"Point","coordinates":[8.9736547,13.8107228]},"properties":{"name":"Alimentation Génerale Alhayat","project:pdevii":"yes","shop":"convenience","source":"survey"}},
{"type":"Feature","geometry":{"type":"Point","coordinates":[8.979986,13.8110213]},"properties":{"name":"Kantin Chara","project:pdevii":"yes","shop":"convenience","source":"survey"}},
{"type":"Feature","geometry":{"type":"Point","coordinates":[8.9681135,13.8105811]},"properties":{"amenity":"marketplace","name":"Place du Marché Adour Ba Ni Biyé","project:pdevii":"yes","source":"survey"}},
{"type":"Feature","geometry":{"type":"Point","coordinates":[8.9744631,13.8109485]},"properties":{"amenity":"marketplace","name":"Marché Kwalliya","project:pdevii":"yes","source":"survey"}},
{"type":"Feature","geometry":{"type":"Point","coordinates":[8.994255,13.8068553]},"properties":{"name":"Etablissement Elhadji Nourrou Commerce General","project:pdevii":"yes","shop":"convenience","source":"survey"}},
{"type":"Feature","geometry":{"type":"Point","coordinates":[8.9935672,13.8064485]},"properties":{"name":"Etablissement General Moukailou Import-Export","project:pdevii":"yes","shop":"convenience","source":"survey"}},
{"type":"Feature","geometry":{"type":"Point","coordinates":[8.9965127,13.8082087]},"properties":{"name":"Etablissement kimba Hamani Commerce general","shop":"convenience","source":"survey"}},
{"type":"Feature","geometry":{"type":"Point","coordinates":[8.9955622,13.8076355]},"properties":{"amenity":"marketplace","name":"Nouveau Marché Habou Joujou","project:pdevii":"yes","source":"survey"}},
{"type":"Feature","geometry":{"type":"Point","coordinates":[7.1286048,13.4917397]},"properties":{"project:pdevii":"yes","shop":"convenience","source":"survey"}},
{"type":"Feature","geometry":{"type":"Point","coordinates":[7.1244628,13.491438]},"properties":{"name":"Supermarché PLAZA","project:pdevii":"yes","shop":"supermarket","source":"survey"}},
{"type":"Feature","geometry":{"type":"Point","coordinates":[7.1223058,13.4780218]},"properties":{"name":"Boutique Hamdala Tanimoune Amadou","project:pdevii":"yes","shop":"convenience","source":"survey"}},
{"type":"Feature","geometry":{"type":"Point","coordinates":[7.1119938,13.4948219]},"properties":{"name":"Alimentation City Market","project:pdevii":"yes","shop":"supermarket","source":"survey"}},
{"type":"Feature","geometry":{"type":"Point","coordinates":[7.1089694,13.4942448]},"properties":{"name":"Société de Vente de Cube Doli","shop":"convenience"}},
{"type":"Feature","geometry":{"type":"Point","coordinates":[7.1197545,13.4931432]},"properties":{"name":"Boulangerie Delas","project:pdevii":"yes","shop":"bakery","source":"survey"}},
{"type":"Feature","geometry":{"type":"Point","coordinates":[7.1080069,13.4941208]},"properties":{"name":"Ets. Saguirou Moussa Kalla","project:pdevii":"yes","shop":"convenience","source":"survey"}},
{"type":"Feature","geometry":{"type":"Point","coordinates":[7.1076573,13.4940075]},"properties":{"name":"Ets. Yahaya Kache","project:pdevii":"yes","shop":"convenience","source":"survey"}},
{"type":"Feature","geometry":{"type":"Point","coordinates":[8.9922674,13.8073985]},"properties":{"name":"Alimentation général Termit","project:pdevii":"yes","shop":"convenience","source":"survey"}},
{"type":"Feature","geometry":{"type":"Point","coordinates":[8.9910572,13.8099075]},"properties":{"name":"Boutique Dispensaire Store","project:pdevii":"yes","shop":"convenience","source":"survey"}},
{"type":"Feature","geometry":{"type":"Point","coordinates":[8.9904239,13.8103569]},"properties":{"name":"Etablissement Alkawali","project:pdevii":"yes","shop":"convenience","source":"survey"}},
{"type":"Feature","geometry":{"type":"Point","coordinates":[8.9908232,13.8101786]},"properties":{"name":"Guidan Kwoy Store","project:pdevii":"yes","shop":"convenience","source":"survey"}},
{"type":"Feature","geometry":{"type":"Point","coordinates":[7.1162019,13.4918431]},"properties":{"project:pdevii":"yes","shop":"convenience","source":"survey"}},
{"type":"Feature","geometry":{"type":"Point","coordinates":[7.1077572,13.4940892]},"properties":{"name":"Magasin Témoin","project:pdevii":"yes","shop":"convenience","source":"survey"}},
{"type":"Feature","geometry":{"type":"Point","coordinates":[7.1097957,13.4958001]},"properties":{"name":"Boulangerie Mairey","project:pdevii":"yes","shop":"bakery","source":"survey"}},
{"type":"Feature","geometry":{"type":"Point","coordinates":[7.1086185,13.4992343]},"properties":{"name":"Jajja Market","project:pdevii":"yes","shop":"convenience","source":"survey"}},
{"type":"Feature","geometry":{"type":"Point","coordinates":[7.1095822,13.4996819]},"properties":{"amenity":"marketplace","name":"Marché Kadro","project:pdevii":"yes","source":"knowledge"}},
{"type":"Feature","geometry":{"type":"Point","coordinates":[7.1092342,13.4960089]},"properties":{"entrance":"yes","name":"Porte Dan Kassawa","project:pdevii":"yes","source":"survey"}},
{"type":"Feature","geometry":{"type":"Point","coordinates":[7.1036341,13.5087677]},"properties":{"name":"Alimentation Centrale BDZ","project:pdevii":"yes","shop":"supermarket","source":"survey"}},
{"type":"Feature","geometry":{"type":"Point","coordinates":[7.0995815,13.50716]},"properties":{"amenity":"marketplace","name":"Marché Tasha Dakoro","project:pdevii":"yes","source":"survey"}},
{"type":"Feature","geometry":{"type":"Point","coordinates":[7.0912457,13.487937]},"properties":{"amenity":"marketplace","name":"Tacha Korao","project:pdevii":"yes","source":"survey"}},
{"type":"Feature","geometry":{"type":"Point","coordinates":[7.1005515,13.5001366]},"properties":{"name":"Alimentation Computer Family","project:pdevii":"yes","shop":"convenience","source":"survey"}},
{"type":"Feature","geometry":{"type":"Point","coordinates":[7.100738,13.5003531]},"properties":{"name":"Boulangerie Gousaou","shop":"bakery","source":"survey"}},
{"type":"Feature","geometry":{"type":"Point","coordinates":[7.1047856,13.5038286]},"properties":{"name":"Mana Mana Store","project:pdevii":"yes","shop":"convenience","source":"survey"}},
{"type":"Feature","geometry":{"type":"Point","coordinates":[7.1022628,13.5030459]},"properties":{"name":"Boulangerie La Racine","project:pdevii":"yes","shop":"bakery","source":"survey"}},
{"type":"Feature","geometry":{"type":"Point","coordinates":[7.0946905,13.5000873]},"properties":{"name":"Ihissane Market","project:pdevii":"yes","shop":"convenience","source":"survey"}},
{"type":"Feature","geometry":{"type":"Point","coordinates":[7.1051195,13.5002364]},"properties":{"name":"Nouvelle Boutique Ghanila","project:pdevii":"yes","shop":"convenience","source":"survey"}},
{"type":"Feature","geometry":{"type":"Point","coordinates":[1.4545487,14.2018042]},"properties":{"name":"Alimentation Yarda","project:pdevii":"yes","shop":"convenience","source":"survey"}},
{"type":"Feature","geometry":{"type":"Point","coordinates":[1.450504,14.2071159]},"properties":{"name":"Boulangerie Moderne","project:pdevii":"yes","shop":"bakery","source":"survey"}},
{"type":"Feature","geometry":{"type":"Point","coordinates":[1.454066,14.2020211]},"properties":{"name":"Ets Elh Zazi Commerce Général","project:pdevii":"yes","shop":"convenience","source":"survey"}},
{"type":"Feature","geometry":{"type":"Point","coordinates":[1.4528554,14.2018558]},"properties":{"amenity":"marketplace","name":"Grand Marché","project:pdevii":"yes","source":"survey"}},
{"type":"Feature","geometry":{"type":"Point","coordinates":[1.4613331,14.1998399]},"properties":{"amenity":"marketplace","name":"Marché a Bétail","project:pdevii":"yes","source":"survey"}},
{"type":"Feature","geometry":{"type":"Point","coordinates":[2.1317968,13.5040403]},"properties":{"name":"Ets Groupe Zanguina Market","project:pdevii":"yes","shop":"convenience","source":"survey"}},
{"type":"Feature","geometry":{"type":"Point","coordinates":[2.1306864,13.5017246]},"properties":{"name":"Niger Halal","project:pdevii":"yes","shop":"supermarket","source":"survey"}},
{"type":"Feature","geometry":{"type":"Point","coordinates":[2.1229025,13.4890287]},"properties":{"man_made":"works","name":"Abattoir de Niamey","project:pdevii":"yes","shop":"butcher","source":"survey"}},
{"type":"Feature","geometry":{"type":"Point","coordinates":[2.1568154,13.497114]},"properties":{"name":"Alimentation á Amir","shop":"convenience","source":"survey"}},
{"type":"Feature","geometry":{"type":"Point","coordinates":[2.1434693,13.4647266]},"properties":{"name":"Ets Soumaila Yayé Commerce Général","project:pdevii":"yes","shop":"convenience","source":"bing"}},
{"type":"Feature","geometry":{"type":"Point","coordinates":[2.1523509,13.502312]},"properties":{"amenity":"marketplace","name":"Marché Bétails","source":"survey"}},
{"type":"Feature","geometry":{"type":"Point","coordinates":[5.2618015,14.8925139]},"properties":{"name":"Alimentation Général de l’Ader","project:pdevii":"yes","shop":"convenience","source":"survey","survey:date":"2016-04-20"}},
{"type":"Feature","geometry":{"type":"Point","coordinates":[5.2603068,14.8885235]},"properties":{"name":"Boulangerie ADER","project:pdevii":"yes","shop":"bakery","source":"survey","survey:date":"2016-04-16"}},
{"type":"Feature","geometry":{"type":"Point","coordinates":[5.2641896,14.8928768]},"properties":{"name":"Boulangerie Tassigui","project:pdevii":"yes","shop":"bakery","source":"survey","survey:date":"2016-04-20"}},
{"type":"Feature","geometry":{"type":"Point","coordinates":[5.2675764,14.8902033]},"properties":{"name":"Boutique Alliance","project:pdevii":"yes","shop":"convenience","source":"survey","survey:date":"2016-04-16"}},
{"type":"Feature","geometry":{"type":"Point","coordinates":[5.2706584,14.8914932]},"properties":{"amenity":"marketplace","name":"Marché Moderne de Ville de Tahoua","project:pdevii":"yes","source":"survey","survey:date":"2016-04-16"}},
{"type":"Feature","geometry":{"type":"Point","coordinates":[5.2625795,14.8928207]},"properties":{"name":"Ets Haddad Khalil","project:pdevii":"yes","shop":"supermarket","source":"survey","survey:date":"2016-04-20"}},
{"type":"Feature","geometry":{"type":"Point","coordinates":[5.2705506,14.8928752]},"properties":{"name":"Les Délices","project:pdevii":"yes","shop":"bakery","source":"survey","survey:date":"2016-04-20"}},
{"type":"Feature","geometry":{"type":"Point","coordinates":[5.2673964,14.8937072]},"properties":{"name":"Patisserie","project:pdevii":"yes","shop":"bakery","source":"survey","survey:date":"2016-04-20"}},
{"type":"Feature","geometry":{"type":"Point","coordinates":[5.2684129,14.8939756]},"properties":{"name":"Patisserie","project:pdevii":"yes","shop":"bakery","source":"survey","survey:date":"2016-04-20"}},
{"type":"Feature","geometry":{"type":"Point","coordinates":[5.2640719,14.8917771]},"properties":{"entrance":"yes","project:pdevii":"yes","source":"survey","survey:date":"2016-04-20"}},
{"type":"Feature","geometry":{"type":"Point","coordinates":[5.2757178,14.8917346]},"properties":{"name":"Alimentation Général Nassiha","project:pdevii":"yes","shop":"convenience","source":"survey","survey:date":"2016-04-21"}},
{"type":"Feature","geometry":{"type":"Point","coordinates":[5.2853393,14.8859224]},"properties":{"name":"Boulangerie TPC","project:pdevii":"yes","shop":"bakery","source":"survey","survey:date":"2016-04-21"}},
{"type":"Feature","geometry":{"type":"Point","coordinates":[5.2702704,14.8849677]},"properties":{"name":"Ango Baaré Mai Nama","project:pdevii":"yes","shop":"butcher","source":"survey","survey:date":"2016-04-21"}},
{"type":"Feature","geometry":{"type":"Point","coordinates":[7.9690373,16.9508891]},"properties":{"name":"Alimentation Issoudar","project:pdevii":"yes","shop":"convenience","source":"survey","survey:date":"2016-04-16"}},
{"type":"Feature","geometry":{"type":"Point","coordinates":[7.9739684,16.9579935]},"properties":{"name":"Boulangerie - Patisserie Rahaman","project:pdevii":"yes","shop":"bakery","source":"survey","survey:date":"2016-04-16"}},
{"type":"Feature","geometry":{"type":"Point","coordinates":[7.9777387,16.9641787]},"properties":{"name":"Boulangerie - Patisserie Telwa","project:pdevii":"yes","shop":"bakery","source":"survey","survey:date":"2016-04-16"}},
{"type":"Feature","geometry":{"type":"Point","coordinates":[7.9684141,16.9584966]},"properties":{"name":"Gatrun Market","name:ar":"سوق كاترون","project:pdevii":"yes","shop":"convenience","source":"survey","survey:date":"2016-04-16"}},
{"type":"Feature","geometry":{"type":"Point","coordinates":[7.9683984,16.9605029]},"properties":{"project:pdevii":"yes","shop":"convenience","source":"survey","survey:date":"2016-04-16"}},
{"type":"Feature","geometry":{"type":"Point","coordinates":[7.9901375,16.9716199]},"properties":{"name":"Boulangerie Moderne - Hasnat","project:pdevii":"yes","shop":"bakery","source":"survey","survey:date":"2016-04-14"}},
{"type":"Feature","geometry":{"type":"Point","coordinates":[7.9903516,16.9705609]},"properties":{"name":"Ets Issoudar - Alimentation Général","project:pdevii":"yes","shop":"convenience","source":"survey","survey:date":"2016-04-14"}},
{"type":"Feature","geometry":{"type":"Point","coordinates":[7.989911,16.9734118]},"properties":{"name":"L’Elite Market","project:pdevii":"yes","shop":"convenience","source":"survey","survey:date":"2016-04-14"}},
{"type":"Feature","geometry":{"type":"Point","coordinates":[7.9939019,16.9696934]},"properties":{"name":"Marjane Market","project:pdevii":"yes","shop":"supermarket","source":"survey","survey:date":"2016-04-14"}},
{"type":"Feature","geometry":{"type":"Point","coordinates":[7.9968051000000008,16.9798976]},"properties":{"amenity":"marketplace","name":"Petit Marché de Bétail","name:ar":"سوق المواشي الصغيرة","project:pdevii":"yes","source":"survey","survey:date":"2016-04-15"}},
{"type":"Feature","geometry":{"type":"Point","coordinates":[7.9952267,16.9756751]},"properties":{"name":"Salamat Market - Alimentation Général","project:pdevii":"yes","shop":"convenience","source":"survey","survey:date":"2016-04-15"}},
{"type":"Feature","geometry":{"type":"Point","coordinates":[7.9838642,16.9777102]},"properties":{"name":"Boulangerie Pâtisserie Agzamadaran","project:pdevii":"yes","shop":"bakery","source":"survey","survey:date":"2016-04-15"}},
{"type":"Feature","geometry":{"type":"Point","coordinates":[7.9838775,16.976328]},"properties":{"name":"Marjane Market","project:pdevii":"yes","shop":"convenience","source":"survey","survey:date":"2016-04-15"}},
{"type":"Feature","geometry":{"type":"Point","coordinates":[7.9883875,16.9778957]},"properties":{"name":"Boulangerie - Patisserie","name:ar":"مخبز المعجنات","project:pdevii":"yes","shop":"bakery","source":"survey","survey:date":"2016-04-15"}},
{"type":"Feature","geometry":{"type":"Point","coordinates":[7.1044084,13.5034632]},"properties":{"name":"Boulangerie Nassarou Minallahi","project:pdevii":"yes","shop":"bakery","source":"survey"}},
{"type":"Feature","geometry":{"type":"Point","coordinates":[7.1022148,13.4917891]},"properties":{"amenity":"marketplace","name":"Marché Malamin DA","project:pdevii":"yes","source":"survey","survey:date":"2016-07-23"}},
{"type":"Feature","geometry":{"type":"Point","coordinates":[8.9833451,13.8054869]},"properties":{"name":"Boulangerie Patisserie Darido","project:pdevii":"yes","shop":"bakery","source":"survey"}},
{"type":"Feature","geometry":{"type":"Point","coordinates":[8.9897291,13.8049608]},"properties":{"amenity":"marketplace","name":"Petit Marché","project:pdevii":"yes","source":"survey"}},
{"type":"Feature","geometry":{"type":"Point","coordinates":[7.1080053,13.4971049]},"properties":{"entrance":"yes"}},
{"type":"Feature","geometry":{"type":"Point","coordinates":[7.1073317,13.4956154]},"properties":{"entrance":"yes"}},
{"type":"Feature","geometry":{"type":"Point","coordinates":[2.1205071,13.5239401]},"properties":{"shop":"convenience"}},
{"type":"Feature","geometry":{"type":"Point","coordinates":[2.1233253,13.5160153]},"properties":{"name":"Alimentation Balafon","shop":"convenience"}},
{"type":"Feature","geometry":{"type":"Point","coordinates":[12.6114274,13.3155168]},"properties":{"shop":"convenience"}},
{"type":"Feature","geometry":{"type":"Point","coordinates":[2.1349244,13.5030878]},"properties":{"shop":"bakery"}},
{"type":"Feature","geometry":{"type":"Point","coordinates":[2.1351229,13.5028791]},"properties":{"name":"patiserie glacerie","shop":"bakery"}},
{"type":"Feature","geometry":{"type":"Point","coordinates":[10.8533556,13.5965999]},"properties":{"amenity":"marketplace"}},
{"type":"Feature","geometry":{"type":"Point","coordinates":[11.1407883,13.9086072]},"properties":{"amenity":"marketplace"}},
{"type":"Feature","geometry":{"type":"Point","coordinates":[11.1853649,13.7110034]},"properties":{"amenity":"marketplace"}},
{"type":"Feature","geometry":{"type":"Point","coordinates":[11.095329,13.4106708]},"properties":{"amenity":"marketplace"}},
{"type":"Feature","geometry":{"type":"Point","coordinates":[10.9244305,13.4626817]},"properties":{"amenity":"marketplace"}},
{"type":"Feature","geometry":{"type":"Point","coordinates":[11.8745879,13.6296319]},"properties":{"amenity":"marketplace"}},
{"type":"Feature","geometry":{"type":"Point","coordinates":[12.7301642,13.5315461]},"properties":{"amenity":"marketplace"}},
{"type":"Feature","geometry":{"type":"Point","coordinates":[12.366353,13.4217952]},"properties":{"amenity":"marketplace"}},
{"type":"Feature","geometry":{"type":"Point","coordinates":[11.3836203,13.4254057]},"properties":{"amenity":"marketplace"}},
{"type":"Feature","geometry":{"type":"Point","coordinates":[11.1795747,13.7046824]},"properties":{"amenity":"marketplace"}},
{"type":"Feature","geometry":{"type":"Point","coordinates":[12.0274493,13.2140925]},"properties":{"amenity":"marketplace"}},
{"type":"Feature","geometry":{"type":"Point","coordinates":[12.0365861,13.2204238]},"properties":{"amenity":"marketplace","name":"Marche à bétail"}},
{"type":"Feature","geometry":{"type":"Point","coordinates":[12.2308806,13.2051771]},"properties":{"amenity":"marketplace"}},
{"type":"Feature","geometry":{"type":"Point","coordinates":[2.0744243,13.5482874]},"properties":{"name":"Superette Ryad","name:fr":"Superette Ryad","shop":"convenience"}},
{"type":"Feature","geometry":{"type":"Point","coordinates":[4.7268765,13.8344246]},"properties":{"name":"vente du lait de vache","name:fr":"vente du lait de vache","shop":"supermarket"}},
{"type":"Feature","geometry":{"type":"Point","coordinates":[2.1824986,13.5290016]},"properties":{"name":"Petit Marché Niamey 2000","name:en":"Petit Marché Niamey 2000","name:fr":"Petit Marché Niamey 2000","shop":"supermarket"}},
{"type":"Feature","geometry":{"type":"Point","coordinates":[2.1933597,13.4640899]},"properties":{"name":"Boulangerie Aéroport","shop":"bakery","source":"survey"}},
{"type":"Feature","geometry":{"type":"Point","coordinates":[2.1439299,13.5388512]},"properties":{"shop":"bakery"}},
{"type":"Feature","geometry":{"type":"Point","coordinates":[2.1172779,13.5189274]},"properties":{"shop":"butcher"}},
{"type":"Feature","geometry":{"type":"Point","coordinates":[2.1167028,13.5210299]},"properties":{"name":"Apc bouhari","shop":"butcher"}},
{"type":"Feature","geometry":{"type":"Point","coordinates":[2.1180373,13.5197797]},"properties":{"shop":"convenience"}},
{"type":"Feature","geometry":{"type":"Point","coordinates":[10.6957565,15.1126888]},"properties":{"amenity":"marketplace"}},
{"type":"Feature","geometry":{"type":"Point","coordinates":[2.1159916,13.5203613]},"properties":{"shop":"butcher"}},
{"type":"Feature","geometry":{"type":"Point","coordinates":[2.1163467,13.5206366]},"properties":{"shop":"butcher"}},
{"type":"Feature","geometry":{"type":"Point","coordinates":[2.1157043,13.520797]},"properties":{"name":"Ets Kadri Siddo","shop":"supermarket"}},
{"type":"Feature","geometry":{"type":"Point","coordinates":[2.1174752,13.5190341]},"properties":{"shop":"convenience"}},
{"type":"Feature","geometry":{"type":"Point","coordinates":[2.116973,13.5190777]},"properties":{"shop":"supermarket"}},
{"type":"Feature","geometry":{"type":"Point","coordinates":[2.1175557,13.5192863]},"properties":{"shop":"supermarket"}},
{"type":"Feature","geometry":{"type":"Point","coordinates":[2.1183792,13.5209306]},"properties":{"name":"ETS Baba ahmed","shop":"supermarket"}},
{"type":"Feature","geometry":{"type":"Point","coordinates":[10.92317,13.8517024]},"properties":{"amenity":"marketplace"}},
{"type":"Feature","geometry":{"type":"Point","coordinates":[10.9031575,14.1806897]},"properties":{"amenity":"marketplace"}},
{"type":"Feature","geometry":{"type":"Point","coordinates":[2.1305773,13.503777]},"properties":{"name":"Braima","shop":"bakery"}},
{"type":"Feature","geometry":{"type":"Point","coordinates":[3.6117155,15.3633383]},"properties":{"amenity":"marketplace"}},
{"type":"Feature","geometry":{"type":"Point","coordinates":[3.5431605,15.204197]},"properties":{"amenity":"marketplace"}},
{"type":"Feature","geometry":{"type":"Point","coordinates":[3.4317713,14.9314787]},"properties":{"amenity":"marketplace"}},
{"type":"Feature","geometry":{"type":"Point","coordinates":[3.3099082,15.2332078]},"properties":{"amenity":"marketplace"}},
{"type":"Feature","geometry":{"type":"Point","coordinates":[4.160938,14.508281]},"properties":{"amenity":"marketplace"}},
{"type":"Feature","geometry":{"type":"Point","coordinates":[4.0765987,14.5649602]},"properties":{"amenity":"marketplace"}},
{"type":"Feature","geometry":{"type":"Point","coordinates":[4.1543695,14.6332915]},"properties":{"amenity":"marketplace"}},
{"type":"Feature","geometry":{"type":"Point","coordinates":[3.3707452,14.7377392]},"properties":{"amenity":"marketplace"}},
{"type":"Feature","geometry":{"type":"Point","coordinates":[3.6414527,14.8081729]},"properties":{"amenity":"marketplace"}},
{"type":"Feature","geometry":{"type":"Point","coordinates":[4.0725548,15.1334811]},"properties":{"amenity":"marketplace"}},
{"type":"Feature","geometry":{"type":"Point","coordinates":[3.2422409,14.8350441]},"properties":{"amenity":"marketplace"}},
{"type":"Feature","geometry":{"type":"Point","coordinates":[2.1196569,13.5097506]},"properties":{"name":"Alimentation Ridouane","shop":"convenience"}},
{"type":"Feature","geometry":{"type":"Point","coordinates":[2.1221622,13.5256459]},"properties":{"name":"Alimentation IMH","shop":"convenience"}},
{"type":"Feature","geometry":{"type":"Point","coordinates":[2.1194265,13.5095412]},"properties":{"name":"Alimentation Générale AS","shop":"convenience"}},
{"type":"Feature","geometry":{"type":"Point","coordinates":[7.386555,18.7380173]},"properties":{"amenity":"marketplace","name":"السوق المركزي أرليت","name:ar":"السوق المركزي أرليت"}},
{"type":"Feature","geometry":{"type":"Point","coordinates":[2.9982597,15.1309642]},"properties":{"amenity":"marketplace"}},
{"type":"Feature","geometry":{"type":"Point","coordinates":[3.0017395,15.2301757]},"properties":{"amenity":"marketplace"}},
{"type":"Feature","geometry":{"type":"Point","coordinates":[2.6806256,14.8535272]},"properties":{"amenity":"marketplace"}},
{"type":"Feature","geometry":{"type":"Point","coordinates":[2.7019233,15.0415882]},"properties":{"amenity":"marketplace"}},
{"type":"Feature","geometry":{"type":"Point","coordinates":[2.1214477,13.5266806]},"properties":{"description":"le Kilichi est une spécialité du Niger. C'est la viande hachée et sechée sous soleil.","name":"Kilichi","shop":"butcher"}},
{"type":"Feature","geometry":{"type":"Point","coordinates":[2.116814,13.5189832]},"properties":{"amenity":"marketplace","name":"Marché Dogonaï"}},
{"type":"Feature","geometry":{"type":"Point","coordinates":[2.1148638,13.5170095]},"properties":{"amenity":"marketplace","name":"Marché Dubaï","name:en":"Dubaï Market"}},
{"type":"Feature","geometry":{"type":"Point","coordinates":[2.1671263,15.2415143]},"properties":{"amenity":"marketplace"}},
{"type":"Feature","geometry":{"type":"Point","coordinates":[2.1917183,15.1828613]},"properties":{"amenity":"marketplace"}},
{"type":"Feature","geometry":{"type":"Point","coordinates":[2.0599913,15.0598296]},"properties":{"amenity":"marketplace"}},
{"type":"Feature","geometry":{"type":"Point","coordinates":[2.3556988,14.9835851]},"properties":{"amenity":"marketplace"}},
{"type":"Feature","geometry":{"type":"Point","coordinates":[2.3401264,15.0747994]},"properties":{"amenity":"marketplace"}},
{"type":"Feature","geometry":{"type":"Point","coordinates":[2.1128183,13.5127338]},"properties":{"name":"Supermarché Haddad Khalid 2","shop":"supermarket"}},
{"type":"Feature","geometry":{"type":"Point","coordinates":[11.3323282,13.9859706]},"properties":{"name":"Marche de boutty","name:fr":"Marche de boutty","shop":"supermarket"}},
{"type":"Feature","geometry":{"type":"Point","coordinates":[2.1089973,13.5093805]},"properties":{"shop":"butcher"}},
{"type":"Feature","geometry":{"type":"Point","coordinates":[2.1271892,13.5173003]},"properties":{"amenity":"marketplace","name":"Igbo Market"}},
{"type":"Feature","geometry":{"type":"Point","coordinates":[2.1274115,13.5164293]},"properties":{"shop":"butcher"}},
{"type":"Feature","geometry":{"type":"Point","coordinates":[2.112246,13.514725]},"properties":{"shop":"butcher"}},
{"type":"Feature","geometry":{"type":"Point","coordinates":[2.1122097,13.514663]},"properties":{"shop":"butcher"}},
{"type":"Feature","geometry":{"type":"Point","coordinates":[6.7677376,14.5131628]},"properties":{"amenity":"marketplace","name:ar":"سوق داكرو"}},
{"type":"Feature","geometry":{"type":"Point","coordinates":[2.0826386,13.5604138]},"properties":{"name":"Alimentation Zak Store","phone":"91967482","shop":"convenience"}},
{"type":"Feature","geometry":{"type":"Point","coordinates":[13.715225,21.8778489]},"properties":{"shop":"bakery"}},
{"type":"Feature","geometry":{"type":"Point","coordinates":[2.0590162,13.5264446]},"properties":{"name":"Boucher","shop":"butcher"}},
{"type":"Feature","geometry":{"type":"Point","coordinates":[2.0388745,13.537831]},"properties":{"shop":"butcher"}},
{"type":"Feature","geometry":{"type":"Point","coordinates":[2.0393318,13.5375174]},"properties":{"name":"Vente Degue","shop":"dairy"}},
{"type":"Feature","geometry":{"type":"Point","coordinates":[2.0409331,13.5364443]},"properties":{"name":"Le croissant","shop":"bakery"}},
{"type":"Feature","geometry":{"type":"Point","coordinates":[2.0536937,13.5282782]},"properties":{"shop":"bakery"}},
{"type":"Feature","geometry":{"type":"Point","coordinates":[2.0586933,13.5266574]},"properties":{"shop":"bakery"}},
{"type":"Feature","geometry":{"type":"Point","coordinates":[2.0589334,13.5266288]},"properties":{"shop":"bakery"}},
{"type":"Feature","geometry":{"type":"Point","coordinates":[2.0589642,13.5266196]},"properties":{"shop":"butcher"}},
{"type":"Feature","geometry":{"type":"Point","coordinates":[2.059333,13.526514]},"properties":{"shop":"bakery"}},
{"type":"Feature","geometry":{"type":"Point","coordinates":[2.059966,13.526308]},"properties":{"shop":"bakery"}},
{"type":"Feature","geometry":{"type":"Point","coordinates":[2.0610993,13.5259507]},"properties":{"shop":"bakery"}},
{"type":"Feature","geometry":{"type":"Point","coordinates":[2.1121044,13.5147098]},"properties":{"shop":"convenience"}},
{"type":"Feature","geometry":{"type":"Point","coordinates":[3.1936258,13.3978811]},"properties":{"amenity":"marketplace","name":"Marché Moussadey","operator":"public"}},
{"type":"Feature","geometry":{"type":"Point","coordinates":[7.7531551,17.3043029]},"properties":{"name":"Embranchement de Tchiro","shop":"butcher"}},
{"type":"Feature","geometry":{"type":"Point","coordinates":[2.1121002,13.5156442]},"properties":{"name":"Dan Takoussa","shop":"supermarket"}},
{"type":"Feature","geometry":{"type":"Point","coordinates":[2.1114672,13.5153039]},"properties":{"name":"Houdou Inoussa","shop":"supermarket"}},
{"type":"Feature","geometry":{"type":"Point","coordinates":[3.1945653,13.0527589]},"properties":{"shop":"convenience"}},
{"type":"Feature","geometry":{"type":"Point","coordinates":[3.1945366,13.0520739]},"properties":{"shop":"convenience"}},
{"type":"Feature","geometry":{"type":"Point","coordinates":[3.1927062,13.0543378]},"properties":{"shop":"convenience"}},
{"type":"Feature","geometry":{"type":"Point","coordinates":[3.2008702,13.0440098]},"properties":{"shop":"convenience"}},
{"type":"Feature","geometry":{"type":"Point","coordinates":[2.091568,13.5237626]},"properties":{"name":"Galaxie","shop":"bakery"}},
{"type":"Feature","geometry":{"type":"Point","coordinates":[5.2675147,14.8938658]},"properties":{"addr:city":"Tahoua","name":"Complexe Raya Boulangerie et Alimentation","phone":"+22796379258","shop":"bakery"}},
{"type":"Feature","geometry":{"type":"Point","coordinates":[5.2648689,14.8930335]},"properties":{"name":"Boulangerie Alkama 2","phone":"+22796094347","shop":"bakery"}},
{"type":"Feature","geometry":{"type":"Point","coordinates":[5.2645628,14.892517]},"properties":{"shop":"supermarket"}},
{"type":"Feature","geometry":{"type":"Point","coordinates":[5.2681553,14.8921577]},"properties":{"shop":"butcher"}},
{"type":"Feature","geometry":{"type":"Point","coordinates":[5.2648207,14.8903474]},"properties":{"amenity":"marketplace"}},
{"type":"Feature","geometry":{"type":"Point","coordinates":[5.266853,14.8904725]},"properties":{"shop":"supermarket"}},
{"type":"Feature","geometry":{"type":"Point","coordinates":[5.2875935,14.8849029]},"properties":{"name":"ETS DAN SAKOLE","shop":"supermarket"}},
{"type":"Feature","geometry":{"type":"Point","coordinates":[5.285321,14.8858512]},"properties":{"name":"TPC","shop":"bakery"}},
{"type":"Feature","geometry":{"type":"Point","coordinates":[5.2941012,14.8846683]},"properties":{"name":"Boulangerie Sabon Gari","shop":"bakery"}},
{"type":"Feature","geometry":{"type":"Point","coordinates":[5.2609213,14.8924675]},"properties":{"shop":"supermarket"}},
{"type":"Feature","geometry":{"type":"Point","coordinates":[5.2600881,14.8923917]},"properties":{"name":"Madara Albichir","shop":"dairy"}},
{"type":"Feature","geometry":{"type":"Point","coordinates":[5.2569932,14.8913529]},"properties":{"amenity":"marketplace","name":"Vente d'huile végétal"}},
{"type":"Feature","geometry":{"type":"Point","coordinates":[2.1524946,13.4525582]},"properties":{"shop":"convenience"}},
{"type":"Feature","geometry":{"type":"Point","coordinates":[2.152329,13.452743]},"properties":{"shop":"convenience"}},
{"type":"Feature","geometry":{"type":"Point","coordinates":[9.0625683,21.7482117]},"properties":{"name":"Boulangerie","shop":"bakery"}},
{"type":"Feature","geometry":{"type":"Point","coordinates":[2.1177187,13.5167173]},"properties":{"name":"Grand Marché","shop":"supermarket"}},
{"type":"Feature","geometry":{"type":"Point","coordinates":[2.1087574,13.5446295]},"properties":{"name":"Anisa Business Centre","shop":"supermarket"}},
{"type":"Feature","geometry":{"type":"Point","coordinates":[2.1087751,13.5436641]},"properties":{"name":"Alpha Shop","shop":"supermarket"}},
{"type":"Feature","geometry":{"type":"Point","coordinates":[2.0698305,13.4954725]},"properties":{"shop":"butcher"}},
{"type":"Feature","geometry":{"type":"Point","coordinates":[2.0709081,13.4951191]},"properties":{"shop":"butcher"}},
{"type":"Feature","geometry":{"type":"Point","coordinates":[2.0992401,13.5382701]},"properties":{"name":"Épicerie du Coin","shop":"convenience"}},
{"type":"Feature","geometry":{"type":"Point","coordinates":[2.0973164,13.521121]},"properties":{"contact:email":"supermarcheazar@gmail.com","contact:facebook":"https://m.facebook.com/minimarketazar/","name":"Mini Market Azar","opening_hours":"Mo-Sa 07:00-13:30, 15:00-21:15;Su off","shop":"supermarket"}},
{"type":"Feature","geometry":{"type":"Point","coordinates":[2.1075344,13.5443532]},"properties":{"name":"Issaka shop","shop":"supermarket"}},
{"type":"Feature","geometry":{"type":"Point","coordinates":[2.1077905,13.5508779]},"properties":{"name":"Vente de RIZ","shop":"supermarket"}},
{"type":"Feature","geometry":{"type":"Point","coordinates":[7.1127506,13.4913082]},"properties":{"name":"Boulangerie Pattisserie Laracine","shop":"bakery"}},
{"type":"Feature","geometry":{"type":"Point","coordinates":[7.1078634,13.5060208]},"properties":{"name":"KalaTransa Mall","shop":"supermarket"}},
{"type":"Feature","geometry":{"type":"Point","coordinates":[8.9925164,13.8073687]},"properties":{"entrance":"main"}},
{"type":"Feature","geometry":{"type":"Point","coordinates":[8.9944464,13.8071929]},"properties":{"entrance":"main"}},
{"type":"Feature","geometry":{"type":"Point","coordinates":[8.9953456,13.8090714]},"properties":{"entrance":"main"}},
{"type":"Feature","geometry":{"type":"Point","coordinates":[8.9933043,13.8091005]},"properties":{"entrance":"main"}},
{"type":"Feature","geometry":{"type":"Point","coordinates":[2.0791237,13.5290064]},"properties":{"shop":"butcher"}},
{"type":"Feature","geometry":{"type":"Point","coordinates":[1.7771259,14.9039655]},"properties":{"amenity":"marketplace"}},
{"type":"Feature","geometry":{"type":"Point","coordinates":[2.1091599,13.5435087]},"properties":{"name":"Salou","shop":"butcher"}},
{"type":"Feature","geometry":{"type":"Point","coordinates":[2.1043518,13.523765]},"properties":{"name":"Vente d'eau","shop":"convenience"}},
{"type":"Feature","geometry":{"type":"Point","coordinates":[2.1230581,13.5463197]},"properties":{"addr:street":"Rue BF - 86","name":"Boulangerie Lala","name:fr":"Boulangerie Lala","shop":"bakery"}},
{"type":"Feature","geometry":{"type":"Point","coordinates":[4.5828048,14.922894]},"properties":{"amenity":"marketplace"}},
{"type":"Feature","geometry":{"type":"Point","coordinates":[4.7759599,15.1382884]},"properties":{"amenity":"marketplace"}},
{"type":"Feature","geometry":{"type":"Point","coordinates":[4.9647932,15.1032605]},"properties":{"amenity":"marketplace"}},
{"type":"Feature","geometry":{"type":"Point","coordinates":[4.4587066,14.8369361]},"properties":{"amenity":"marketplace"}},
{"type":"Feature","geometry":{"type":"Point","coordinates":[4.601356,14.7988257]},"properties":{"amenity":"marketplace"}},
{"type":"Feature","geometry":{"type":"Point","coordinates":[2.1417711,13.5125602]},"properties":{"name":"Bucep","shop":"bakery"}},
{"type":"Feature","geometry":{"type":"Point","coordinates":[7.3874221,14.7322234]},"properties":{"amenity":"marketplace"}},
{"type":"Feature","geometry":{"type":"Point","coordinates":[7.6231366,14.5365985]},"properties":{"amenity":"marketplace"}},
{"type":"Feature","geometry":{"type":"Point","coordinates":[7.6716898,14.6597739]},"properties":{"amenity":"marketplace"}},
{"type":"Feature","geometry":{"type":"Point","coordinates":[2.1220849,13.5284861]},"properties":{"name":"Boulangerie Pain d'Exellence","shop":"bakery"}},
{"type":"Feature","geometry":{"type":"Point","coordinates":[2.1074936,13.5436801]},"properties":{"shop":"butcher"}},
{"type":"Feature","geometry":{"type":"Point","coordinates":[2.0448954,13.5342767]},"properties":{"name":"B","shop":"bakery"}},
{"type":"Feature","geometry":{"type":"Point","coordinates":[2.1514045999999999,13.5219818]},"properties":{"name":"Boulangerie Pâtisserie Mariana","shop":"bakery"}},
{"type":"Feature","geometry":{"type":"Point","coordinates":[2.0994083,13.5647437]},"properties":{"name":"La Baguette Magique","shop":"bakery"}},
{"type":"Feature","geometry":{"type":"Point","coordinates":[2.1184081,13.5159358]},"properties":{"name":"Flash Réprogrammation GSM","shop":"convenience"}},
{"type":"Feature","geometry":{"type":"Point","coordinates":[2.0989439,13.5886643]},"properties":{"name":"Le Gourmet","shop":"bakery"}},
{"type":"Feature","geometry":{"type":"Point","coordinates":[2.0821014,13.5373398]},"properties":{"shop":"butcher"}},
{"type":"Feature","geometry":{"type":"Point","coordinates":[2.0727715,13.5313195]},"properties":{"name":"Boulangerie Moderne Kerbessi","shop":"bakery"}},
{"type":"Feature","geometry":{"type":"Point","coordinates":[2.1181708,13.5166778]},"properties":{"name":"Ibo Matériel Informatique","shop":"convenience"}},
{"type":"Feature","geometry":{"type":"Point","coordinates":[2.1183645,13.5166354]},"properties":{"name":"Quartier 6 Porte 13","shop":"supermarket"}},
{"type":"Feature","geometry":{"type":"Point","coordinates":[2.1181669,13.5166506]},"properties":{"name":"victor Ibo","name:en":"victor Ibo Quarier 6 Porte 13","name:fr":"victor Ibo Quarier 6 Porte 13","shop":"convenience"}},
{"type":"Feature","geometry":{"type":"Point","coordinates":[2.0718756,13.5288707]},"properties":{"name":"JB's Corner Store","shop":"supermarket"}},
{"type":"Feature","geometry":{"type":"Point","coordinates":[2.1232782,13.5216293]},"properties":{"name":"Klichi","name:fr":"Klichi yaou garba","phone":"+22780701821","shop":"supermarket"}},
{"type":"Feature","geometry":{"type":"Point","coordinates":[7.9880934,13.7440659]},"properties":{"name":"Marché Tessaoua","shop":"supermarket"}},
{"type":"Feature","geometry":{"type":"Point","coordinates":[5.4906615,16.4727668]},"properties":{"amenity":"marketplace"}},
{"type":"Feature","geometry":{"type":"Point","coordinates":[5.8909138,16.4862853]},"properties":{"amenity":"marketplace"}},
{"type":"Feature","geometry":{"type":"Point","coordinates":[4.0581817,15.7705136]},"properties":{"amenity":"marketplace"}},
{"type":"Feature","geometry":{"type":"Point","coordinates":[4.1595615,15.105077]},"properties":{"amenity":"marketplace"}},
{"type":"Feature","geometry":{"type":"Point","coordinates":[3.9149625,14.8320023]},"properties":{"amenity":"marketplace"}},
{"type":"Feature","geometry":{"type":"Point","coordinates":[3.5691709,14.7904738]},"properties":{"amenity":"marketplace"}},
{"type":"Feature","geometry":{"type":"Point","coordinates":[3.752573,14.7239523]},"properties":{"amenity":"marketplace"}},
{"type":"Feature","geometry":{"type":"Point","coordinates":[3.9465193,14.4472726]},"properties":{"amenity":"marketplace"}},
{"type":"Feature","geometry":{"type":"Point","coordinates":[3.825313,14.3440131]},"properties":{"amenity":"marketplace"}},
{"type":"Feature","geometry":{"type":"Point","coordinates":[4.0325153,14.9072969]},"properties":{"amenity":"marketplace"}},
{"type":"Feature","geometry":{"type":"Point","coordinates":[4.1639338,14.9056527]},"properties":{"amenity":"marketplace"}},
{"type":"Feature","geometry":{"type":"Point","coordinates":[4.2427126,14.7813419]},"properties":{"amenity":"marketplace"}},
{"type":"Feature","geometry":{"type":"Point","coordinates":[3.233349,15.3368862]},"properties":{"amenity":"marketplace"}},
{"type":"Feature","geometry":{"type":"Point","coordinates":[2.3207636,15.270774]},"properties":{"amenity":"marketplace"}},
{"type":"Feature","geometry":{"type":"Point","coordinates":[1.4976611,14.9599195]},"properties":{"amenity":"marketplace"}},
{"type":"Feature","geometry":{"type":"Point","coordinates":[1.9371387,14.3467759]},"properties":{"amenity":"marketplace"}},
{"type":"Feature","geometry":{"type":"Point","coordinates":[2.2721511,14.6782837]},"properties":{"amenity":"marketplace"}},
{"type":"Feature","geometry":{"type":"Point","coordinates":[2.7170832,14.718954]},"properties":{"amenity":"marketplace"}},
{"type":"Feature","geometry":{"type":"Point","coordinates":[2.6915484,14.6737852]},"properties":{"amenity":"marketplace"}},
{"type":"Feature","geometry":{"type":"Point","coordinates":[2.7042182,14.5282181]},"properties":{"amenity":"marketplace"}},
{"type":"Feature","geometry":{"type":"Point","coordinates":[2.8534678,14.2073427]},"properties":{"amenity":"marketplace"}},
{"type":"Feature","geometry":{"type":"Point","coordinates":[2.8581926,14.029761]},"properties":{"amenity":"marketplace"}},
{"type":"Feature","geometry":{"type":"Point","coordinates":[2.8614224,13.9615746]},"properties":{"amenity":"marketplace"}},
{"type":"Feature","geometry":{"type":"Point","coordinates":[2.5466305,14.0533059]},"properties":{"amenity":"marketplace"}},
{"type":"Feature","geometry":{"type":"Point","coordinates":[2.5539065,14.1844369]},"properties":{"amenity":"marketplace"}},
{"type":"Feature","geometry":{"type":"Point","coordinates":[2.4524489,13.9744926]},"properties":{"amenity":"marketplace"}},
{"type":"Feature","geometry":{"type":"Point","coordinates":[3.6034114,14.1862818]},"properties":{"amenity":"marketplace"}},
{"type":"Feature","geometry":{"type":"Point","coordinates":[3.4330767,14.1681936]},"properties":{"amenity":"marketplace"}},
{"type":"Feature","geometry":{"type":"Point","coordinates":[3.2129023,14.0060523]},"properties":{"amenity":"marketplace"}},
{"type":"Feature","geometry":{"type":"Point","coordinates":[3.1344885,13.9326771]},"properties":{"amenity":"marketplace"}},
{"type":"Feature","geometry":{"type":"Point","coordinates":[0.3609496,14.7428528]},"properties":{"amenity":"marketplace"}},
{"type":"Feature","geometry":{"type":"Point","coordinates":[7.5369781,18.0812691]},"properties":{"name":"Route Tahoua Arlit (RTA)","name:en":"Route Tahoua Arlit (RTA)","shop":"supermarket"}},
{"type":"Feature","geometry":{"type":"Point","coordinates":[7.9885508,13.7471748]},"properties":{"amenity":"marketplace","name":"Grand Marché de Tessaoua"}},
{"type":"Feature","geometry":{"type":"Point","coordinates":[2.8398223,13.3174151]},"properties":{"amenity":"marketplace"}},
{"type":"Feature","geometry":{"type":"Point","coordinates":[2.7572608,13.4098635]},"properties":{"amenity":"marketplace"}},
{"type":"Feature","geometry":{"type":"Point","coordinates":[2.5827449,13.3302207]},"properties":{"amenity":"marketplace"}},
{"type":"Feature","geometry":{"type":"Point","coordinates":[2.6276647,13.3909513]},"properties":{"amenity":"marketplace"}},
{"type":"Feature","geometry":{"type":"Point","coordinates":[1.0844286,14.558818]},"properties":{"amenity":"marketplace"}},
{"type":"Feature","geometry":{"type":"Point","coordinates":[0.7239404,14.5832749]},"properties":{"amenity":"marketplace"}},
{"type":"Feature","geometry":{"type":"Point","coordinates":[0.7530927,14.3062032]},"properties":{"amenity":"marketplace"}},
{"type":"Feature","geometry":{"type":"Point","coordinates":[0.5341924,14.6510423]},"properties":{"amenity":"marketplace"}},
{"type":"Feature","geometry":{"type":"Point","coordinates":[1.0838029,14.4714451]},"properties":{"amenity":"marketplace"}},
{"type":"Feature","geometry":{"type":"Point","coordinates":[3.1947238,13.0510816]},"properties":{"name":"Filin banza","shop":"supermarket"}},
{"type":"Feature","geometry":{"type":"Point","coordinates":[3.1948713,13.0494604]},"properties":{"name":"Dépôt laban","shop":"supermarket"}},
{"type":"Feature","geometry":{"type":"Point","coordinates":[0.736309,14.4125431]},"properties":{"amenity":"marketplace"}},
{"type":"Feature","geometry":{"type":"Point","coordinates":[0.7911822,14.4650999]},"properties":{"amenity":"marketplace"}},
{"type":"Feature","geometry":{"type":"Point","coordinates":[0.9010905,14.3364666]},"properties":{"amenity":"marketplace"}},
{"type":"Feature","geometry":{"type":"Point","coordinates":[4.7924114,16.1402734]},"properties":{"amenity":"marketplace"}},
{"type":"Feature","geometry":{"type":"Point","coordinates":[4.3393028,15.0586985]},"properties":{"amenity":"marketplace"}},
{"type":"Feature","geometry":{"type":"Point","coordinates":[0.5453772,13.9736262]},"properties":{"amenity":"marketplace"}},
{"type":"Feature","geometry":{"type":"Point","coordinates":[0.414582,14.0102924]},"properties":{"amenity":"marketplace"}},
{"type":"Feature","geometry":{"type":"Point","coordinates":[7.7760765,13.5037217]},"properties":{"amenity":"marketplace"}},
{"type":"Feature","geometry":{"type":"Point","coordinates":[3.8538368,12.7897784]},"properties":{"amenity":"marketplace","name":"Marché de Makouaroua"}},
{"type":"Feature","geometry":{"type":"Point","coordinates":[4.9486838,16.5502877]},"properties":{"amenity":"marketplace"}},
{"type":"Feature","geometry":{"type":"Point","coordinates":[4.6402951,16.522388]},"properties":{"amenity":"marketplace"}},
{"type":"Feature","geometry":{"type":"Point","coordinates":[1.6877134,12.8336607]},"properties":{"amenity":"marketplace"}},
{"type":"Feature","geometry":{"type":"Point","coordinates":[1.3603484,12.8756194]},"properties":{"amenity":"marketplace"}},
{"type":"Feature","geometry":{"type":"Point","coordinates":[1.9508126,14.6831685]},"properties":{"amenity":"marketplace"}},
{"type":"Feature","geometry":{"type":"Point","coordinates":[1.9517464,14.6804525]},"properties":{"amenity":"marketplace","name":"Marché à bétail"}},
{"type":"Feature","geometry":{"type":"Point","coordinates":[0.6253017,13.7830071]},"properties":{"amenity":"marketplace"}},
{"type":"Feature","geometry":{"type":"Point","coordinates":[2.1111166,13.5129295]},"properties":{"shop":"supermarket"}},
{"type":"Feature","geometry":{"type":"Point","coordinates":[0.855406,13.6947438]},"properties":{"amenity":"marketplace"}},
{"type":"Feature","geometry":{"type":"Point","coordinates":[1.0080254,13.7444777]},"properties":{"amenity":"marketplace"}},
{"type":"Feature","geometry":{"type":"Point","coordinates":[1.415093,13.6955757]},"properties":{"amenity":"marketplace"}},
{"type":"Feature","geometry":{"type":"Point","coordinates":[1.2447268,13.9221453]},"properties":{"amenity":"marketplace"}},
{"type":"Feature","geometry":{"type":"Point","coordinates":[1.5034836,14.0628247]},"properties":{"amenity":"marketplace"}},
{"type":"Feature","geometry":{"type":"Point","coordinates":[1.559241,13.7067123]},"properties":{"amenity":"marketplace"}},
{"type":"Feature","geometry":{"type":"Point","coordinates":[1.2907357,13.3480365]},"properties":{"amenity":"marketplace"}},
{"type":"Feature","geometry":{"type":"Point","coordinates":[2.1098066,13.5384582]},"properties":{"shop":"butcher"}},
{"type":"Feature","geometry":{"type":"Point","coordinates":[2.1119198,13.5427845]},"properties":{"shop":"butcher"}},
{"type":"Feature","geometry":{"type":"Point","coordinates":[2.110704,13.5402328]},"properties":{"shop":"butcher"}},
{"type":"Feature","geometry":{"type":"Point","coordinates":[2.1038716,13.5436863]},"properties":{"shop":"butcher"}},
{"type":"Feature","geometry":{"type":"Point","coordinates":[2.1377305,13.4936627]},"properties":{"name":"Marché Nouhou","shop":"supermarket"}},
{"type":"Feature","geometry":{"type":"Point","coordinates":[2.0679978,13.5789217]},"properties":{"shop":"bakery"}},
{"type":"Feature","geometry":{"type":"Point","coordinates":[12.8649273,13.5519804]},"properties":{"amenity":"marketplace"}},
{"type":"Feature","geometry":{"type":"Point","coordinates":[12.2814789,13.6454642]},"properties":{"amenity":"marketplace"}},
{"type":"Feature","geometry":{"type":"Point","coordinates":[13.1153703,14.2490928]},"properties":{"amenity":"marketplace"}},
{"type":"Feature","geometry":{"type":"Point","coordinates":[12.4217296,13.1849614]},"properties":{"amenity":"marketplace"}},
{"type":"Feature","geometry":{"type":"Point","coordinates":[13.4128319,14.4276055]},"properties":{"amenity":"marketplace"}},
{"type":"Feature","geometry":{"type":"Point","coordinates":[4.5574901,15.7022968]},"properties":{"amenity":"marketplace"}},
{"type":"Feature","geometry":{"type":"Point","coordinates":[4.7780769,15.6235816]},"properties":{"amenity":"marketplace"}},
{"type":"Feature","geometry":{"type":"Point","coordinates":[12.0544805,13.5510175]},"properties":{"amenity":"marketplace"}},
{"type":"Feature","geometry":{"type":"Point","coordinates":[13.0239673,14.1749264]},"properties":{"amenity":"marketplace"}},
{"type":"Feature","geometry":{"type":"Point","coordinates":[9.8285796,13.6770949]},"properties":{"amenity":"marketplace"}},
{"type":"Feature","geometry":{"type":"Point","coordinates":[6.7073216,15.3748498]},"properties":{"amenity":"marketplace"}},
{"type":"Feature","geometry":{"type":"Point","coordinates":[2.0554092,13.5000386]},"properties":{"amenity":"marketplace","name":"marche de betaille Harobanda"}},
{"type":"Feature","geometry":{"type":"Point","coordinates":[2.0048925,13.4567976]},"properties":{"amenity":"marketplace","name":"Maison du Paysannes YOWARE commune 5","opening_hours":"Mo-Sa 08:00-18:00"}},
{"type":"Feature","geometry":{"type":"Point","coordinates":[8.721351,14.823539]},"properties":{"amenity":"marketplace"}},
{"type":"Feature","geometry":{"type":"Point","coordinates":[8.8759335,14.9690503]},"properties":{"amenity":"marketplace"}},
{"type":"Feature","geometry":{"type":"Point","coordinates":[2.1384783,13.53774]},"properties":{"name":"vente de condiments","shop":"convenience"}},
{"type":"Feature","geometry":{"type":"Point","coordinates":[3.3475237,12.2307908]},"properties":{"amenity":"marketplace"}},
{"type":"Feature","geometry":{"type":"Point","coordinates":[7.2907149,14.9429637]},"properties":{"amenity":"marketplace"}},
{"type":"Feature","geometry":{"type":"Point","coordinates":[7.443969,15.0126023]},"properties":{"amenity":"marketplace"}},
{"type":"Feature","geometry":{"type":"Point","coordinates":[8.6373861,15.3358196]},"properties":{"amenity":"marketplace"}},
{"type":"Feature","geometry":{"type":"Point","coordinates":[7.8967723,15.6180924]},"properties":{"amenity":"marketplace"}},
{"type":"Feature","geometry":{"type":"Point","coordinates":[7.8926255,15.6187228]},"properties":{"amenity":"marketplace"}},
{"type":"Feature","geometry":{"type":"Point","coordinates":[2.152848,12.4163253]},"properties":{"amenity":"marketplace"}},
{"type":"Feature","geometry":{"type":"Point","coordinates":[8.6263086,14.7251704]},"properties":{"amenity":"marketplace"}},
{"type":"Feature","geometry":{"type":"Point","coordinates":[2.1572818,13.4459996]},"properties":{"name":"IM","shop":"supermarket"}},
{"type":"Feature","geometry":{"type":"Point","coordinates":[6.8146989,15.1502789]},"properties":{"amenity":"marketplace"}},
{"type":"Feature","geometry":{"type":"Point","coordinates":[2.0641681,13.562392]},"properties":{"addr:street":"Rue FK - 160","name":"Boulangerie HDN","opening_hours":"24/7","phone":"0022794714833","shop":"bakery"}},
{"type":"Feature","geometry":{"type":"Point","coordinates":[2.1541486,13.487677]},"properties":{"amenity":"marketplace","name":"Marché Bonkaney"}},
{"type":"Feature","geometry":{"type":"Point","coordinates":[2.1926633,13.4644167]},"properties":{"addr:street":"Trans-Sahelian Highway","name":"Alimentation Generale Carrefour Aeroport","opening_hours":"24/7","shop":"convenience"}},
{"type":"Feature","geometry":{"type":"Point","coordinates":[7.9867609,16.9714263]},"properties":{"name":"Kasuwa Tole","name:fr":"Marché Tole","opening_hours":"Mo-Su 09:00-18:00","shop":"supermarket"}},
{"type":"Feature","geometry":{"type":"Point","coordinates":[2.6890751,13.2300469]},"properties":{"name":"Boucher","shop":"butcher"}},
{"type":"Feature","geometry":{"type":"Point","coordinates":[2.9039464,13.0831863]},"properties":{"amenity":"marketplace","name":"Marché Hebdomadaire"}},
{"type":"Feature","geometry":{"type":"Point","coordinates":[2.8273699,13.1816364]},"properties":{"addr:city":"N'Gonga Zarma","addr:district":"N'Gonga","addr:place":"N'Gonga Zarma","amenity":"marketplace","marketplace:status":"formal","name":"Marché N'Gonga","opening_hours":"Sa 8:00-19:00","operator:type":"government","ownership":"government","source":"WNA Hub - Ruwa Niger project"}},
{"type":"Feature","geometry":{"type":"Point","coordinates":[2.119908,13.5209567]},"properties":{"amenity":"marketplace"}},
{"type":"Feature","geometry":{"type":"Point","coordinates":[2.1201226,13.5209385]},"properties":{"amenity":"marketplace"}},
{"type":"Feature","geometry":{"type":"Point","coordinates":[2.119507,13.520456]},"properties":{"amenity":"marketplace"}},
{"type":"Feature","geometry":{"type":"Point","coordinates":[2.1197289,13.5210268]},"properties":{"shop":"supermarket"}},
{"type":"Feature","geometry":{"type":"Point","coordinates":[2.0987169,13.5197824]},"properties":{"shop":"supermarket"}},
{"type":"Feature","geometry":{"type":"Point","coordinates":[4.0456188,13.8490557]},"properties":{"addr:city":"Bagagi","amenity":"marketplace","name":"Marché de Betail","operator":"Publique"}},
{"type":"Feature","geometry":{"type":"Point","coordinates":[2.0712085,13.5748266]},"properties":{"shop":"convenience"}},
{"type":"Feature","geometry":{"type":"Point","coordinates":[2.0712306,13.5749302]},"properties":{"shop":"convenience"}},
{"type":"Feature","geometry":{"type":"Point","coordinates":[9.7576775,14.4598246]},"properties":{"amenity":"marketplace"}},
{"type":"Feature","geometry":{"type":"Point","coordinates":[9.9701005,14.2193073]},"properties":{"amenity":"marketplace"}},
{"type":"Feature","geometry":{"type":"Point","coordinates":[10.0739461,14.4143519]},"properties":{"amenity":"marketplace"}},
{"type":"Feature","geometry":{"type":"Point","coordinates":[10.2004551,14.3211157]},"properties":{"amenity":"marketplace"}},
{"type":"Feature","geometry":{"type":"Point","coordinates":[10.8686136,14.0043384]},"properties":{"amenity":"marketplace"}},
{"type":"Feature","geometry":{"type":"Point","coordinates":[10.7278802,13.9868518]},"properties":{"amenity":"marketplace"}},
{"type":"Feature","geometry":{"type":"Point","coordinates":[0.7603732,14.0052543]},"properties":{"amenity":"marketplace","name":"Marché Central Téra"}},
{"type":"Feature","geometry":{"type":"Point","coordinates":[0.7533458,14.0078389]},"properties":{"amenity":"marketplace","name":"Petit Marché de Téra"}},
{"type":"Feature","geometry":{"type":"Point","coordinates":[0.7559288,14.0068656]},"properties":{"name":"Boucher Commando Téra","shop":"butcher"}},
{"type":"Feature","geometry":{"type":"Point","coordinates":[0.7522084,14.0054564]},"properties":{"shop":"bakery"}},
{"type":"Feature","geometry":{"type":"Point","coordinates":[0.7464919,14.0041973]},"properties":{"shop":"convenience"}},
{"type":"Feature","geometry":{"type":"Point","coordinates":[10.0425952,14.2086914]},"properties":{"amenity":"marketplace"}},
{"type":"Feature","geometry":{"type":"Point","coordinates":[10.0068845,13.7756764]},"properties":{"amenity":"marketplace"}},
{"type":"Feature","geometry":{"type":"Point","coordinates":[10.1581406,13.7523357]},"properties":{"amenity":"marketplace"}},
{"type":"Feature","geometry":{"type":"Point","coordinates":[10.4257477,13.6513036]},"properties":{"amenity":"marketplace"}},
{"type":"Feature","geometry":{"type":"Point","coordinates":[10.4402662,13.5353738]},"properties":{"amenity":"marketplace"}},
{"type":"Feature","geometry":{"type":"Point","coordinates":[10.6290941,13.5762885]},"properties":{"amenity":"marketplace"}},
{"type":"Feature","geometry":{"type":"Point","coordinates":[10.7487426,13.7237905]},"properties":{"amenity":"marketplace"}},
{"type":"Feature","geometry":{"type":"Point","coordinates":[9.8255627,13.9603722]},"properties":{"amenity":"marketplace"}},
{"type":"Feature","geometry":{"type":"Point","coordinates":[9.7326828,13.8867539]},"properties":{"amenity":"marketplace"}},
{"type":"Feature","geometry":{"type":"Point","coordinates":[9.8586309,13.8256005]},"properties":{"amenity":"marketplace"}},
{"type":"Feature","geometry":{"type":"Point","coordinates":[9.7267333,13.4850429]},"properties":{"amenity":"marketplace"}},
{"type":"Feature","geometry":{"type":"Point","coordinates":[10.2638341,13.9831815]},"properties":{"amenity":"marketplace"}},
{"type":"Feature","geometry":{"type":"Point","coordinates":[2.8968147,13.2050333]},"properties":{"addr:city":"Louloudje Zarma","addr:district":"N'Gonga","addr:place":"Louloudje Zarma","amenity":"marketplace","marketplace:status":"formal","name":"Marche de Louloudje","opening_hours":"We 8:00-19:00","operator:type":"community","ownership":"government","source":"WNA Hub - Ruwa Niger project"}},
{"type":"Feature","geometry":{"type":"Point","coordinates":[2.8278125,13.1810865]},"properties":{"addr:city":"N'Gonga Zarma","addr:district":"N'Gonga","addr:place":"N'Gonga Zarma","amenity":"marketplace","marketplace:status":"formal","name":"Marche du Betail N'Gonga","opening_hours":"Sa 8:00-19:00","operator:type":"government","ownership":"government","source":"WNA Hub - Ruwa Niger project"}},
{"type":"Feature","geometry":{"type":"Point","coordinates":[2.7067287,13.204799]},"properties":{"addr:city":"Dar Es Salam Koira Tegui","addr:district":"N'Gonga","addr:place":"Dar Es Salam Koira Tegui","amenity":"marketplace","marketplace:status":"informal","name":"Marche du Bois","opening_hours":"24/7","operator:type":"union","ownership":"community","source":"WNA Hub - Ruwa Niger project"}},
{"type":"Feature","geometry":{"type":"Point","coordinates":[2.6859873,13.2309138]},"properties":{"addr:city":"Kodo","addr:district":"Fakara","addr:place":"Kodo","amenity":"marketplace","marketplace:status":"formal","name":"Marche de Betail","opening_hours":"Su 8:00-19:00","operator:type":"government","ownership":"community","source":"WNA Hub - Ruwa Niger project"}},
{"type":"Feature","geometry":{"type":"Point","coordinates":[2.5393746,13.0470696]},"properties":{"addr:city":"Tanna Beri","addr:district":"Fakara","addr:place":"Tanna Beri","amenity":"marketplace","marketplace:status":"formal","name":"Marche de Tanna Beri","opening_hours":"Mo 8:00-19:00","operator:type":"community","ownership":"community","source":"WNA Hub - Ruwa Niger project"}},
{"type":"Feature","geometry":{"type":"Point","coordinates":[2.7090449,13.2004563]},"properties":{"addr:city":"Dar Es Salam Koira Tegui","addr:district":"N'Gonga","addr:place":"Dar Es Salam Koira Tegui","amenity":"marketplace","marketplace:status":"formal","name":"Marche du Bois Dar Es Salam","opening_hours":"24/7","operator:type":"government","ownership":"other","source":"WNA Hub - Ruwa Niger project"}},
{"type":"Feature","geometry":{"type":"Point","coordinates":[2.487741,13.1285622]},"properties":{"addr:city":"Gombewa","addr:district":"Fakara","addr:place":"Gombewa","amenity":"marketplace","marketplace:status":"formal","name":"Marche de Gombewa","opening_hours":"We 8:00-19:00","operator:type":"union","ownership":"market union","source":"WNA Hub - Ruwa Niger project"}},
{"type":"Feature","geometry":{"type":"Point","coordinates":[2.0969,13.5321859]},"properties":{"name":"Boucherie plateau Mauris delasse","shop":"supermarket"}},
{"type":"Feature","geometry":{"type":"Point","coordinates":[2.0934179,13.5307553]},"properties":{"name":"Super Market Waffa et frere","shop":"supermarket"}},
{"type":"Feature","geometry":{"type":"Point","coordinates":[2.096316,13.529927]},"properties":{"name":"Elegance meuble","shop":"supermarket"}},
{"type":"Feature","geometry":{"type":"Point","coordinates":[10.1386831,13.5170751]},"properties":{"amenity":"marketplace"}},
{"type":"Feature","geometry":{"type":"Point","coordinates":[2.139389,13.534221]},"properties":{"amenity":"marketplace","name":"Marché Albarka","name:en":"Albarka Market","name:fr":"Marché Albarka","opening_hours":"sunrise-sunset","operator":"private","organic":"yes","wheelchair":"limited"}},
{"type":"Feature","geometry":{"type":"Point","coordinates":[2.1388824,13.535828]},"properties":{"amenity":"marketplace","name":"Marché Bonkaney","name:en":"Bonkaney Market","name:fr":"Marché Bonkaney","opening_hours":"sunrise-sunset","operator":"govnnement","organic":"yes","wheelchair":"limited"}},
{"type":"Feature","geometry":{"type":"Point","coordinates":[10.0942302,13.3776252]},"properties":{"amenity":"marketplace"}},
{"type":"Feature","geometry":{"type":"Point","coordinates":[10.2691844,13.428347]},"properties":{"amenity":"marketplace"}},
{"type":"Feature","geometry":{"type":"Point","coordinates":[13.1146381,14.2569322]},"properties":{"shop":"butcher"}},
{"type":"Feature","geometry":{"type":"Point","coordinates":[13.1045954,14.2453077]},"properties":{"phone":"97778002","shop":"convenience"}},
{"type":"Feature","geometry":{"type":"Point","coordinates":[2.1248748,13.4953928]},"properties":{"name":"Boulangerie","opening_hours":"24/7","shop":"bakery"}},
{"type":"Feature","geometry":{"type":"Point","coordinates":[2.1127994,13.5079618]},"properties":{"Boutique":"Groupement Féminin FARA’A","diet:halal":"yes","diet:kosher":"no","name":"Coopérative Féminine","opening_hours":"Mo-Fr 08:00-17:00+","payment:credit_cards":"no","payment:debit_cards":"no","shop":"convenience","wheelchair":"yes"}},
{"type":"Feature","geometry":{"type":"Point","coordinates":[2.1179238,13.5081868]},"properties":{"name":"Boucherie","shop":"butcher"}},
{"type":"Feature","geometry":{"type":"Point","coordinates":[2.119117,13.508887]},"properties":{"name":"Boucherie CHOSS","shop":"butcher"}},
{"type":"Feature","geometry":{"type":"Point","coordinates":[2.1189743,13.5094996]},"properties":{"name":"Boucher","shop":"butcher"}},
{"type":"Feature","geometry":{"type":"Point","coordinates":[2.1192601,13.5093869]},"properties":{"shop":"convenience"}},
{"type":"Feature","geometry":{"type":"Point","coordinates":[2.0875589,13.5540535]},"properties":{"name":"Boulangerie","shop":"bakery"}},
{"type":"Feature","geometry":{"type":"Point","coordinates":[2.18154,13.528478]},"properties":{"name":"Boulangerie pâtisserie youssoura","shop":"bakery"}},
{"type":"Feature","geometry":{"type":"Point","coordinates":[2.121766,13.5276491]},"properties":{"name":"Établissement Zabeirou Abdoul Karim","shop":"butcher"}},
{"type":"Feature","geometry":{"type":"Point","coordinates":[7.4573362,13.5504187]},"properties":{"amenity":"marketplace","name":"Marché à bétail"}},
{"type":"Feature","geometry":{"type":"Point","coordinates":[7.5376249,13.4147613]},"properties":{"amenity":"marketplace","name":"Marché de Magami"}},
{"type":"Feature","geometry":{"type":"Point","coordinates":[7.4471245,13.546543]},"properties":{"amenity":"marketplace","name":"marché de Tchadoua"}},
{"type":"Feature","geometry":{"type":"Point","coordinates":[7.4364114,13.5446388]},"properties":{"amenity":"marketplace","description":"Marché des Demi Gros des produits agroalimentaires.","name":"Marché de Demi Gros"}},
{"type":"Feature","geometry":{"type":"Point","coordinates":[7.1342196,13.4858019]},"properties":{"name":"Boulangerie La Référence","shop":"bakery"}},
{"type":"Feature","geometry":{"type":"Point","coordinates":[7.1256183,13.4914064]},"properties":{"name":"Complexe SGB","shop":"supermarket"}},
{"type":"Feature","geometry":{"type":"Point","coordinates":[7.1115703,13.4912615]},"properties":{"name":"Boulangerie Pâtisserie Bab Salam","shop":"bakery"}},
{"type":"Feature","geometry":{"type":"Point","coordinates":[8.2550711,13.4490195]},"properties":{"amenity":"marketplace","name":"Marché de Korgon"}},
{"type":"Feature","geometry":{"type":"Point","coordinates":[8.240859,13.3451755]},"properties":{"amenity":"marketplace","name":"Marché de Hawandawaki"}},
{"type":"Feature","geometry":{"type":"Point","coordinates":[8.1763744,13.4174705]},"properties":{"amenity":"marketplace","name":"Marché de Gabaouri"}},
{"type":"Feature","geometry":{"type":"Point","coordinates":[2.1276051,13.5449733]},"properties":{"name":"Pizza Pain","shop":"bakery"}},
{"type":"Feature","geometry":{"type":"Point","coordinates":[7.109803,13.4933692]},"properties":{"name":"Établissement Sabiou Moussa Kalla","shop":"supermarket"}},
{"type":"Feature","geometry":{"type":"Point","coordinates":[7.1082213,13.5004057]},"properties":{"amenity":"marketplace","name":"Marché Oriba de Maradi"}},
{"type":"Feature","geometry":{"type":"Point","coordinates":[7.108528,13.5016097]},"properties":{"name":"Établissement Oriba","shop":"supermarket"}},
{"type":"Feature","geometry":{"type":"Point","coordinates":[7.1093737,13.4945705]},"properties":{"name":"Boutique Komma Bagori et Fils","shop":"supermarket"}},
{"type":"Feature","geometry":{"type":"Point","coordinates":[2.1933612,13.463179]},"properties":{"name":"Boulangerie la Raxn","shop":"bakery"}},
{"type":"Feature","geometry":{"type":"Point","coordinates":[2.1406077,13.5592949]},"properties":{"name":"Boulangerie Patisserie Le Champion","shop":"bakery"}},
{"type":"Feature","geometry":{"type":"Point","coordinates":[2.1596673,13.4942319]},"properties":{"name":"Bon Pain","shop":"bakery"}},
{"type":"Feature","geometry":{"type":"Point","coordinates":[2.1459908,13.5093224]},"properties":{"name":"Supermarché Kémémé","shop":"supermarket"}},
{"type":"Feature","geometry":{"type":"Point","coordinates":[2.121546,13.5718579]},"properties":{"name":"Boulangerie Alafiya","shop":"bakery"}},
{"type":"Feature","geometry":{"type":"Point","coordinates":[5.6754228,13.9658693]},"properties":{"amenity":"marketplace"}},
{"type":"Feature","geometry":{"type":"Point","coordinates":[2.083982,13.5686603]},"properties":{"addr:housenumber":"+22797338238","name":"Alimentation Générale Gobir Business","opening_hours":"Mo-Su 09:00-23:30","shop":"convenience"}},
{"type":"Feature","geometry":{"type":"Point","coordinates":[6.7434133,15.81457]},"properties":{"name":"Tamaya","shop":"supermarket"}},
{"type":"Feature","geometry":{"type":"Point","coordinates":[5.2423071,14.8766135]},"properties":{"amenity":"marketplace","name":"Marché de bestiaux"}},
{"type":"Feature","geometry":{"type":"Point","coordinates":[1.572656,13.849748]},"properties":{"amenity":"marketplace","name":"marché à bétails"}},
{"type":"Feature","geometry":{"type":"Point","coordinates":[1.570095,13.8493702]},"properties":{"name":"Boucherie","shop":"butcher"}},
{"type":"Feature","geometry":{"type":"Point","coordinates":[2.0823201,13.540845]},"properties":{"addr:street":"Pharmacie 2eme forage","name":"Alimentation chez MAMi","shop":"supermarket"}},
{"type":"Feature","geometry":{"type":"LineString","coordinates":[[2.1295945,13.507503],[2.1295167,13.5073455],[2.1294087,13.5072335],[2.1292601,13.5071525],[2.1290775,13.507119],[2.1289328,13.5071354],[2.1287769,13.507201],[2.128653,13.5073052],[2.1285685,13.507436],[2.1285243,13.5076005],[2.1285411,13.50779],[2.1286171,13.5079512],[2.1287383,13.5080747],[2.1288862,13.5081523],[2.1290597,13.5081825],[2.1292155,13.5081631],[2.1293865,13.5080837],[2.1295118,13.5079636],[2.1295893,13.5078158],[2.129616,13.5076642],[2.1295945,13.507503]]},"properties":{"amenity":"marketplace","name":"Nouveau Marché"}},
{"type":"Feature","geometry":{"type":"LineString","coordinates":[[2.0807444,13.5381655],[2.0813471,13.538596],[2.0823435,13.5372776],[2.081117,13.5364014],[2.0805678,13.5371282],[2.0811915,13.5375738],[2.0807444,13.5381655]]},"properties":{"amenity":"marketplace","name":"Marché de Yantala"}},
{"type":"Feature","geometry":{"type":"LineString","coordinates":[[0.759862,14.0059307],[0.760879,14.0058062],[0.7608179,14.0048332],[0.7596705,14.0050685],[0.759862,14.0059307]]},"properties":{"amenity":"marketplace","source":"Microsoft Bing satellite imagery 2012"}},
{"type":"Feature","geometry":{"type":"LineString","coordinates":[[5.2618169,14.892544],[5.263529,14.8926053],[5.2642467,14.8926314],[5.2642783,14.8925666],[5.2641208,14.8920003],[5.2640814,14.8918313],[5.2640719,14.8917771],[5.2640739,14.8910943],[5.2640588,14.890721],[5.2640625,14.8905428],[5.2640608,14.8904602],[5.2640578,14.8904272],[5.2640411,14.8903944],[5.2639921,14.8903588],[5.2635118,14.8903842],[5.2630801,14.890946],[5.2629575,14.8910999],[5.2628629,14.8912201],[5.2626099,14.8915443],[5.2625833,14.8915791],[5.262554,14.8916176],[5.2625223,14.8916581],[5.262497,14.891692],[5.2624688,14.8917289],[5.2623322,14.8917623],[5.2621219,14.8920417],[5.2620649,14.8921072],[5.2620227999999999,14.8921623],[5.261969,14.8922426],[5.2619261,14.8923018],[5.2617942,14.8924948],[5.2618169,14.892544]]},"properties":{"amenity":"marketplace","barrier":"wall","name":"Grand Marché","project:mappingforniger":"yes","source":"bing"}},
{"type":"Feature","geometry":{"type":"LineString","coordinates":[[2.0775845,13.5064019],[2.0776584,13.5064111],[2.0776641,13.5063669],[2.0775903,13.5063578],[2.0775845,13.5064019]]},"properties":{"building":"yes","project:mappingforniger":"yes","shop":"farm","source":"survey"}},
{"type":"Feature","geometry":{"type":"LineString","coordinates":[[7.9871691,16.9724595],[7.9874588,16.9723569],[7.9876734,16.9709613],[7.986461,16.9714641],[7.9871691,16.9724595]]},"properties":{"amenity":"marketplace","landuse":"commercial","name":"Marche Tôle","project:pdevii":"yes","source":"survey","survey:date":"2016-04-15"}},
{"type":"Feature","geometry":{"type":"LineString","coordinates":[[12.6160232,13.3119729],[12.6162257,13.3121963],[12.6162539,13.312227],[12.6162734,13.3122489],[12.6163465,13.3123295],[12.6163734,13.3123591],[12.6173119,13.3133943],[12.616806,13.3138199],[12.6166286,13.3139633],[12.6165433,13.3140154],[12.6152862,13.3125639],[12.6160232,13.3119729]]},"properties":{"amenity":"marketplace","name":"Marché Central de Diffa"}},
{"type":"Feature","geometry":{"type":"LineString","coordinates":[[7.0660884,13.5746356],[7.0670824,13.5727822],[7.0656181,13.5722427],[7.0653872,13.5728059],[7.0652611,13.5732861],[7.0653779,13.5738762],[7.0656628,13.5744527],[7.0660884,13.5746356]]},"properties":{"amenity":"marketplace","name":"Tibiri Market","note":"Operates on Wednesdays"}},
{"type":"Feature","geometry":{"type":"LineString","coordinates":[[3.4472373,11.8841542],[3.4472481,11.8830938],[3.4478864,11.883204],[3.4484229,11.883414],[3.4487447,11.8835662],[3.4490398,11.8837394],[3.4490398,11.8841017],[3.4472373,11.8841542]]},"properties":{"amenity":"marketplace"}},
{"type":"Feature","geometry":{"type":"LineString","coordinates":[[2.1191778,13.5289068],[2.1167942,13.5296223],[2.1171153,13.530568],[2.1194016,13.5298399],[2.1194485,13.5297431],[2.1191778,13.5289068]]},"properties":{"amenity":"marketplace","landuse":"retail","name":"Marché Boukoki","name:dje":"Boukoki Habou Kaina","name:fr":"Marché Boukoki","opening_hours":"PH,Mo-Su 08:00-18:00","wheelchair":"yes"}},
{"type":"Feature","geometry":{"type":"LineString","coordinates":[[2.1159109,13.5221727],[2.1156406,13.5220845],[2.1125134,13.5230766],[2.1126209,13.5231855],[2.1129414,13.5234245],[2.1132487,13.5235282],[2.1137786,13.523707],[2.1141241,13.5239587],[2.1144652,13.5241506],[2.1149781,13.5244043],[2.1155674,13.5246921],[2.1158954,13.5249571],[2.1161127,13.5252101],[2.116228,13.5254709],[2.1164521,13.5261444],[2.1166277,13.5261098],[2.1166942,13.5261204],[2.1168242,13.5261105],[2.1169058,13.5261254],[2.117058,13.5261281],[2.1171662,13.526058],[2.1173645,13.5261071],[2.1174979,13.5261877],[2.1176709,13.5262227],[2.1178628,13.5261841],[2.118016,13.5261875],[2.1181248,13.5261943],[2.1182571,13.5262261],[2.1183747,13.5262179],[2.1185949,13.5260513],[2.1187488,13.5260703],[2.1188635,13.5260502],[2.1190458,13.5258659],[2.1192584,13.525746],[2.1194727,13.5255938],[2.1195977,13.5254936],[2.1196672,13.5255528],[2.1197308,13.5256549],[2.1199495,13.5255749],[2.1204699,13.5254029],[2.120269,13.5249078],[2.1205588,13.5248239],[2.1200911,13.5237555],[2.120015,13.5237576],[2.1192319,13.5239923],[2.1190848,13.5240038],[2.1189464,13.5240009],[2.1182151,13.523417],[2.1178572,13.5231423],[2.1176194,13.522419],[2.1174378,13.5217643],[2.1172875,13.5218095],[2.117663,13.5230717],[2.1166355,13.5241778],[2.1152431,13.5230043],[2.115664,13.5224801],[2.1159109,13.5221727]]},"properties":{"amenity":"marketplace","landuse":"retail","name":"Marché de Katako","name:dje":"Katako Habo","name:en":"Katako Market","name:fr":"Marché de Katako","name:ha":"Kasuwar Katako","opening_hours":"sunrise-sunset"}},
{"type":"Feature","geometry":{"type":"LineString","coordinates":[[2.1447803,13.5138787],[2.1447356,13.5138411],[2.1437383,13.5130018],[2.1429918,13.5138403],[2.1440339,13.5147172],[2.1447803,13.5138787]]},"properties":{"amenity":"marketplace","name":"Marché de Wadata"}},
{"type":"Feature","geometry":{"type":"LineString","coordinates":[[2.1341241,13.5136301],[2.1338555,13.514364],[2.1331605,13.5141067],[2.1333056,13.5137313],[2.1334082,13.5134658],[2.1341241,13.5136301]]},"properties":{"amenity":"marketplace","barrier":"wall","name":"Marché Assalam"}},
{"type":"Feature","geometry":{"type":"LineString","coordinates":[[8.9919363,13.8082712],[8.9933043,13.8091005],[8.9947598,13.8099828],[8.9953456,13.8090714],[8.9959624,13.8081119],[8.9944464,13.8071929],[8.9931389,13.8064003],[8.9925164,13.8073687],[8.9919363,13.8082712]]},"properties":{"amenity":"marketplace","name":"Grand Marché Dolé","project:pdevii":"yes"}},
{"type":"Feature","geometry":{"type":"LineString","coordinates":[[2.1164536,13.5458814],[2.1132592,13.5456039],[2.1130667,13.5435356],[2.1131381,13.5435222],[2.1133541,13.543414],[2.1136387,13.5432447],[2.113747,13.5432243],[2.1138516,13.543223],[2.1139052,13.5432269],[2.1164968,13.5448559],[2.1164536,13.5458814]]},"properties":{"amenity":"marketplace","landuse":"commercial","name":"Marché de Bétails de Tourakou","name:ar":"توراكو","name:en":"Tourakou Livestock Marketou","name:fr":"Marché de Bétails de Tourakou"}},
{"type":"Feature","geometry":{"type":"LineString","coordinates":[[8.8748608,14.9686],[8.8755931,14.9676992],[8.8757015,14.967807],[8.8757425,14.9678366],[8.8760167,14.9680344],[8.876907,14.968676],[8.8762834,14.9695149],[8.8758115,14.969961],[8.875405,14.9703516],[8.875431,14.969522],[8.8753713,14.9692074],[8.8748072,14.9686574],[8.8748608,14.9686]]},"properties":{"amenity":"marketplace","name":"Market"}},
{"type":"Feature","geometry":{"type":"LineString","coordinates":[[5.2520524,13.7943676],[5.2530176,13.7941642],[5.2527494,13.7928482],[5.2517458,13.7930971],[5.2520524,13.7943676]]},"properties":{"amenity":"marketplace"}},
{"type":"Feature","geometry":{"type":"LineString","coordinates":[[7.177343,13.3634156],[7.1769889,13.3645795],[7.1767435,13.3644594],[7.1766349,13.3647674],[7.1762929,13.3646943],[7.1762714,13.3650022],[7.1765826,13.3650544],[7.1768079,13.3649187],[7.1773269,13.3649031],[7.1778097,13.3643289],[7.1779558,13.3641828],[7.178153,13.3640367],[7.1781651,13.3637966],[7.1782455,13.3634469],[7.1781007,13.3632799],[7.1775374,13.3631546],[7.1774706,13.3633659],[7.177343,13.3634156]]},"properties":{"amenity":"marketplace"}},
{"type":"Feature","geometry":{"type":"LineString","coordinates":[[7.1635839,13.2963275],[7.1648751,13.297313],[7.1649188,13.2975876],[7.1634962,13.2993397],[7.1621806,13.2983438],[7.1635839,13.2963275]]},"properties":{"amenity":"marketplace","name":"Grand marché de Madarounfa","opening_hours":"Fr 09:00-18:00"}},
{"type":"Feature","geometry":{"type":"LineString","coordinates":[[4.031831,13.6302398],[4.0318157,13.6304243],[4.0313737,13.6310803],[4.0317423,13.6314718],[4.0317207,13.631521],[4.0316181,13.6316515],[4.0315928,13.631777],[4.0315477,13.6320053],[4.0314889,13.6321696],[4.0316184,13.6321691],[4.0316435,13.6321674],[4.0326153,13.6313182],[4.032695,13.6312478],[4.0327254,13.6312201],[4.0327519,13.6311963],[4.0327881,13.6311648],[4.0328294,13.6311277],[4.0329152,13.6310551],[4.0329222,13.6310426],[4.0330615,13.6308394],[4.0330746,13.6308201],[4.0329026,13.6302683],[4.0328167,13.6302706],[4.0320012,13.6302505],[4.031831,13.6302398]]},"properties":{"amenity":"marketplace"}},
{"type":"Feature","geometry":{"type":"LineString","coordinates":[[2.0980982,13.4804904],[2.0981446,13.4804903],[2.0981445,13.4804695],[2.0980981,13.4804696],[2.0980982,13.4804904]]},"properties":{"name":"Alimentation Générale\"Bon Prix\"","shop":"supermarket"}},
{"type":"Feature","geometry":{"type":"LineString","coordinates":[[3.2053563,13.0517025],[3.2053703,13.0517184],[3.2054043,13.05169],[3.2053903,13.0516741],[3.2053563,13.0517025]]},"properties":{"amenity":"marketplace","building":"yes","name":"Alimentation Koira"}},