{"type":"FeatureCollection","features":[
{"type":"Feature","geometry":{"type":"Point","coordinates":[-13.2725307,8.4627645]},"properties":{"created_by":"Potlatch 0.10f","name":"Freetown Supermarket","shop":"supermarket"}},
{"type":"Feature","geometry":{"type":"Point","coordinates":[-13.2683958,8.4830877]},"properties":{"name":"Essentials","shop":"supermarket"}},
{"type":"Feature","geometry":{"type":"Point","coordinates":[-13.2616323,8.4852949]},"properties":{"name":"Monoprix","shop":"supermarket"}},
{"type":"Feature","geometry":{"type":"Point","coordinates":[-13.2637609,8.4851251]},"properties":{"name":"St. Mary's","shop":"supermarket"}},
{"type":"Feature","geometry":{"type":"Point","coordinates":[-13.2548516,8.4624662]},"properties":{"name":"St. Mary's","shop":"supermarket"}},
{"type":"Feature","geometry":{"type":"Point","coordinates":[-13.2833622,8.4751622]},"properties":{"name":"China Town","shop":"supermarket"}},
{"type":"Feature","geometry":{"type":"Point","coordinates":[-13.2394209,8.4834536]},"properties":{"name":"super market","shop":"supermarket"}},
{"type":"Feature","geometry":{"type":"Point","coordinates":[-12.0562311,8.8895528]},"properties":{"shop":"supermarket"}},
{"type":"Feature","geometry":{"type":"Point","coordinates":[-11.7403359,7.9653409]},"properties":{"name":"Albertson's Supermarket","opening_hours":"Mo-Sa 00:00-10:00","shop":"supermarket"}},
{"type":"Feature","geometry":{"type":"Point","coordinates":[-13.2378446,8.4891756]},"properties":{"amenity":"marketplace","name":"King Jimmy Market"}},
{"type":"Feature","geometry":{"type":"Point","coordinates":[-12.2410981,9.4991759]},"properties":{"shop":"convenience"}},
{"type":"Feature","geometry":{"type":"Point","coordinates":[-12.2059624,9.1083574]},"properties":{"shop":"convenience"}},
{"type":"Feature","geometry":{"type":"Point","coordinates":[-13.2683059,8.485668]},"properties":{"name":"Foodland","shop":"supermarket"}},
{"type":"Feature","geometry":{"type":"Point","coordinates":[-13.2404303,8.4836807]},"properties":{"amenity":"marketplace","source":"MSF-CH"}},
{"type":"Feature","geometry":{"type":"Point","coordinates":[-13.250248,8.4815779]},"properties":{"shop":"convenience","source":"MSF-CH"}},
{"type":"Feature","geometry":{"type":"Point","coordinates":[-13.2078418,8.4763466]},"properties":{"amenity":"marketplace","name":"BUTTOM MANGO MARKET","source":"MSF-CH"}},
{"type":"Feature","geometry":{"type":"Point","coordinates":[-13.1767002,8.4612018]},"properties":{"amenity":"marketplace","name":"KUNTOLOR COMMUNITY MARKET","osm_id":"3342157259","source":"MSF-CH","type":"marketplace"}},
{"type":"Feature","geometry":{"type":"Point","coordinates":[-13.1760635,8.4634041]},"properties":{"amenity":"marketplace","name":"PORTEE MARKET","osm_id":"3342157260","source":"MSF-CH","type":"marketplace"}},
{"type":"Feature","geometry":{"type":"Point","coordinates":[-13.1599183,8.4362276]},"properties":{"name":"OBAMA BAKERY","shop":"bakery","source":"MSF-CH"}},
{"type":"Feature","geometry":{"type":"Point","coordinates":[-13.228484,8.4894262]},"properties":{"name":"Guinea Store","osm_id":"3353874060","shop":"convenience","source":"MSF-CH","type":"convenience"}},
{"type":"Feature","geometry":{"type":"Point","coordinates":[-13.2553545,8.4752063]},"properties":{"amenity":"marketplace","source":"MSF-CH"}},
{"type":"Feature","geometry":{"type":"Point","coordinates":[-13.0935806,8.363346]},"properties":{"name":"Iye-sha International Bakery","shop":"bakery","source":"MSF-CH"}},
{"type":"Feature","geometry":{"type":"Point","coordinates":[-13.0711571,8.3292607]},"properties":{"amenity":"marketplace"}},
{"type":"Feature","geometry":{"type":"Point","coordinates":[-11.0894273,8.5495335]},"properties":{"amenity":"marketplace","name":"Jaiama Public Market"}},
{"type":"Feature","geometry":{"type":"Point","coordinates":[-11.7398016,7.9648361]},"properties":{"name":"Mini-Mart Supermarket","osm_id":"1769501837","shop":"supermarket","type":"supermarket"}},
{"type":"Feature","geometry":{"type":"Point","coordinates":[-11.7396368,7.9638711]},"properties":{"amenity":"restaurant","name":"Sab's","shop":"supermarket"}},
{"type":"Feature","geometry":{"type":"Point","coordinates":[-11.7398538,7.9628457]},"properties":{"name":"Best in Market","shop":"supermarket"}},
{"type":"Feature","geometry":{"type":"Point","coordinates":[-11.7379802,7.9657926]},"properties":{"addr:street":"Bojon Street-Fenton Road","amenity":"marketplace","name":"Bo Central Market"}},
{"type":"Feature","geometry":{"type":"Point","coordinates":[-11.7269261,7.9598302]},"properties":{"addr:full":"Railway line off Sewa Road","addr:street":"Old Railway Line","amenity":"marketplace","name":"Gbongo Market","shop":"mall"}},
{"type":"Feature","geometry":{"type":"Point","coordinates":[-11.7542055,7.9525995]},"properties":{"addr:street":"Towama Road","amenity":"marketplace","name":"Kandeh Town Market","shop":"mall"}},
{"type":"Feature","geometry":{"type":"Point","coordinates":[-11.7366128,7.9452663]},"properties":{"addr:street":"Musa Street","amenity":"marketplace","name":"Musa Street Market"}},
{"type":"Feature","geometry":{"type":"Point","coordinates":[-11.7469553,7.9592261]},"properties":{"addr:street":"Matru Road","amenity":"marketplace","name":"Sobawan Market","shop":"department_store"}},
{"type":"Feature","geometry":{"type":"Point","coordinates":[-11.7287513,7.9413452]},"properties":{"amenity":"marketplace","name":"Manjama Market","shop":"department_store"}},
{"type":"Feature","geometry":{"type":"Point","coordinates":[-11.7210762,7.9515247]},"properties":{"amenity":"marketplace","name":"Salina Market"}},
{"type":"Feature","geometry":{"type":"Point","coordinates":[-13.2545788,8.462312]},"properties":{"name":"Adnan's","shop":"supermarket"}},
{"type":"Feature","geometry":{"type":"Point","coordinates":[-13.2408107,8.4740711]},"properties":{"name":"Chiness","shop":"convenience"}},
{"type":"Feature","geometry":{"type":"Point","coordinates":[-11.9502653,8.7226221]},"properties":{"amenity":"marketplace"}},
{"type":"Feature","geometry":{"type":"Point","coordinates":[-11.1898829,7.8795766]},"properties":{"name":"Kamboi Plaza","shop":"supermarket"}},
{"type":"Feature","geometry":{"type":"Point","coordinates":[-11.1904972,7.8768042]},"properties":{"name":"T. Choitham & Sons Supermarket","shop":"supermarket"}},
{"type":"Feature","geometry":{"type":"Point","coordinates":[-11.1893881,7.8843534]},"properties":{"name":"Kenema Supermarket","shop":"supermarket"}},
{"type":"Feature","geometry":{"type":"Point","coordinates":[-10.6939737,8.1088089]},"properties":{"addr:city":"Pendembu","source":"Red Cross Field Survey"}},
{"type":"Feature","geometry":{"type":"Point","coordinates":[-10.6939694,8.1088885]},"properties":{"addr:city":"Pendembu","source":"Red Cross Field Survey"}},
{"type":"Feature","geometry":{"type":"Point","coordinates":[-10.6940232,8.1088914]},"properties":{"addr:city":"Pendembu","source":"Red Cross Field Survey"}},
{"type":"Feature","geometry":{"type":"Point","coordinates":[-10.6940275,8.1088118]},"properties":{"addr:city":"Pendembu","source":"Red Cross Field Survey"}},
{"type":"Feature","geometry":{"type":"Point","coordinates":[-10.6944256,8.0990948]},"properties":{"addr:city":"Pendembu","source":"Red Cross Field Survey"}},
{"type":"Feature","geometry":{"type":"Point","coordinates":[-10.6943337,8.0990874]},"properties":{"addr:city":"Pendembu","source":"Red Cross Field Survey"}},
{"type":"Feature","geometry":{"type":"Point","coordinates":[-10.6943286,8.09915]},"properties":{"addr:city":"Pendembu","source":"Red Cross Field Survey"}},
{"type":"Feature","geometry":{"type":"Point","coordinates":[-10.6944205,8.0991574]},"properties":{"addr:city":"Pendembu","source":"Red Cross Field Survey"}},
{"type":"Feature","geometry":{"type":"Point","coordinates":[-10.3369018,8.461515]},"properties":{"addr:city":"Koindu","source":"Red Cross Field Survey"}},
{"type":"Feature","geometry":{"type":"Point","coordinates":[-10.336831,8.4615252]},"properties":{"addr:city":"Koindu","source":"Red Cross Field Survey"}},
{"type":"Feature","geometry":{"type":"Point","coordinates":[-10.3368424,8.4616027]},"properties":{"addr:city":"Koindu","source":"Red Cross Field Survey"}},
{"type":"Feature","geometry":{"type":"Point","coordinates":[-10.3369132,8.4615925]},"properties":{"addr:city":"Koindu","source":"Red Cross Field Survey"}},
{"type":"Feature","geometry":{"type":"Point","coordinates":[-11.3816857,7.0185982]},"properties":{"addr:city":"Jendema","addr:state":"Pujehun","addr:street":"main Jendema Road","man_made":"Yes","name":"Krios","shop":"convenience","source":"Red Cross Field Survey"}},
{"type":"Feature","geometry":{"type":"Point","coordinates":[-11.3846254,7.0223571]},"properties":{"addr:city":"Jendema","addr:state":"Pujehun","addr:street":"Jendama high","amenity":"restaurant","man_made":"Yes","name":"Shopping","shop":"convenience","source":"Red Cross Field Survey"}},
{"type":"Feature","geometry":{"type":"Point","coordinates":[-11.360153,7.2480787]},"properties":{"addr:city":"Gofor","addr:state":"Pujehun","addr:street":"Jendema Road","amenity":"marketplace","name":"Gofor Community Market","source":"Red Cross Field Survey"}},
{"type":"Feature","geometry":{"type":"Point","coordinates":[-10.9978154,7.5258869]},"properties":{"addr:city":"Faama","addr:state":"Kenema District","man_made":"Yes","shop":"convenience","source":"Red Cross Field Survey"}},
{"type":"Feature","geometry":{"type":"Point","coordinates":[-10.791986,7.8730956]},"properties":{"addr:city":"Jojoima","addr:state":"Kailahun","addr:street":"Jabama Road","amenity":"marketplace","man_made":"yes","source":"Red Cross Field Survey"}},
{"type":"Feature","geometry":{"type":"Point","coordinates":[-10.7925868,7.8732019]},"properties":{"addr:city":"Jojoima","addr:state":"Kailahun","addr:street":"Jendama Road","man_made":"Yes","shop":"convenience","source":"Red Cross Field Survey"}},
{"type":"Feature","geometry":{"type":"Point","coordinates":[-10.7888766,7.878211]},"properties":{"addr:city":"Jojoima","addr:state":"Kailahun","addr:street":"Jabama Road","man_made":"yes","name":"Mohamed Son Dorzon price","shop":"convenience","source":"Red Cross Field Survey"}},
{"type":"Feature","geometry":{"type":"Point","coordinates":[-10.7539415,7.99298]},"properties":{"addr:city":"Mobai","addr:state":"Kailahun","addr:street":"Quiva Road","man_made":"yes","shop":"convenience","source":"Red Cross Field Survey"}},
{"type":"Feature","geometry":{"type":"Point","coordinates":[-10.7536519,7.9932589]},"properties":{"addr:city":"Mobai","addr:state":"Kailahun","addr:street":"Toobu","man_made":"Yes","name":"Youth Man Tele Center","shop":"convenience","source":"Red Cross Field Survey"}},
{"type":"Feature","geometry":{"type":"Point","coordinates":[-10.7536197,7.99298]},"properties":{"addr:city":"Mobai","addr:housenumber":"Toorbu","addr:state":"Kailahun","addr:street":"Quiva Rosd","man_made":"Yes","name":"Krios","shop":"convenience","source":"Red Cross Field Survey"}},
{"type":"Feature","geometry":{"type":"Point","coordinates":[-10.7556035,7.9983958]},"properties":{"addr:city":"Mobai","addr:state":"Kailahun","addr:street":"Mobia","amenity":"restaurant","man_made":"Yes","name":"Koise","shop":"convenience","source":"Red Cross Field Survey"}},
{"type":"Feature","geometry":{"type":"Point","coordinates":[-10.4821021,8.203317]},"properties":{"addr:city":"Nyandehun","addr:state":"Kailahun","addr:street":"Kawama","man_made":"Yes","name":"Kosike","shop":"convenience","source":"Red Cross Field Survey"}},
{"type":"Feature","geometry":{"type":"Point","coordinates":[-10.4826218,8.203317]},"properties":{"addr:city":"Nyandehun","addr:state":"Kailahun","addr:street":"Kawama","man_made":"Yes","shop":"convenience","source":"Red Cross Field Survey"}},
{"type":"Feature","geometry":{"type":"Point","coordinates":[-10.7479227,8.1739297]},"properties":{"addr:city":"Manowa","addr:housenumber":"4","addr:street":"Nyayyawama","man_made":"Yes","name":"Shopping","shop":"convenience","source":"Red Cross Field Survey"}},
{"type":"Feature","geometry":{"type":"Point","coordinates":[-10.7483518,8.1740465]},"properties":{"addr:city":"Manowa","addr:state":"Kailahun","addr:street":"Lamin Street","man_made":"yes","name":"Hassan's shop","shop":"convenience","source":"Red Cross Field Survey"}},
{"type":"Feature","geometry":{"type":"Point","coordinates":[-10.7481662,8.1739497]},"properties":{"addr:city":"Manowa","addr:postcode":"321","addr:state":"Kailahun","addr:street":"Bonubu Road","man_made":"Yes","name":"Sam Ngegba","shop":"convenience","source":"Red Cross Field Survey"}},
{"type":"Feature","geometry":{"type":"Point","coordinates":[-10.7479615,8.1739768]},"properties":{"addr:city":"Manowa","addr:postcode":",321","addr:state":"Kailahun","addr:street":"Bonubu Road","man_made":"Yes","name":"Moses Momoh","shop":"convenience","source":"Red Cross Field Survey"}},
{"type":"Feature","geometry":{"type":"Point","coordinates":[-10.7480434,8.1739362]},"properties":{"addr:city":"Manowa","addr:postcode":"321","addr:state":"Kailahun","addr:street":"Bonubu Road","amenity":"marketplace","man_made":"Yes","name":"Manowa Center Market","source":"Red Cross Field Survey"}},
{"type":"Feature","geometry":{"type":"Point","coordinates":[-10.7477725,8.1738979]},"properties":{"addr:city":"Manowa","addr:state":"Kailahun","addr:street":"Nyawama","man_made":"Yes","name":"Shopping","shop":"convenience","source":"Red Cross Field Survey"}},
{"type":"Feature","geometry":{"type":"Point","coordinates":[-10.7482481,8.1740713]},"properties":{"addr:city":"Manowa","addr:postcode":"321","addr:state":"Kailahun","addr:street":"Bonubu Road","man_made":"Yes","name":"Karmoh Alieu","shop":"convenience","source":"Red Cross Field Survey"}},
{"type":"Feature","geometry":{"type":"Point","coordinates":[-10.7484055,8.1740784]},"properties":{"addr:city":"Manowa","addr:state":"Kailahun","addr:street":"Lamin Street","man_made":"yes","name":"Oman Goods shop","shop":"convenience","source":"Red Cross Field Survey"}},
{"type":"Feature","geometry":{"type":"Point","coordinates":[-10.7482231,8.173558]},"properties":{"addr:city":"Manowa","addr:state":"Kailahun","addr:street":"Falloh","amenity":"cafe","man_made":"Yes","name":"Shopping","shop":"convenience","source":"Red Cross Field Survey"}},
{"type":"Feature","geometry":{"type":"Point","coordinates":[-10.747515,8.1736536]},"properties":{"addr:city":"Manowa","addr:state":"Kailahun","addr:street":"Nyanyawama","man_made":"Yes","shop":"convenience","source":"Red Cross Field Survey"}},
{"type":"Feature","geometry":{"type":"Point","coordinates":[-10.7482874,8.1736748]},"properties":{"addr:city":"Manowa","addr:state":"Kailahun","addr:street":"Falloh","amenity":"bar","man_made":"Yes","name":"Bar","shop":"convenience","source":"Red Cross Field Survey"}},
{"type":"Feature","geometry":{"type":"Point","coordinates":[-10.6944501,8.0963442]},"properties":{"addr:city":"Pendembu","addr:housenumber":"5","addr:state":"Kailahun","addr:street":"Bsmbarulo","man_made":"yes","name":"Mr Amara's shop","shop":"convenience","source":"Red Cross Field Survey"}},
{"type":"Feature","geometry":{"type":"Point","coordinates":[-10.6902599,8.1006884]},"properties":{"addr:city":"Pendembu","addr:housenumber":"Vaama","addr:state":"Kailahun","addr:street":"Kailahun Road","man_made":"Yes","name":"Krios","shop":"convenience","source":"Red Cross Field Survey"}},
{"type":"Feature","geometry":{"type":"Point","coordinates":[-10.6953191,8.1036746]},"properties":{"addr:city":"Pendembu","addr:housenumber":"onemile","addr:state":"Kailahun","addr:street":"pendembu Road","man_made":"Yes","name":"Shopping","shop":"convenience","source":"Red Cross Field Survey"}},
{"type":"Feature","geometry":{"type":"Point","coordinates":[-10.6948793,8.0994777]},"properties":{"addr:city":"Pendembu","addr:state":"Kailahun","amenity":"restaurant","man_made":"yes","name":"Shopping","shop":"convenience","source":"Red Cross Field Survey"}},
{"type":"Feature","geometry":{"type":"Point","coordinates":[-10.6953192,8.094751]},"properties":{"addr:city":"Pendembu","addr:housenumber":"Selebu","addr:state":"Kailahun","addr:street":"pendembu Road","man_made":"Yes","shop":"convenience","source":"Red Cross Field Survey"}},
{"type":"Feature","geometry":{"type":"Point","coordinates":[-10.6947076,8.0969816]},"properties":{"addr:city":"Pendembu","addr:state":"Kailahun","addr:street":"Selebu","amenity":"restaurant","man_made":"Yes","name":"TeaShop","shop":"supermarket","source":"Red Cross Field Survey"}},
{"type":"Feature","geometry":{"type":"Point","coordinates":[-10.6957269,8.0984368]},"properties":{"addr:city":"Pendembu","addr:state":"Kailahun","addr:street":"Seilbu","amenity":"bicycle_parking","name":"Carage","shop":"convenience","source":"Red Cross Field Survey"}},
{"type":"Feature","geometry":{"type":"Point","coordinates":[-10.6947398,8.0965248]},"properties":{"addr:city":"Pendembu","addr:state":"Kailahun","addr:street":"Selebu","amenity":"fuel","man_made":"Yes","shop":"convenience","source":"Red Cross Field Survey"}},
{"type":"Feature","geometry":{"type":"Point","coordinates":[-10.6954803,8.1039758]},"properties":{"addr:city":"Pendembu","addr:housenumber":"17c One mile","addr:state":"Kailahun","addr:street":"Kailahun Road","cuisine":"Krios","man_made":"Yes","name":"Gamma Conteh","shop":"convenience","source":"Red Cross Field Survey"}},
{"type":"Feature","geometry":{"type":"Point","coordinates":[-10.6970251,8.0983943]},"properties":{"addr:city":"Pendembu","addr:housenumber":"Bellevue section","addr:state":"Kailahun","addr:street":"pendembu Road","amenity":"restaurant","man_made":"yes","shop":"convenience","source":"Red Cross Field Survey"}},
{"type":"Feature","geometry":{"type":"Point","coordinates":[-10.6974328,8.0982774]},"properties":{"addr:city":"Pendembu","addr:housenumber":"Belebu","addr:state":"Kailahun","addr:street":"pendembu Road","amenity":"restaurant","man_made":"Yes","shop":"convenience","source":"Red Cross Field Survey"}},
{"type":"Feature","geometry":{"type":"Point","coordinates":[-10.6946969,8.0969284]},"properties":{"addr:city":"Pendembu","addr:housenumber":"26","addr:state":"Kailahun","addr:street":"Selebu","amenity":"office","man_made":"Yes","name":"Casset","shop":"convenience","source":"Red Cross Field Survey"}},
{"type":"Feature","geometry":{"type":"Point","coordinates":[-10.6960166,8.0996476]},"properties":{"addr:city":"Pendembu","addr:state":"Kailahun","addr:street":"Kailahun Pendembu Road","man_made":"Yes","name":"Weather work","shop":"convenience","source":"Red Cross Field Survey"}},
{"type":"Feature","geometry":{"type":"Point","coordinates":[-10.6947184,8.0994883]},"properties":{"addr:city":"Pendembu","addr:state":"Kailahun","amenity":"community_centre","man_made":"Yes","shop":"convenience","source":"Red Cross Field Survey"}},
{"type":"Feature","geometry":{"type":"Point","coordinates":[-10.6947827,8.0967691]},"properties":{"addr:city":"Pendembu","addr:housenumber":"2","addr:state":"Kailahun","addr:street":"Selebu","amenity":"fuel","man_made":"Yes","shop":"convenience","source":"Red Cross Field Survey"}},
{"type":"Feature","geometry":{"type":"Point","coordinates":[-10.6948042,8.1000088]},"properties":{"addr:city":"Pendembu","addr:state":"Kailahun","addr:street":"Mandingo","amenity":"marketplace","man_made":"yes","name":"Market","source":"Red Cross Field Survey"}},
{"type":"Feature","geometry":{"type":"Point","coordinates":[-10.6946969,8.0966735]},"properties":{"addr:city":"Pendembu","addr:state":"Kailahun","addr:street":"Selebu","man_made":"yes","name":"Talkie","shop":"convenience","source":"Red Cross Field Survey"}},
{"type":"Feature","geometry":{"type":"Point","coordinates":[-10.6947935,8.096886]},"properties":{"addr:city":"Pendembu","addr:state":"Kailahun","addr:street":"selebu","amenity":"internet_cafe","man_made":"Yes","name":"Photo","shop":"convenience","source":"Red Cross Field Survey"}},
{"type":"Feature","geometry":{"type":"Point","coordinates":[-10.6931743,8.105764]},"properties":{"addr:city":"Pendembu","addr:housenumber":"onemale","addr:state":"Kailahun","addr:street":"Pendembu","man_made":"Yes","shop":"convenience","source":"Red Cross Field Survey"}},
{"type":"Feature","geometry":{"type":"Point","coordinates":[-10.694654,8.0977782]},"properties":{"addr:city":"Pendembu","addr:state":"Kailahun","addr:street":"Seilbu","amenity":"library","man_made":"Yes","shop":"convenience","source":"Red Cross Field Survey"}},
{"type":"Feature","geometry":{"type":"Point","coordinates":[-10.5750704,8.2842015]},"properties":{"addr:city":"Kailahun","addr:housenumber":"15","addr:state":"Kailahun","addr:street":"Subaru road","man_made":"Yes","name":"Mamie Charles","shop":"convenience","source":"Red Cross Field Survey"}},
{"type":"Feature","geometry":{"type":"Point","coordinates":[-10.5722809,8.2763555]},"properties":{"addr:city":"Kailahun","addr:housenumber":"13","addr:street":"Mayah Kaikai Street","man_made":"yes","name":"Mama Navo Kaikai's Bakery","shop":"bakery","source":"Red Cross Field Survey"}},
{"type":"Feature","geometry":{"type":"Point","coordinates":[-10.5714769,8.2779447]},"properties":{"addr:city":"Kailahun","addr:housenumber":"00","addr:state":"Kailahun","addr:street":"Buedu Road","amenity":"marketplace","man_made":"yes","name":"Open Table Market","source":"Red Cross Field Survey"}},
{"type":"Feature","geometry":{"type":"Point","coordinates":[-10.5722809,8.2783409]},"properties":{"addr:city":"Kailahun","addr:housenumber":"00","addr:state":"Kailahun","addr:street":"Buedu Road","amenity":"marketplace","man_made":"Yes","name":"Kailahun town Market","source":"Red Cross Field Survey"}},
{"type":"Feature","geometry":{"type":"Point","coordinates":[-10.4926729,8.3325159]},"properties":{"addr:city":"Manosewallu","addr:housenumber":"09","addr:state":"Kailahun","addr:street":"Kailahun Koindu highway","amenity":"marketplace","man_made":"yes","name":"Manosewallu Market","source":"Red Cross Field Survey"}},
{"type":"Feature","geometry":{"type":"Point","coordinates":[-10.492394,8.3328026]},"properties":{"addr:city":"Manosewallu","addr:housenumber":"00","addr:state":"Kailahun","addr:street":"Yebema Junction","amenity":"marketplace","man_made":"Yes","name":"Manosewallu Market","source":"Red Cross Field Survey"}},
{"type":"Feature","geometry":{"type":"Point","coordinates":[-10.4924905,8.3326327]},"properties":{"addr:city":"Manosewallu","addr:housenumber":"00","addr:state":"Kailahun","addr:street":"Kailahun Koindu highway","man_made":"yes","name":"Falla Aruna","shop":"convenience","source":"Red Cross Field Survey"}},
{"type":"Feature","geometry":{"type":"Point","coordinates":[-10.3165782,8.2121176]},"properties":{"addr:city":"Mandopolahun","addr:housenumber":"00","addr:state":"Kailahun","addr:street":"Buedu highway","amenity":"marketplace","man_made":"Yes","name":"Mandopolahun Jorporwahun","source":"Red Cross Field Survey"}},
{"type":"Feature","geometry":{"type":"Point","coordinates":[-10.6962004,8.6018249]},"properties":{"addr:city":"Manjama","addr:state":"Kono","addr:street":"kamayador road","amenity":"marketplace","man_made":"yes","name":"Wanjama Community Market","source":"Red Cross Field Survey"}},
{"type":"Feature","geometry":{"type":"Point","coordinates":[-10.709618,8.7834295]},"properties":{"addr:city":"Kombayedeh","addr:state":"Kono","addr:street":"Bawuya road","amenity":"food","man_made":"Yes","shop":"butcher","source":"Red Cross Field Survey"}},
{"type":"Feature","geometry":{"type":"Point","coordinates":[-10.9236288,9.4649893]},"properties":{"addr:city":"Seria","addr:state":"Koinadugu","addr:street":"main street","amenity":"marketplace","man_made":"yes","name":"Seria Market Square","source":"Red Cross Field Survey"}},
{"type":"Feature","geometry":{"type":"Point","coordinates":[-10.923201,9.4647648]},"properties":{"addr:city":"Seria","addr:state":"Koinadugu","addr:street":"Seria street","man_made":"yes","name":"Dudei kamara","shop":"convenience","source":"Red Cross Field Survey"}},
{"type":"Feature","geometry":{"type":"Point","coordinates":[-10.923402,9.4649631]},"properties":{"addr:city":"Seria","addr:state":"Koinadugu","addr:street":"Seria street","man_made":"yes","name":"maria shaw","shop":"convenience","source":"Red Cross Field Survey"}},
{"type":"Feature","geometry":{"type":"Point","coordinates":[-10.9235116,9.4649631]},"properties":{"addr:city":"Seria","addr:state":"Koinadugu","addr:street":"Seria street","man_made":"yes","shop":"convenience","source":"Red Cross Field Survey"}},
{"type":"Feature","geometry":{"type":"Point","coordinates":[-10.923402,9.4652875]},"properties":{"addr:city":"Seria","addr:housenumber":"5","addr:state":"Koinadugu","addr:street":"Seria street","man_made":"yes","shop":"convenience","source":"Red Cross Field Survey"}},
{"type":"Feature","geometry":{"type":"Point","coordinates":[-10.9232192,9.4649811]},"properties":{"addr:city":"Seria","addr:state":"Koinadugu","addr:street":"Seria street","man_made":"yes","name":"mamohed marah","shop":"convenience","source":"Red Cross Field Survey"}},
{"type":"Feature","geometry":{"type":"Point","coordinates":[-10.9233289,9.4648189]},"properties":{"addr:city":"Seria","addr:state":"Koinadugu","addr:street":"Seria street","man_made":"yes","name":"kamor marah","shop":"convenience","source":"Red Cross Field Survey"}},
{"type":"Feature","geometry":{"type":"Point","coordinates":[-11.6442096,9.9419674]},"properties":{"addr:city":"Gbentu","addr:housenumber":"no number","addr:state":"Koinadugu","addr:street":"Gbentu 1","man_made":"yes","name":"Samura Business Point","shop":"convenience","source":"Red Cross Field Survey"}},
{"type":"Feature","geometry":{"type":"Point","coordinates":[-11.6519237,9.9441021]},"properties":{"addr:city":"Gbentu","addr:housenumber":"2","addr:state":"Koinadugu","addr:street":"market square","man_made":"yes","name":"Gbentu Market Center","shop":"convenience","source":"Red Cross Field Survey"}},
{"type":"Feature","geometry":{"type":"Point","coordinates":[-12.6670454,9.3941738]},"properties":{"addr:city":"Kukuna","addr:housenumber":"17","addr:state":"Kambia","addr:street":"komboima street","man_made":"yes","name":"Taylor Kamara Enterprise","shop":"convenience","source":"Red Cross Field Survey"}},
{"type":"Feature","geometry":{"type":"Point","coordinates":[-12.6671667,9.3940432]},"properties":{"addr:city":"Kukuna","addr:housenumber":"13","addr:state":"Kambia","addr:street":"komboima street","man_made":"yes","name":"Kadiatus Shop","shop":"convenience","source":"Red Cross Field Survey"}},
{"type":"Feature","geometry":{"type":"Point","coordinates":[-12.6659312,9.3960784]},"properties":{"addr:city":"Kukuna","addr:housenumber":"42","addr:state":"Kambia","addr:street":"komboma street","man_made":"yes","name":"Foday shop","shop":"convenience","source":"Red Cross Field Survey"}},
{"type":"Feature","geometry":{"type":"Point","coordinates":[-12.9264152,9.1118971]},"properties":{"addr:city":"Kambia","addr:state":"Kambia","addr:street":"Freetown Road","man_made":"yes","name":"Kentos Enterprise","shop":"convenience","source":"Red Cross Field Survey"}},
{"type":"Feature","geometry":{"type":"Point","coordinates":[-12.925663,9.1074315]},"properties":{"addr:city":"Kambia","addr:state":"Kambia","amenity":"marketplace","man_made":"yes","name":"Chick Point Market","source":"Red Cross Field Survey"}},
{"type":"Feature","geometry":{"type":"Point","coordinates":[-12.925242,9.1095511]},"properties":{"addr:city":"Kambia","addr:state":"Kambia","addr:street":"Freetown Road","man_made":"yes","name":"ABU's enterprise","shop":"convenience","source":"Red Cross Field Survey"}},
{"type":"Feature","geometry":{"type":"Point","coordinates":[-12.9249302,9.1127915]},"properties":{"addr:city":"Kambia","addr:state":"Kambia","man_made":"yes","name":"Amanata shop","shop":"convenience","source":"Red Cross Field Survey"}},
{"type":"Feature","geometry":{"type":"Point","coordinates":[-12.9263706,9.1118971]},"properties":{"addr:city":"Kambia","addr:housenumber":"8a","addr:state":"Kambia","addr:street":"Freetown Road","man_made":"yes","name":"Jalloh's Enterprise","shop":"convenience","source":"Red Cross Field Survey"}},
{"type":"Feature","geometry":{"type":"Point","coordinates":[-12.9285479,9.1119382]},"properties":{"addr:city":"Kambia","addr:state":"Kambia","addr:street":"Bombay Street","man_made":"yes","name":"Barkery","shop":"bakery","source":"Red Cross Field Survey"}},
{"type":"Feature","geometry":{"type":"Point","coordinates":[-12.9260736,9.1121757]},"properties":{"addr:city":"Kambia","addr:state":"Kambia","man_made":"yes","name":"Shekus Enterprise","shop":"convenience","source":"Red Cross Field Survey"}},
{"type":"Feature","geometry":{"type":"Point","coordinates":[-12.9217243,9.1269912]},"properties":{"addr:city":"Kambia","addr:housenumber":"9","addr:street":"Koramabai Dura Road","amenity":"marketplace","man_made":"yes","name":"Kambia Market","source":"Red Cross Field Survey"}},
{"type":"Feature","geometry":{"type":"Point","coordinates":[-12.9253399,9.1074783]},"properties":{"addr:city":"Kambia","addr:state":"Kambia","addr:street":"Katimpi Road","man_made":"yes","name":"We Yone Shop","shop":"convenience","source":"Red Cross Field Survey"}},
{"type":"Feature","geometry":{"type":"Point","coordinates":[-12.9253185,9.1075737]},"properties":{"addr:city":"Kambia","addr:state":"Kambia","addr:street":"Katimpi Road","man_made":"yes","name":"Fatu Enterprise","shop":"convenience","source":"Red Cross Field Survey"}},
{"type":"Feature","geometry":{"type":"Point","coordinates":[-12.9259703,9.1100338]},"properties":{"addr:city":"Kambia","addr:state":"Kambia","addr:street":"Kambia Highway","man_made":"yes","name":"Variety shop","shop":"convenience","source":"Red Cross Field Survey"}},
{"type":"Feature","geometry":{"type":"Point","coordinates":[-12.9318083,9.1127156]},"properties":{"addr:city":"Kambia","addr:state":"Kambia","addr:street":"Sidikie Lane","shop":"bakery","source":"Red Cross Field Survey"}},
{"type":"Feature","geometry":{"type":"Point","coordinates":[-12.9302855,9.110531]},"properties":{"addr:city":"Kambia","addr:state":"Kambia","addr:street":"Sidikie Lane","man_made":"yes","name":"Bakery","shop":"bakery","source":"Red Cross Field Survey"}},
{"type":"Feature","geometry":{"type":"Point","coordinates":[-12.9277148,9.1114919]},"properties":{"addr:city":"Kambia","addr:housenumber":"1","addr:state":"Kambia","addr:street":"Bombay Street","amenity":"pub","man_made":"yes","shop":"convenience","source":"Red Cross Field Survey"}},
{"type":"Feature","geometry":{"type":"Point","coordinates":[-12.933003,9.1209738]},"properties":{"addr:city":"Rogbray","addr:state":"Kambia","amenity":"pub","man_made":"yes","shop":"convenience","source":"Red Cross Field Survey"}},
{"type":"Feature","geometry":{"type":"Point","coordinates":[-12.9972875,8.9709011]},"properties":{"addr:city":"Rosinoh","addr:state":"Kambia","amenity":"store","man_made":"yes","name":"rosinor store","shop":"convenience","source":"Red Cross Field Survey"}},
{"type":"Feature","geometry":{"type":"Point","coordinates":[-10.7064934,8.3925797]},"properties":{"addr:city":"Sandaru","addr:state":"Kailahun","addr:street":"Manowa Road","amenity":"fast_food","man_made":"yes","name":"stall","shop":"convenience","source":"Red Cross Field Survey"}},
{"type":"Feature","geometry":{"type":"Point","coordinates":[-10.7063901,8.3947458]},"properties":{"addr:city":"Sandaru","addr:housenumber":"28A","addr:state":"Kailahun","addr:street":"Manowa High Way","man_made":"Yes","shop":"convenience","source":"Red Cross Field Survey"}},
{"type":"Feature","geometry":{"type":"Point","coordinates":[-10.7202794,8.4150894]},"properties":{"addr:city":"Konobendu","addr:state":"Kailahun","addr:street":"Sandaru Road","man_made":"Yes","shop":"convenience","source":"Red Cross Field Survey"}},
{"type":"Feature","geometry":{"type":"Point","coordinates":[-10.7197772,8.4149298]},"properties":{"addr:city":"Konobendu","addr:state":"Kailahun","addr:street":"Sandaru Road","man_made":"Yes","name":"Booth","shop":"convenience","source":"Red Cross Field Survey"}},
{"type":"Feature","geometry":{"type":"Point","coordinates":[-10.7199745,8.4151249]},"properties":{"addr:city":"Konobendu","addr:state":"Kailahun","addr:street":"Sandaru Road","man_made":"Yes","shop":"convenience","source":"Red Cross Field Survey"}},
{"type":"Feature","geometry":{"type":"Point","coordinates":[-10.7196158,8.4148411]},"properties":{"addr:city":"Konobendu","addr:state":"Kailahun","addr:street":"Sandaru Road","man_made":"Yes","name":"Booth","shop":"convenience","source":"Red Cross Field Survey"}},
{"type":"Feature","geometry":{"type":"Point","coordinates":[-10.7197772,8.4149475]},"properties":{"addr:city":"Konobendu","addr:state":"Kailahun","addr:street":"Sandaru Road","man_made":"Yes","name":"Booth","shop":"convenience","source":"Red Cross Field Survey"}},
{"type":"Feature","geometry":{"type":"Point","coordinates":[-10.8654309,8.4330245]},"properties":{"addr:state":"Kono","addr:street":"Fanima Road","man_made":"yes","name":"variety shop","shop":"convenience","source":"Red Cross Field Survey"}},
{"type":"Feature","geometry":{"type":"Point","coordinates":[-10.8662943,8.4341672]},"properties":{"addr:state":"Kono","man_made":"yes","shop":"convenience","source":"Red Cross Field Survey"}},
{"type":"Feature","geometry":{"type":"Point","coordinates":[-10.866067,8.4335731]},"properties":{"addr:state":"Kono","man_made":"yes","shop":"convenience","source":"Red Cross Field Survey"}},
{"type":"Feature","geometry":{"type":"Point","coordinates":[-10.8680311,8.4350182]},"properties":{"addr:state":"Kono","addr:street":"Teyama Road","man_made":"yes","shop":"convenience","source":"Red Cross Field Survey"}},
{"type":"Feature","geometry":{"type":"Point","coordinates":[-10.8675279,8.434954]},"properties":{"addr:state":"Kono","addr:street":"Teyama Road","man_made":"yes","shop":"convenience","source":"Red Cross Field Survey"}},
{"type":"Feature","geometry":{"type":"Point","coordinates":[-10.8615662,8.4376428]},"properties":{"addr:state":"Kono","addr:street":"Peidu Junction","man_made":"yes","shop":"bakery","source":"Red Cross Field Survey"}},
{"type":"Feature","geometry":{"type":"Point","coordinates":[-10.8652854,8.4319075]},"properties":{"addr:state":"Kono","addr:street":"Fatima Road","man_made":"yes","name":"store","shop":"convenience","source":"Red Cross Field Survey"}},
{"type":"Feature","geometry":{"type":"Point","coordinates":[-10.8707744,8.4362225]},"properties":{"addr:state":"Kono","addr:street":"Teyama Road","man_made":"Yes","name":"Bakery","shop":"bakery","source":"Red Cross Field Survey"}},
{"type":"Feature","geometry":{"type":"Point","coordinates":[-10.8636837,8.4309166]},"properties":{"addr:state":"Kono","addr:street":"Mission Road","man_made":"yes","name":"J man center","shop":"convenience","source":"Red Cross Field Survey"}},
{"type":"Feature","geometry":{"type":"Point","coordinates":[-10.8665702,8.4353876]},"properties":{"addr:state":"Kono","man_made":"yes","shop":"convenience","source":"Red Cross Field Survey"}},
{"type":"Feature","geometry":{"type":"Point","coordinates":[-10.8660995,8.4336534]},"properties":{"addr:state":"Kono","man_made":"yes","shop":"convenience","source":"Red Cross Field Survey"}},
{"type":"Feature","geometry":{"type":"Point","coordinates":[-10.8667812,8.4348256]},"properties":{"addr:state":"Kono","addr:street":"Teyama Road","man_made":"yes","shop":"convenience","source":"Red Cross Field Survey"}},
{"type":"Feature","geometry":{"type":"Point","coordinates":[-10.8653528,8.4317908]},"properties":{"man_made":"yes","shop":"convenience","source":"Red Cross Field Survey"}},
{"type":"Feature","geometry":{"type":"Point","coordinates":[-10.8659371,8.4330914]},"properties":{"addr:state":"Kono","man_made":"yes","shop":"convenience","source":"Red Cross Field Survey"}},
{"type":"Feature","geometry":{"type":"Point","coordinates":[-10.8663754,8.434376]},"properties":{"man_made":"yes","shop":"convenience","source":"Red Cross Field Survey"}},
{"type":"Feature","geometry":{"type":"Point","coordinates":[-10.86558,8.432128]},"properties":{"addr:state":"Kono","man_made":"yes","shop":"convenience","source":"Red Cross Field Survey"}},
{"type":"Feature","geometry":{"type":"Point","coordinates":[-10.8658802,8.4333957]},"properties":{"addr:state":"Kono","addr:street":"Old Town Road","shop":"convenience","source":"Red Cross Field Survey"}},
{"type":"Feature","geometry":{"type":"Point","coordinates":[-10.5263345,8.6577385]},"properties":{"addr:city":"Densambadu","addr:state":"Kono","addr:street":"Kamayandor Road","amenity":"pub","man_made":"Yes","shop":"convenience","source":"Red Cross Field Survey"}},
{"type":"Feature","geometry":{"type":"Point","coordinates":[-11.3825561,7.0200458]},"properties":{"addr:city":"Jendema","addr:state":"Pujehun","addr:street":"Bo Waterside Road","man_made":"yes","name":"Ibrahim Barrie's Provisions Shop","shop":"convenience","source":"Red Cross Field Survey"}},
{"type":"Feature","geometry":{"type":"Point","coordinates":[-11.3824455,7.0201413]},"properties":{"addr:city":"Jendema","addr:state":"Pujehun","addr:street":"Bo Waterside Road","man_made":"yes","name":"Abdulai Bah","shop":"convenience","source":"Red Cross Field Survey"}},
{"type":"Feature","geometry":{"type":"Point","coordinates":[-11.3823214,7.0199284]},"properties":{"addr:city":"Jendema","addr:state":"Pujehun","addr:street":"Bo Waterside Road","man_made":"yes","name":"Sheku Dabeni","shop":"convenience","source":"Red Cross Field Survey"}},
{"type":"Feature","geometry":{"type":"Point","coordinates":[-11.3822792,7.0194765]},"properties":{"addr:city":"Jendema","shop":"convenience","source":"Red Cross Field Survey"}},
{"type":"Feature","geometry":{"type":"Point","coordinates":[-11.3818369,7.0190986]},"properties":{"addr:city":"Jendema","addr:state":"Pujehun","addr:street":"Bo Waterside Road","man_made":"yes","name":"Junior Bah","shop":"convenience","source":"Red Cross Field Survey"}},
{"type":"Feature","geometry":{"type":"Point","coordinates":[-11.381792,7.0190467]},"properties":{"addr:city":"Jendema","addr:state":"Pujehun","addr:street":"Bo Waterside Road","man_made":"yes","name":"Mr Bah","shop":"convenience","source":"Red Cross Field Survey"}},
{"type":"Feature","geometry":{"type":"Point","coordinates":[-11.381912,7.0192158]},"properties":{"addr:city":"Jendema","addr:state":"Pujehun","addr:street":"Bo Waterside Road","man_made":"Yes","name":"Lalia","shop":"convenience","source":"Red Cross Field Survey"}},
{"type":"Feature","geometry":{"type":"Point","coordinates":[-11.360442,7.2454963]},"properties":{"addr:city":"Gofor","addr:state":"Pujehun","addr:street":"Jendema road","man_made":"yes","name":"Mr Sesay's Business Centre","shop":"food","source":"Red Cross Field Survey"}},
{"type":"Feature","geometry":{"type":"Point","coordinates":[-10.7892072,7.878322]},"properties":{"addr:city":"Jojoima","addr:housenumber":"1C","addr:state":"Kailahun","addr:street":"Ngevao Street","man_made":"yes","name":"REGY Enterprise","shop":"convenience","source":"Red Cross Field Survey"}},
{"type":"Feature","geometry":{"type":"Point","coordinates":[-10.7892012,7.8783001]},"properties":{"addr:city":"Jojoima","addr:housenumber":"1B","addr:state":"Kailahun","addr:street":"Ngevao Street","man_made":"yes","name":"Mustapha Enterprise","shop":"convenience","source":"Red Cross Field Survey"}},
{"type":"Feature","geometry":{"type":"Point","coordinates":[-10.7890073,7.8785289]},"properties":{"addr:city":"Jojoima","addr:housenumber":"5A","addr:state":"Kailahun","addr:street":"Salena road","man_made":"yes","name":"Isata Sheriff's Shop","shop":"convenience","source":"Red Cross Field Survey"}},
{"type":"Feature","geometry":{"type":"Point","coordinates":[-10.7889337,7.878529]},"properties":{"addr:city":"Jojoima","addr:housenumber":"4","addr:state":"Kailahun","addr:street":"Salena road","man_made":"yes","name":"Alhaji Momodu Barrie's shop","shop":"convenience","source":"Red Cross Field Survey"}},
{"type":"Feature","geometry":{"type":"Point","coordinates":[-10.7887907,7.8783068]},"properties":{"addr:city":"Jojoima","addr:housenumber":"6","addr:state":"Kailahun","addr:street":"Salena road","man_made":"yes","name":"Morie Koroma Enterprise","shop":"convenience","source":"Red Cross Field Survey"}},
{"type":"Feature","geometry":{"type":"Point","coordinates":[-10.7886567,7.8775917]},"properties":{"addr:city":"Jojoima","addr:housenumber":"9","addr:state":"Kailahun","addr:street":"Jabama Road","man_made":"yes","name":"Family and friends produce store","shop":"convenience","source":"Red Cross Field Survey"}},
{"type":"Feature","geometry":{"type":"Point","coordinates":[-10.7885635,7.8769009]},"properties":{"addr:city":"Jojoima","addr:housenumber":"17","addr:state":"Kailahun","addr:street":"Jabama Road","man_made":"yes","name":"Kargbo Enterprise","shop":"convenience","source":"Red Cross Field Survey"}},
{"type":"Feature","geometry":{"type":"Point","coordinates":[-10.7888418,7.8766774]},"properties":{"addr:city":"Jojoima","addr:housenumber":"20","addr:state":"Kailahun","addr:street":"Jabama Road","man_made":"yes","name":"Pa Barrie's shop","shop":"convenience","source":"Red Cross Field Survey"}},
{"type":"Feature","geometry":{"type":"Point","coordinates":[-10.7910945,7.8731598]},"properties":{"addr:city":"Jojoima","addr:state":"Kailahun","addr:street":"Jendema road","man_made":"yes","name":"Kanneh's Enterprise","shop":"convenience","source":"Red Cross Field Survey"}},
{"type":"Feature","geometry":{"type":"Point","coordinates":[-10.791527,7.8734448]},"properties":{"addr:city":"Jojoima","addr:state":"Kailahun","addr:street":"Jendema road","man_made":"yes","name":"Kanneh's Enterprise","shop":"convenience","source":"Red Cross Field Survey"}},
{"type":"Feature","geometry":{"type":"Point","coordinates":[-10.7922029,7.8735115]},"properties":{"addr:city":"Jojoima","addr:state":"Kailahun","addr:street":"Jendama Road","shop":"convenience","source":"Red Cross Field Survey"}},
{"type":"Feature","geometry":{"type":"Point","coordinates":[-10.7534383,7.9924304]},"properties":{"addr:city":"Mobai","addr:state":"Kailahun","addr:street":"Tobou","man_made":"yes","name":"Mamie Sandy's shop","shop":"convenience","source":"Red Cross Field Survey"}},
{"type":"Feature","geometry":{"type":"Point","coordinates":[-10.7540267,7.9936503]},"properties":{"addr:city":"Mobai","addr:state":"Kailahun","addr:street":"Mobai highway","man_made":"yes","name":"Hannah Enterprise","shop":"convenience","source":"Red Cross Field Survey"}},
{"type":"Feature","geometry":{"type":"Point","coordinates":[-10.7539516,7.9936078]},"properties":{"addr:city":"Mobai","addr:state":"Kailahun","addr:street":"Mobai highway","man_made":"yes","name":"Ibrahim's shop","shop":"convenience","source":"Red Cross Field Survey"}},
{"type":"Feature","geometry":{"type":"Point","coordinates":[-10.7540716,7.9938129]},"properties":{"addr:city":"Mobai","addr:state":"Kailahun","addr:street":"Hotalaa","man_made":"yes","name":"Mohamed Sow's Mini Shop","shop":"convenience","source":"Red Cross Field Survey"}},
{"type":"Feature","geometry":{"type":"Point","coordinates":[-10.7540432,7.9937849]},"properties":{"addr:city":"Mobai","addr:state":"Kailahun","addr:street":"Hotalaa","man_made":"Yes","name":"Neneh Jalloh Mini shop","shop":"convenience","source":"Red Cross Field Survey"}},
{"type":"Feature","geometry":{"type":"Point","coordinates":[-10.7537052,7.993192]},"properties":{"addr:city":"Mobai","addr:housenumber":"1A","addr:state":"Kailahun","addr:street":"Potoru","man_made":"yes","name":"Alusine Jalloh Trading","shop":"convenience","source":"Red Cross Field Survey"}},
{"type":"Feature","geometry":{"type":"Point","coordinates":[-10.7535384,7.9931536]},"properties":{"addr:city":"Mobai","addr:state":"Kailahun","addr:street":"Toobu","man_made":"Yes","name":"I to Z Enterprises","office":"Private","shop":"convenience","source":"Red Cross Field Survey"}},
{"type":"Feature","geometry":{"type":"Point","coordinates":[-10.7533753,7.9929322]},"properties":{"addr:city":"Mobai","addr:state":"Kailahun","addr:street":"Toobu","name":"Amie's Shop","shop":"convenience","source":"Red Cross Field Survey"}},
{"type":"Feature","geometry":{"type":"Point","coordinates":[-10.7533806,7.9929398]},"properties":{"addr:city":"Mobai","addr:state":"Kailahun","addr:street":"Toobu","amenity":"bar","man_made":"Yes","name":"Amie's Bar","shop":"convenience","source":"Red Cross Field Survey"}},
{"type":"Feature","geometry":{"type":"Point","coordinates":[-10.7497731,8.1731749]},"properties":{"addr:city":"Manowa","addr:housenumber":"23","addr:state":"Kailahun","addr:street":"Failor","man_made":"Yes","name":"Mr Foday's Shop","shop":"convenience","source":"Red Cross Field Survey"}},
{"type":"Feature","geometry":{"type":"Point","coordinates":[-10.6936476,8.0961281]},"properties":{"addr:city":"Pendembu","addr:housenumber":"17Bambawo","addr:state":"Kailahun","addr:street":"Daru Road","man_made":"yes","office":"private","shop":"convenience","source":"Red Cross Field Survey"}},
{"type":"Feature","geometry":{"type":"Point","coordinates":[-10.6954236,8.0946749]},"properties":{"addr:city":"pendembu","addr:state":"Kailahun","addr:street":"pendembu Road","building:condition":"average","building:material":"wood","shop":"convenience","source":"Red Cross Field Survey"}},
{"type":"Feature","geometry":{"type":"Point","coordinates":[-10.5675405,8.2769162]},"properties":{"addr:city":"Kailahun","addr:housenumber":"00","addr:state":"Kailahun","addr:street":"Buedu Road","name":"Sahr Bundor's Shop","shop":"convenience","source":"Red Cross Field Survey"}},
{"type":"Feature","geometry":{"type":"Point","coordinates":[-10.5736553,8.285422]},"properties":{"addr:city":"Kailahun","addr:housenumber":"92","addr:state":"Kailahun","addr:street":"Mofindor road","man_made":"yes","name":"Saidu Vandi's Convenience Shop","shop":"convenience","source":"Red Cross Field Survey"}},
{"type":"Feature","geometry":{"type":"Point","coordinates":[-10.5755851,8.2831609]},"properties":{"addr:city":"Kailahun","addr:housenumber":"16A","addr:state":"Kailahun","addr:street":"Nyanyahun road","man_made":"Yes","name":"Samuel Pujen's Convenience Shop","shop":"convenience","source":"Red Cross Field Survey"}},
{"type":"Feature","geometry":{"type":"Point","coordinates":[-10.5737841,8.2826167]},"properties":{"addr:city":"Kailahun","addr:housenumber":"69","addr:state":"Kailahun","addr:street":"Mofindor road","man_made":"yes","name":"Tegloma Cocoa Farmers Cooperative Shop","shop":"farm","source":"Red Cross Field Survey"}},
{"type":"Feature","geometry":{"type":"Point","coordinates":[-10.5736281,8.2829372]},"properties":{"addr:city":"Kailahun","addr:housenumber":"73A","addr:state":"Kailahun","addr:street":"Mofindor road","name":"Adama B Bundeh","shop":"convenience","source":"Red Cross Field Survey"}},
{"type":"Feature","geometry":{"type":"Point","coordinates":[-10.5743959,8.2828304]},"properties":{"addr:city":"Kailahun","addr:housenumber":"2A","addr:state":"Kailahun","addr:street":"Sebaru road","man_made":"Yes","name":"Nancy Amodu Samuka Shop","shop":"convenience","source":"Red Cross Field Survey"}},
{"type":"Feature","geometry":{"type":"Point","coordinates":[-10.5736161,8.2829728]},"properties":{"addr:city":"Kailahun","addr:housenumber":"73","addr:state":"Kailahun","addr:street":"Mofindor road","man_made":"Yes","name":"Moriyatu Aruna Shops","shop":"convenience","source":"Red Cross Field Survey"}},
{"type":"Feature","geometry":{"type":"Point","coordinates":[-10.5736726,8.2826643]},"properties":{"addr:city":"Kailahun","addr:housenumber":"62","addr:state":"Kailahun","addr:street":"Mofindor road","name":"Vandi Kamanda's Convenience Shop","shop":"convenience","source":"Red Cross Field Survey"}},
{"type":"Feature","geometry":{"type":"Point","coordinates":[-10.5634092,8.2871384]},"properties":{"addr:city":"Kailahun","addr:housenumber":"19","addr:state":"Kailahun","addr:street":"massanta section","amenity":"fast_food","man_made":"yes","name":"Wirry Jalloh Bakery","shop":"bakery","source":"Red Cross Field Survey"}},
{"type":"Feature","geometry":{"type":"Point","coordinates":[-10.5626367,8.2860024]},"properties":{"addr:city":"Kailahun","addr:housenumber":"127","addr:street":"massanta section","name":"Amara Morie's Shop","shop":"convenience","source":"Red Cross Field Survey"}},
{"type":"Feature","geometry":{"type":"Point","coordinates":[-10.5632912,8.285875]},"properties":{"addr:city":"Kailahun","addr:housenumber":"113","addr:state":"Kailahun","addr:street":"Follay Street","amenity":"fast_food","name":"Ahmed Teja Jalloh's Shop","shop":"convenience","source":"Red Cross Field Survey"}},
{"type":"Feature","geometry":{"type":"Point","coordinates":[-10.5686744,8.2826528]},"properties":{"addr:city":"Kailahun","addr:housenumber":"58B","addr:state":"Kailahun","addr:street":"Manosewallu road","man_made":"yes","shop":"convenience","source":"Red Cross Field Survey"}},
{"type":"Feature","geometry":{"type":"Point","coordinates":[-10.5655738,8.2848717]},"properties":{"addr:city":"Kailahun","addr:housenumber":"00","addr:state":"Kailahun","addr:street":"massanta section","amenity":"fast_food","shop":"convenience","source":"Red Cross Field Survey"}},
{"type":"Feature","geometry":{"type":"Point","coordinates":[-10.5709619,8.2804719]},"properties":{"addr:city":"Kailahun","addr:housenumber":"32","addr:state":"Kailahun","addr:street":"Manosewallu road","man_made":"yes","name":"Jerome Barrie's Shop","shop":"convenience","source":"Red Cross Field Survey"}},
{"type":"Feature","geometry":{"type":"Point","coordinates":[-10.5709404,8.2804931]},"properties":{"addr:city":"Kailahun","addr:housenumber":"32","addr:state":"Kailahun","addr:street":"Manosewallu road","man_made":"yes","shop":"convenience","source":"Red Cross Field Survey"}},
{"type":"Feature","geometry":{"type":"Point","coordinates":[-10.5711658,8.2802914]},"properties":{"addr:city":"Kailahun","addr:housenumber":"30A","addr:state":"Kailahun","addr:street":"Manosewallu Road","man_made":"yes","name":"Abubarkar Barrie's Shop","shop":"convenience","source":"Red Cross Field Survey"}},
{"type":"Feature","geometry":{"type":"Point","coordinates":[-10.5712087,8.2802914]},"properties":{"addr:city":"Kailahun","addr:housenumber":"30","addr:state":"Kailahun","addr:street":"Manosewallu Road","man_made":"yes","name":"Practice Tamba Nyuma's Shop","shop":"convenience","source":"Red Cross Field Survey"}},
{"type":"Feature","geometry":{"type":"Point","coordinates":[-10.5729796,8.2780933]},"properties":{"addr:city":"Kailahun","addr:housenumber":"00","addr:state":"Kailahun","addr:street":"Lengor Street","name":"Bintu Jalloh's Shop","shop":"convenience","source":"Red Cross Field Survey"}},
{"type":"Feature","geometry":{"type":"Point","coordinates":[-10.5729581,8.2781145]},"properties":{"addr:city":"Kailahun","addr:housenumber":"00","addr:state":"Kailahun","addr:street":"Lengor Street","man_made":"yes","name":"Abubaka Jalloh's Shop","shop":"convenience","source":"Red Cross Field Survey"}},
{"type":"Feature","geometry":{"type":"Point","coordinates":[-10.5739567,8.2783406]},"properties":{"addr:city":"Kailahun","addr:housenumber":"12","addr:state":"Kailahun","addr:street":"Mofindor road","name":"Jariah's enterprise","shop":"convenience","source":"Red Cross Field Survey"}},
{"type":"Feature","geometry":{"type":"Point","coordinates":[-10.573795,8.2776474]},"properties":{"addr:city":"Kailahun","addr:housenumber":"8B","addr:state":"Kailahun","addr:street":"Mofindor Road","building:material":"brick","name":"Monjaima Jalloh's building","shop":"convenience","source":"Red Cross Field Survey"}},
{"type":"Feature","geometry":{"type":"Point","coordinates":[-10.5739393,8.2785373]},"properties":{"addr:city":"Kailahun","addr:housenumber":"17","addr:state":"Kailahun","addr:street":"Mofindor road","man_made":"yes","name":"Ras and Mell","shop":"convenience","source":"Red Cross Field Survey"}},
{"type":"Feature","geometry":{"type":"Point","coordinates":[-10.5715353,8.2785893]},"properties":{"addr:city":"Kailahun","addr:housenumber":"19B","addr:state":"Kailahun","addr:street":"Mountain cut Road","name":"Sia Fatorma's Shop","shop":"convenience","source":"Red Cross Field Survey"}},
{"type":"Feature","geometry":{"type":"Point","coordinates":[-10.5698964,8.2778756]},"properties":{"addr:city":"Kailahun","addr:housenumber":"00","addr:state":"Kailahun","addr:street":"Buedu Road","building:material":"brick","name":"Lukiyatu Jalloh's Shop","shop":"convenience","source":"Red Cross Field Survey"}},
{"type":"Feature","geometry":{"type":"Point","coordinates":[-10.5703391,8.2779927]},"properties":{"addr:city":"Kailahun","addr:housenumber":"33","addr:state":"Kailahun","addr:street":"Buedu Road","name":"MM Management Enterprise","shop":"convenience","source":"Red Cross Field Survey"}},
{"type":"Feature","geometry":{"type":"Point","coordinates":[-10.572871,8.2774269]},"properties":{"addr:city":"Kailahun","addr:housenumber":"11","addr:state":"Kailahun","addr:street":"Buedu Road","name":"Amadu Jalloh's Shop","shop":"convenience","source":"Red Cross Field Survey"}},
{"type":"Feature","geometry":{"type":"Point","coordinates":[-10.5742563,8.276791]},"properties":{"addr:city":"Kailahun","addr:housenumber":"3","addr:state":"Kailahun","addr:street":"Pendembu road","man_made":"yes","name":"Mama Towai's Store","shop":"convenience","source":"Red Cross Field Survey"}},
{"type":"Feature","geometry":{"type":"Point","coordinates":[-10.5742134,8.2768972]},"properties":{"addr:city":"Kailahun","addr:housenumber":"3","addr:state":"Kailahun","addr:street":"Pendembu road","man_made":"yes","name":"Babaja Store","shop":"convenience","source":"Red Cross Field Survey"}},
{"type":"Feature","geometry":{"type":"Point","coordinates":[-10.5741812,8.2770458]},"properties":{"addr:city":"Kailahun","addr:housenumber":"2","addr:state":"Kailahun","addr:street":"Pendembu road","man_made":"yes","name":"Jalloh's Enterprise","shop":"convenience","source":"Red Cross Field Survey"}},
{"type":"Feature","geometry":{"type":"Point","coordinates":[-10.5771426,8.2714654]},"properties":{"addr:city":"Kailahun","addr:housenumber":"1","addr:state":"Kailahun","addr:street":"Pendembu road","name":"Mohamed enterprise","shop":"convenience","source":"Red Cross Field Survey"}},
{"type":"Feature","geometry":{"type":"Point","coordinates":[-10.4826736,8.2029932]},"properties":{"addr:city":"Nyedehun Babaibu","addr:state":"Kailahun","addr:street":"Moila","man_made":"yes","name":"Martha Murray's shop","shop":"convenience","source":"Red Cross Field Survey"}},
{"type":"Feature","geometry":{"type":"Point","coordinates":[-10.4820641,8.2033185]},"properties":{"addr:city":"Nyedehun Mababu","addr:state":"Kailahun","addr:street":"middle road","man_made":"yes","name":"Alhaji Sannoh's shop","shop":"convenience","source":"Red Cross Field Survey"}},
{"type":"Feature","geometry":{"type":"Point","coordinates":[-10.4831323,8.2034279]},"properties":{"addr:city":"Nyandahun","addr:state":"Kailahun","addr:street":"Sheriffula","man_made":"Yes","name":"Ibrahim Sheriff's Shop","shop":"convenience","source":"Red Cross Field Survey"}},
{"type":"Feature","geometry":{"type":"Point","coordinates":[-10.4824276,8.203186]},"properties":{"addr:city":"Nyedehun Mababu","addr:state":"Kailahun","addr:street":"middle road","man_made":"yes","name":"Telgloma Enterprise","shop":"convenience","source":"Red Cross Field Survey"}},
{"type":"Feature","geometry":{"type":"Point","coordinates":[-10.3710083,8.2806455]},"properties":{"addr:city":"Kailahun Town","addr:housenumber":"00","addr:state":"Kailahun","addr:street":"Lahun's Street","amenity":"marketplace","man_made":"yes","name":"Market center","shop":"chemist","source":"Red Cross Field Survey"}},
{"type":"Feature","geometry":{"type":"Point","coordinates":[-10.3717404,8.2815081]},"properties":{"addr:city":"Buedu","addr:housenumber":"19","addr:state":"Kailahun","addr:street":"Kangama road","man_made":"Yes","name":"Sia Kai Tongi","shop":"convenience","source":"Red Cross Field Survey"}},
{"type":"Feature","geometry":{"type":"Point","coordinates":[-10.3727443,8.2787251]},"properties":{"addr:city":"Buedu","addr:housenumber":"14","addr:state":"Kailahun","addr:street":"Kailahun Road","amenity":"Building Materials","name":"Emmanuel Kollie's Building","shop":"convenience","source":"Red Cross Field Survey"}},
{"type":"Feature","geometry":{"type":"Point","coordinates":[-10.3720754,8.2789063]},"properties":{"addr:city":"Buedu","addr:housenumber":"7","addr:state":"Kailahun","addr:street":"Kailahun Road","man_made":"Yes","name":"Mr Bayoh","shop":"convenience","source":"Red Cross Field Survey"}},
{"type":"Feature","geometry":{"type":"Point","coordinates":[-10.3715336,8.2824198]},"properties":{"addr:city":"Buedu","addr:housenumber":"35","addr:state":"Kailahun","addr:street":"Kangama road","name":"Sahr Joe's shop","shop":"convenience","source":"Red Cross Field Survey"}},
{"type":"Feature","geometry":{"type":"Point","coordinates":[-10.3719091,8.2824337]},"properties":{"addr:city":"Buedu","addr:housenumber":"6","addr:state":"Kailahun","addr:street":"Sundifilar's Street","name":"Alhaji Tar's Convenience Shop","shop":"convenience","source":"Red Cross Field Survey"}},
{"type":"Feature","geometry":{"type":"Point","coordinates":[-10.3712493,8.2818684]},"properties":{"addr:city":"Buedu","addr:housenumber":"00","addr:state":"Kailahun","addr:street":"Koindu Road","name":"Abdulai Jalloh's Convenience Shop","shop":"convenience","source":"Red Cross Field Survey"}},
{"type":"Feature","geometry":{"type":"Point","coordinates":[-10.3715295,8.2810621]},"properties":{"addr:city":"Buedu","addr:housenumber":"19","addr:state":"Kailahun","addr:street":"Kangama road","man_made":"Yes","name":"Amadu's enterprise","shop":"convenience","source":"Red Cross Field Survey"}},
{"type":"Feature","geometry":{"type":"Point","coordinates":[-10.3709958,8.2806773]},"properties":{"addr:city":"Buedu","addr:housenumber":"7","addr:state":"Kailahun","addr:street":"Lahun's Street","name":"Bah's enterprise","shop":"convenience","source":"Red Cross Field Survey"}},
{"type":"Feature","geometry":{"type":"Point","coordinates":[-10.371708,8.2791266]},"properties":{"addr:city":"Buedu","addr:housenumber":"1","addr:state":"Kailahun","addr:street":"kailahun road","man_made":"Yes","name":"Mohammed Wellied No","shop":"farm","source":"Red Cross Field Survey"}},
{"type":"Feature","geometry":{"type":"Point","coordinates":[-10.3708648,8.2797605]},"properties":{"addr:city":"Dueling","addr:housenumber":"4","addr:state":"Kailahun","addr:street":"Gokodu","building:condition":"average","building:material":"brick","man_made":"yes","name":"Mohamed Kallon Enterprise","shop":"farm","source":"Red Cross Field Survey"}},
{"type":"Feature","geometry":{"type":"Point","coordinates":[-10.4156399,8.3848114]},"properties":{"addr:city":"Dia","addr:housenumber":"00","addr:state":"Kailahun","addr:street":"Korkorma Road","name":"Baking Building","shop":"bakery","source":"Red Cross Field Survey"}},
{"type":"Feature","geometry":{"type":"Point","coordinates":[-10.4109621,8.3843125]},"properties":{"addr:city":"Dia","shop":"convenience","source":"Red Cross Field Survey"}},
{"type":"Feature","geometry":{"type":"Point","coordinates":[-10.4105759,8.3841958]},"properties":{"addr:city":"Dia","addr:housenumber":"00","addr:state":"Kailahun","addr:street":"Kondu road","name":"Kumba Sesay Convenience Shop","shop":"convenience","source":"Red Cross Field Survey"}},
{"type":"Feature","geometry":{"type":"Point","coordinates":[-10.8596086,8.441793]},"properties":{"addr:state":"Kono","addr:street":"Koidu Road","building":"commercial","building:condition":"average","building:material":"brick","shop":"convenience","source":"Red Cross Field Survey"}},
{"type":"Feature","geometry":{"type":"Point","coordinates":[-10.8589971,8.4410182]},"properties":{"addr:state":"Kono","addr:street":"main Gandorhon road","amenity":"marketplace","man_made":"yes","name":"shop","source":"Red Cross Field Survey"}},
{"type":"Feature","geometry":{"type":"Point","coordinates":[-10.8637334,8.4387589]},"properties":{"addr:state":"Kono","addr:street":"Gandorhun junction","building":"commercial","building:condition":"poor","building:material":"wood","shop":"convenience","source":"Red Cross Field Survey"}},
{"type":"Feature","geometry":{"type":"Point","coordinates":[-10.8646678,8.4384334]},"properties":{"addr:state":"Kono","addr:street":"Gandorhun old town","man_made":"yes","shop":"convenience","source":"Red Cross Field Survey"}},
{"type":"Feature","geometry":{"type":"Point","coordinates":[-10.8623806,8.4392389]},"properties":{"addr:state":"Kono","addr:street":"Gandorhon community market","amenity":"marketplace","man_made":"yes","name":"Gandorhon community market","source":"Red Cross Field Survey"}},
{"type":"Feature","geometry":{"type":"Point","coordinates":[-10.8613957,8.4391398]},"properties":{"addr:state":"Kono","addr:street":"community market","amenity":"marketplace","man_made":"yes","name":"Gandorhon community market","source":"Red Cross Field Survey"}},
{"type":"Feature","geometry":{"type":"Point","coordinates":[-10.8619725,8.4405763]},"properties":{"addr:state":"Kono","addr:street":"Koidu Road","building:condition":"average","building:material":"brick","shop":"convenience","source":"Red Cross Field Survey"}},
{"type":"Feature","geometry":{"type":"Point","coordinates":[-10.8636413,8.4392145]},"properties":{"addr:state":"Kono","addr:street":"Gandorhun junction","man_made":"yes","shop":"convenience","source":"Red Cross Field Survey"}},
{"type":"Feature","geometry":{"type":"Point","coordinates":[-10.8616294,8.4378519]},"properties":{"addr:state":"Kono","addr:street":"Gandorhon community market","amenity":"marketplace","man_made":"yes","name":"Gandorhon community market","source":"Red Cross Field Survey"}},
{"type":"Feature","geometry":{"type":"Point","coordinates":[-10.8618297,8.438083]},"properties":{"addr:state":"Kono","addr:street":"community market","amenity":"marketplace","building":"commercial","building:condition":"average","building:levels":"1","building:material":"concrete","name":"Gandorhon community market","source":"Red Cross Field Survey"}},
{"type":"Feature","geometry":{"type":"Point","coordinates":[-10.8632066,8.4384421]},"properties":{"addr:state":"Kono","addr:street":"Gandorhon junction","name":"Produce Shop","shop":"farm","source":"Red Cross Field Survey"}},
{"type":"Feature","geometry":{"type":"Point","coordinates":[-10.8646686,8.4384447]},"properties":{"addr:state":"Kono","addr:street":"Gandorhun old town","man_made":"yes","shop":"convenience","source":"Red Cross Field Survey"}},
{"type":"Feature","geometry":{"type":"Point","coordinates":[-10.8647192,8.4377482]},"properties":{"addr:state":"Kono","addr:street":"Gandorhun junction","building":"commercial","building:condition":"average","building:material":"concrete","shop":"convenience","source":"Red Cross Field Survey"}},
{"type":"Feature","geometry":{"type":"Point","coordinates":[-10.8647085,8.4377641]},"properties":{"addr:state":"Kono","addr:street":"Gandorhun junction","man_made":"yes","name":"cookery shop","shop":"food","source":"Red Cross Field Survey"}},
{"type":"Feature","geometry":{"type":"Point","coordinates":[-10.8662939,8.4339908]},"properties":{"addr:state":"Kono","addr:street":"Old Town","man_made":"Yes","shop":"convenience","source":"Red Cross Field Survey"}},
{"type":"Feature","geometry":{"type":"Point","coordinates":[-10.8662269,8.4345806]},"properties":{"addr:housenumber":"None","addr:state":"Kono","addr:street":"Old town road","shop":"convenience","source":"Red Cross Field Survey"}},
{"type":"Feature","geometry":{"type":"Point","coordinates":[-10.8681775,8.4351789]},"properties":{"addr:state":"Kono","addr:street":"Teyama Road","building":"yes","building:condition":"average","building:levels":"1","building:material":"brick","name":"Sahr F. Moiwo's Convenience Shop","shop":"convenience","source":"Red Cross Field Survey"}},
{"type":"Feature","geometry":{"type":"Point","coordinates":[-10.3386927,8.4635538]},"properties":{"addr:city":"Koindu","addr:housenumber":"00","addr:state":"Kailahun","addr:street":"Bombodu road","building:condition":"poor","building:material":"brick","name":"Yawa Bundor","shop":"convenience","source":"Red Cross Field Survey"}},
{"type":"Feature","geometry":{"type":"Point","coordinates":[-10.3384016,8.4622859]},"properties":{"addr:city":"Koindu","addr:housenumber":"2B","addr:state":"Kailahun","addr:street":"Feteyen corner","name":"Pa Musa Koroma's Convenience Shop","shop":"convenience","source":"Red Cross Field Survey"}},
{"type":"Feature","geometry":{"type":"Point","coordinates":[-10.3374991,8.4621849]},"properties":{"addr:city":"Koindu","addr:housenumber":"6B","addr:state":"Kailahun","addr:street":"Guinea Road","man_made":"yes","name":"Francis J Lamin","shop":"farm","source":"Red Cross Field Survey"}},
{"type":"Feature","geometry":{"type":"Point","coordinates":[-10.3385854,8.4633973]},"properties":{"addr:city":"Koindu","addr:state":"Kailahun","addr:street":"Bombodu road","name":"Mr. Bah's enterprise","shop":"convenience","source":"Red Cross Field Survey"}},
{"type":"Feature","geometry":{"type":"Point","coordinates":[-10.3374696,8.4621]},"properties":{"addr:city":"Koindu Town","addr:housenumber":"6A","addr:state":"Kailahun","addr:street":"Guinea Road","man_made":"yes","name":"Mohamed Alieu","shop":"food","source":"Red Cross Field Survey"}},
{"type":"Feature","geometry":{"type":"Point","coordinates":[-10.3375876,8.463185]},"properties":{"addr:city":"Koindu","addr:housenumber":"00","addr:state":"Kailahun","addr:street":"Guinea Road","building:material":"concrete","name":"S.Bah Enterprise","shop":"convenience","source":"Red Cross Field Survey"}},
{"type":"Feature","geometry":{"type":"Point","coordinates":[-10.3353453,8.4608663]},"properties":{"addr:city":"Koindu","addr:state":"Kailahun","name":"Tamba Ansumana","shop":"convenience","source":"Red Cross Field Survey"}},
{"type":"Feature","geometry":{"type":"Point","coordinates":[-10.3381851,8.4628196]},"properties":{"addr:city":"Koindu","addr:housenumber":"10B","addr:state":"Kailahun","addr:street":"Bombodu Road","name":"Fayia Jabba","shop":"convenience","source":"Red Cross Field Survey"}},
{"type":"Feature","geometry":{"type":"Point","coordinates":[-10.3375259,8.4619753]},"properties":{"addr:city":"Koindu","addr:housenumber":"6A","addr:state":"Kailahun","addr:street":"Guinea Road","name":"Tamba Joseph Kettor's Produce Shop","shop":"farm","source":"Red Cross Field Survey"}},
{"type":"Feature","geometry":{"type":"Point","coordinates":[-10.3380583,8.4625228]},"properties":{"addr:city":"koidu town","addr:housenumber":"6a","addr:state":"Kailahun","addr:street":"Bombodu Road","man_made":"yes","name":"Lamirana Sow's Convenience Shop","shop":"convenience","source":"Red Cross Field Survey"}},
{"type":"Feature","geometry":{"type":"Point","coordinates":[-10.3382058,8.4626564]},"properties":{"addr:city":"Koindu","addr:housenumber":"8a","addr:street":"Bombodu Road","amenity":"pub","name":"Alhajia Sallieu's Convenience Shop","shop":"convenience","source":"Red Cross Field Survey"}},
{"type":"Feature","geometry":{"type":"Point","coordinates":[-10.7059381,8.3967247]},"properties":{"addr:city":"Sandaru","addr:state":"Kailahun","addr:street":"Manowa Road","man_made":"Yes","name":"Store","shop":"convenience","source":"Red Cross Field Survey"}},
{"type":"Feature","geometry":{"type":"Point","coordinates":[-10.7063482,8.3931884]},"properties":{"addr:city":"Sandaru","addr:housenumber":"43","addr:state":"Kailahun","addr:street":"manoiwa road","name":"variety shop","shop":"convenience","source":"Red Cross Field Survey"}},
{"type":"Feature","geometry":{"type":"Point","coordinates":[-10.7064753,8.39365]},"properties":{"addr:city":"Sandaru","addr:housenumber":"36S","addr:state":"Kailahun","addr:street":"Manowa Road","shop":"convenience","source":"Red Cross Field Survey"}},
{"type":"Feature","geometry":{"type":"Point","coordinates":[-10.7059222,8.3967417]},"properties":{"addr:city":"Sandaru","addr:housenumber":"4","addr:state":"Kailahun","addr:street":"Manowa High way","man_made":"Yes","shop":"convenience","source":"Red Cross Field Survey"}},
{"type":"Feature","geometry":{"type":"Point","coordinates":[-10.7058355,8.3965224]},"properties":{"addr:city":"Sandaru","addr:state":"Kailahun","addr:street":"gitilia","man_made":"yes","name":"store","shop":"convenience","source":"Red Cross Field Survey"}},
{"type":"Feature","geometry":{"type":"Point","coordinates":[-10.7057797,8.3966151]},"properties":{"addr:city":"Sandaru","addr:state":"Kailahun","addr:street":"gitigor","shop":"convenience","source":"Red Cross Field Survey"}},
{"type":"Feature","geometry":{"type":"Point","coordinates":[-10.7059398,8.39661]},"properties":{"addr:city":"Sandaru","addr:housenumber":"4","addr:state":"Kailahun","addr:street":"Manowa high way","man_made":"Yes","shop":"convenience","source":"Red Cross Field Survey"}},
{"type":"Feature","geometry":{"type":"Point","coordinates":[-10.7058354,8.3965235]},"properties":{"addr:city":"Sandaru","addr:state":"Kailahun","addr:street":"gitilia","man_made":"yes","shop":"convenience","source":"Red Cross Field Survey"}},
{"type":"Feature","geometry":{"type":"Point","coordinates":[-10.7079136,8.392692]},"properties":{"addr:city":"Sandaru","addr:state":"Kailahun","addr:street":"kanjanlu road","shop":"convenience","source":"Red Cross Field Survey"}},
{"type":"Feature","geometry":{"type":"Point","coordinates":[-10.7058362,8.3965233]},"properties":{"addr:city":"Sandaru","addr:state":"Kailahun","addr:street":"gitigor","man_made":"yes","shop":"convenience","source":"Red Cross Field Survey"}},
{"type":"Feature","geometry":{"type":"Point","coordinates":[-10.7058497,8.3965693]},"properties":{"addr:city":"Sandaru","addr:state":"Kailahun","addr:street":"gitigor","shop":"convenience","source":"Red Cross Field Survey"}},
{"type":"Feature","geometry":{"type":"Point","coordinates":[-10.6963338,8.6049912]},"properties":{"addr:city":"Manjama","addr:state":"Kono","addr:street":"kamayador road","name":"Sahr Kai business center","shop":"convenience","source":"Red Cross Field Survey"}},
{"type":"Feature","geometry":{"type":"Point","coordinates":[-10.6968015,8.6070051]},"properties":{"addr:city":"Manjama","addr:state":"Kono","addr:street":"main kamiendor road","man_made":"yes","shop":"convenience","source":"Red Cross Field Survey"}},
{"type":"Feature","geometry":{"type":"Point","coordinates":[-10.5252498,8.6591791]},"properties":{"addr:city":"Densambadu","addr:state":"Kono","addr:street":"Kamiandor Road","building":"commercial","building:condition":"good","building:material":"brick","shop":"convenience","source":"Red Cross Field Survey"}},
{"type":"Feature","geometry":{"type":"Point","coordinates":[-10.5260766,8.6589358]},"properties":{"addr:city":"densabadu community","addr:state":"Kono","addr:street":"new site","amenity":"marketplace","building":"commercial","building:condition":"average","building:levels":"1","building:material":"concrete","name":"densabadu community market","source":"Red Cross Field Survey"}},
{"type":"Feature","geometry":{"type":"Point","coordinates":[-10.5261674,8.6579729]},"properties":{"addr:city":"Densambadu","addr:state":"Kono","addr:street":"Kamiandor Road","building":"commercial","building:condition":"good","building:material":"brick","name":"Bsba and Brothers Produce Shop","shop":"farm","source":"Red Cross Field Survey"}},
{"type":"Feature","geometry":{"type":"Point","coordinates":[-10.5264134,8.6578823]},"properties":{"addr:city":"Densambadu","addr:state":"Kono","addr:street":"Kamiandor Road","building":"commercial","building:condition":"average","building:material":"brick","shop":"convenience","source":"Red Cross Field Survey"}},
{"type":"Feature","geometry":{"type":"Point","coordinates":[-10.7096834,8.7820671]},"properties":{"addr:city":"Kombayedeh","addr:state":"Kono","addr:street":"Bawuya road","man_made":"Yes","shop":"convenience","source":"Red Cross Field Survey"}},
{"type":"Feature","geometry":{"type":"Point","coordinates":[-10.7104128,8.7830851]},"properties":{"addr:city":"Kombayedeh","addr:state":"Kono","addr:street":"Kombayedeh market","amenity":"marketplace","name":"Kombayedeh community market","source":"Red Cross Field Survey"}},
{"type":"Feature","geometry":{"type":"Point","coordinates":[-10.7088151,8.7852171]},"properties":{"addr:city":"Kombayedeh","addr:state":"Kono","addr:street":"kunudu road","man_made":"yes","name":"Lamin Enterprise","shop":"convenience","source":"Red Cross Field Survey"}},
{"type":"Feature","geometry":{"type":"Point","coordinates":[-11.0357049,9.0798651]},"properties":{"addr:city":"Masofinia","addr:state":"Koinadugu","addr:street":"Kono High Way","man_made":"Yes","shop":"convenience","source":"Red Cross Field Survey"}},
{"type":"Feature","geometry":{"type":"Point","coordinates":[-11.0358538,9.079836]},"properties":{"addr:city":"Masofinia","shop":"convenience","source":"Red Cross Field Survey"}},
{"type":"Feature","geometry":{"type":"Point","coordinates":[-10.737272,8.9400525]},"properties":{"addr:city":"Bandaperi","addr:street":"duruloro","shop":"convenience","source":"Red Cross Field Survey"}},
{"type":"Feature","geometry":{"type":"Point","coordinates":[-10.7373528,8.9402288]},"properties":{"addr:city":"Bandaperi","addr:housenumber":"0","addr:state":"Koinadugu","addr:street":"Kosuma road","shop":"convenience","source":"Red Cross Field Survey"}},
{"type":"Feature","geometry":{"type":"Point","coordinates":[-10.9237857,9.4654232]},"properties":{"addr:city":"Seria","addr:housenumber":"64","addr:state":"Koinadugu","addr:street":"karawanie road","shop":"convenience","source":"Red Cross Field Survey"}},
{"type":"Feature","geometry":{"type":"Point","coordinates":[-10.9234897,9.4647989]},"properties":{"addr:city":"Seria","addr:housenumber":"41","addr:state":"Koinadugu","addr:street":"karawanie road","name":"Kumba Business Point","shop":"convenience","source":"Red Cross Field Survey"}},
{"type":"Feature","geometry":{"type":"Point","coordinates":[-10.9225682,9.4647344]},"properties":{"addr:city":"Seria","addr:state":"Koinadugu","addr:street":"Seria street","shop":"bakery","source":"Red Cross Field Survey"}},
{"type":"Feature","geometry":{"type":"Point","coordinates":[-10.9235255,9.4652519]},"properties":{"addr:city":"Seria","addr:housenumber":"3","addr:state":"Koinadugu","addr:street":"Seria street","shop":"convenience","source":"Red Cross Field Survey"}},
{"type":"Feature","geometry":{"type":"Point","coordinates":[-11.6431609,9.9423276]},"properties":{"addr:city":"Gbentu","addr:housenumber":"4","addr:state":"Koinadugu","addr:street":"Gbentu 1","name":"Tigidankay Small Business Structure","shop":"convenience","source":"Red Cross Field Survey"}},
{"type":"Feature","geometry":{"type":"Point","coordinates":[-11.6525862,9.94369]},"properties":{"addr:city":"Gbentu","addr:housenumber":"18","addr:state":"Koinadugu","addr:street":"Gbentu 2","shop":"convenience","source":"Red Cross Field Survey"}},
{"type":"Feature","geometry":{"type":"Point","coordinates":[-11.6457009,9.9420599]},"properties":{"addr:city":"Gbentu","name":"Kadiatu Enterprise","shop":"convenience","source":"Red Cross Field Survey"}},
{"type":"Feature","geometry":{"type":"Point","coordinates":[-11.6426864,9.9423502]},"properties":{"addr:city":"Gbentu","addr:housenumber":"5","addr:state":"Koinadugu","addr:street":"gbentu 1","name":"Jaka business shop","shop":"convenience","source":"Red Cross Field Survey"}},
{"type":"Feature","geometry":{"type":"Point","coordinates":[-11.6419018,9.9430328]},"properties":{"addr:city":"Gbentu","addr:housenumber":"23","addr:state":"Koinadugu","addr:street":"gbentu 1","name":"Alphajor Enterprise","shop":"convenience","source":"Red Cross Field Survey"}},
{"type":"Feature","geometry":{"type":"Point","coordinates":[-11.643963,9.9419751]},"properties":{"addr:city":"Gbentu","addr:housenumber":"shops","addr:state":"Koinadugu","addr:street":"kambia road","shop":"convenience","source":"Red Cross Field Survey"}},
{"type":"Feature","geometry":{"type":"Point","coordinates":[-11.6421266,9.9427576]},"properties":{"addr:city":"Gbentu","addr:housenumber":"21","addr:state":"Koinadugu","addr:street":"gbentu 1","man_made":"yes","name":"Isatu business","shop":"convenience","source":"Red Cross Field Survey"}},
{"type":"Feature","geometry":{"type":"Point","coordinates":[-11.643768,9.942028]},"properties":{"addr:city":"Gbentu","addr:housenumber":"1","addr:state":"Koinadugu","addr:street":"Musara road","shop":"convenience","source":"Red Cross Field Survey"}},
{"type":"Feature","geometry":{"type":"Point","coordinates":[-11.6494748,9.9423096]},"properties":{"addr:city":"Gbentu","addr:housenumber":"43","addr:state":"Koinadugu","addr:street":"Gbentu 1","shop":"convenience","source":"Red Cross Field Survey"}},
{"type":"Feature","geometry":{"type":"Point","coordinates":[-11.6451216,9.9421814]},"properties":{"addr:city":"Gbentu","addr:housenumber":"30","addr:state":"Koinadugu","addr:street":"Gbentu 1","shop":"convenience","source":"Red Cross Field Survey"}},
{"type":"Feature","geometry":{"type":"Point","coordinates":[-11.6402618,9.9437926]},"properties":{"addr:city":"Gbentu","addr:housenumber":"40","addr:state":"Koinadugu","addr:street":"gbentu 1","shop":"convenience","source":"Red Cross Field Survey"}},
{"type":"Feature","geometry":{"type":"Point","coordinates":[-11.6441124,9.9419738]},"properties":{"addr:city":"Gbentu","addr:housenumber":"Kngi kamara","addr:state":"Koinadugu","addr:street":"strictly","shop":"convenience","source":"Red Cross Field Survey"}},
{"type":"Feature","geometry":{"type":"Point","coordinates":[-12.2245739,9.6755533]},"properties":{"addr:city":"Fintonia","addr:housenumber":"90","addr:state":"Bombali","addr:street":"fondakhurie road","amenity":"fast_food","building":"commercial","building:condition":"average","building:levels":"1","building:material":"wood","office":"private","shop":"food","source":"Red Cross Field Survey"}},
{"type":"Feature","geometry":{"type":"Point","coordinates":[-12.6647439,9.3984276]},"properties":{"addr:city":"Kukuna","addr:housenumber":"39a","addr:state":"Kambia","addr:street":"center street","man_made":"yes","name":"Jay Jay enterprise","shop":"convenience","source":"Red Cross Field Survey"}},
{"type":"Feature","geometry":{"type":"Point","coordinates":[-12.6651313,9.3978437]},"properties":{"addr:city":"Kukuna","addr:housenumber":"Kukuna Rd","addr:state":"Kambia","addr:street":"Kukuna Rd","amenity":"bar","building":"yes","building:levels":"1","building:material":"brick","shop":"convenience","source":"Red Cross Field Survey"}},
{"type":"Feature","geometry":{"type":"Point","coordinates":[-12.6658518,9.3962193]},"properties":{"addr:city":"Kukuna","addr:housenumber":"43a","addr:state":"Kambia","addr:street":"komboma street","man_made":"yes","name":"Momoh's Enterprise","shop":"convenience","source":"Red Cross Field Survey"}},
{"type":"Feature","geometry":{"type":"Point","coordinates":[-12.6651807,9.3973784]},"properties":{"addr:city":"Kukuna","addr:housenumber":"62b","addr:state":"Kambia","addr:street":"komboma street","man_made":"yes","name":"FA enterprise","shop":"convenience","source":"Red Cross Field Survey"}},
{"type":"Feature","geometry":{"type":"Point","coordinates":[-12.91996,9.1243591]},"properties":{"addr:city":"kambia 1","addr:housenumber":"24","addr:state":"Kambia","addr:street":"komrabai Dura Rd","building":"yes","building:condition":"average","building:levels":"1","building:material":"brick","name":"Kadiatu Enterprise","shop":"convenience","source":"Red Cross Field Survey"}},
{"type":"Feature","geometry":{"type":"Point","coordinates":[-12.9164073,9.1236909]},"properties":{"addr:city":"Kambia","addr:housenumber":"28a","addr:state":"Kambia","addr:street":"hospital road","amenity":"cafe","shop":"convenience","source":"Red Cross Field Survey"}},
{"type":"Feature","geometry":{"type":"Point","coordinates":[-12.9259374,9.110776]},"properties":{"addr:city":"Kambia","addr:state":"Kambia","addr:street":"Freetown Road","man_made":"yes","shop":"convenience","source":"Red Cross Field Survey"}},
{"type":"Feature","geometry":{"type":"Point","coordinates":[-12.926264,9.1119411]},"properties":{"addr:city":"Kambia","addr:state":"Kambia","addr:street":"Freetown Road","man_made":"yes","name":"050 Enterprise","shop":"convenience","source":"Red Cross Field Survey"}},
{"type":"Feature","geometry":{"type":"Point","coordinates":[-12.9248424,9.1128355]},"properties":{"addr:city":"Kambia","addr:state":"Kambia","addr:street":"barracks Road","man_made":"yes","name":"Majan's Enterprise","shop":"supermarket","source":"Red Cross Field Survey"}},
{"type":"Feature","geometry":{"type":"Point","coordinates":[-12.9263531,9.1118651]},"properties":{"addr:city":"Kambia","addr:state":"Kambia","addr:street":"Freetown Road","man_made":"yes","name":"Sesay Enterprise","shop":"convenience","source":"Red Cross Field Survey"}},
{"type":"Feature","geometry":{"type":"Point","coordinates":[-12.9249634,9.1091132]},"properties":{"addr:city":"Kambia","addr:state":"Kambia","addr:street":"Freetown Road","man_made":"yes","name":"Sara's Enterprise","shop":"convenience","source":"Red Cross Field Survey"}},
{"type":"Feature","geometry":{"type":"Point","coordinates":[-12.925183,9.108539]},"properties":{"addr:city":"Kambia","addr:state":"Kambia","addr:street":"katimpi Road","man_made":"yes","name":"Bah Enterprise","shop":"convenience","source":"Red Cross Field Survey"}},
{"type":"Feature","geometry":{"type":"Point","coordinates":[-12.9214324,9.1275706]},"properties":{"addr:city":"Kambia","addr:housenumber":"74Komrabaidura","addr:state":"Kambia","addr:street":"Kombaidufa Rd","man_made":"yes","shop":"convenience","source":"Red Cross Field Survey"}},
{"type":"Feature","geometry":{"type":"Point","coordinates":[-12.9189273,9.1201553]},"properties":{"addr:city":"F Town","addr:housenumber":"1A Hospital Rd","addr:state":"Kambia","addr:street":"Hospital Rd","amenity":"bar","building":"yes","building:levels":"1","building:material":"brick","name":"O J Enterprises","shop":"convenience","source":"Red Cross Field Survey"}},
{"type":"Feature","geometry":{"type":"Point","coordinates":[-12.9173196,9.1233199]},"properties":{"addr:city":"kambia 1","addr:housenumber":"6c","addr:state":"Kambia","addr:street":"Braima njai street","amenity":"pub","building":"commercial","building:condition":"average","building:levels":"1","building:material":"wood","name":"Wan Word Shop","shop":"convenience","source":"Red Cross Field Survey"}},
{"type":"Feature","geometry":{"type":"Point","coordinates":[-12.9254936,9.1100641]},"properties":{"addr:city":"Kambia","addr:state":"Kambia","addr:street":"Freetown Road","man_made":"yes","name":"Kargbos Enterprise","shop":"convenience","source":"Red Cross Field Survey"}},
{"type":"Feature","geometry":{"type":"Point","coordinates":[-13.2257259,8.4852229]},"properties":{"addr:city":"Freetown","addr:housenumber":"30","addr:state":"Western urban","addr:street":"mountain cut","amenity":"restaurant","cuisine":"regional","man_made":"yes","name":"nadi","shop":"bakery","source":"Red Cross Field Survey"}},
{"type":"Feature","geometry":{"type":"Point","coordinates":[-13.2256722,8.4852017]},"properties":{"addr:city":"Freetown","addr:housenumber":"40","addr:state":"Western urban","addr:street":"mountain cut","name":"Haja","shop":"convenience","source":"Red Cross Field Survey"}},
{"type":"Feature","geometry":{"type":"Point","coordinates":[-13.2200933,8.4895417]},"properties":{"addr:city":"Freetown","addr:housenumber":"47","addr:state":"Eeastren","addr:street":"Guard","amenity":"fast_food","name":"Mohamed","office":"yes","shop":"supermarket","source":"Red Cross Field Survey"}},
{"type":"Feature","geometry":{"type":"Point","coordinates":[-13.2363593,8.4847458]},"properties":{"addr:city":"Freetown","addr:housenumber":"3","addr:state":"western urban","addr:street":"lamina sankoh st","name":"Maselah","shop":"convenience","source":"Red Cross Field Survey"}},
{"type":"Feature","geometry":{"type":"Point","coordinates":[-13.236483,8.4847405]},"properties":{"addr:city":"Freetown","addr:housenumber":"3","addr:state":"western urban","addr:street":"lamina sankoh st'","name":"Maseleh Trading","shop":"convenience","source":"Red Cross Field Survey"}},
{"type":"Feature","geometry":{"type":"Point","coordinates":[-13.2361978,8.4847458]},"properties":{"addr:city":"Freetown","addr:housenumber":"3","addr:state":"western urban","addr:street":"lamina sankoh st'","name":"Jelman's","shop":"convenience","source":"Red Cross Field Survey"}},
{"type":"Feature","geometry":{"type":"Point","coordinates":[-13.2378077,8.4854874]},"properties":{"addr:city":"Freetown","addr:housenumber":"24","addr:state":"western urban","addr:street":"Bathurst street","name":"We Yone","office":"kukri shop","shop":"food","source":"Red Cross Field Survey"}},
{"type":"Feature","geometry":{"type":"Point","coordinates":[-13.2215755,8.4878722]},"properties":{"addr:city":"Freetown","addr:housenumber":"14","addr:state":"eastern urban","addr:street":"cardew street","name":"Have Time","shop":"convenience","source":"Red Cross Field Survey"}},
{"type":"Feature","geometry":{"type":"Point","coordinates":[-13.2374181,8.4864253]},"properties":{"addr:city":"Freetown","addr:housenumber":"7","addr:state":"eastern rular","addr:street":"fourah bah road","amenity":"commercial","name":"commercial","shop":"convenience","source":"Red Cross Field Survey"}},
{"type":"Feature","geometry":{"type":"Point","coordinates":[-13.2211885,8.4896597]},"properties":{"addr:city":"Freetown","addr:housenumber":"41","addr:state":"western urban","addr:street":"guard street","amenity":"fast_food","cuisine":"regional","man_made":"yes","name":"M.H enterprise","office":"company","shop":"convenience","source":"Red Cross Field Survey"}},
{"type":"Feature","geometry":{"type":"Point","coordinates":[-13.2211996,8.4896708]},"properties":{"addr:city":"Freetown","addr:housenumber":"41","addr:state":"Western urban","addr:street":"Guard street","amenity":"fast_food","cuisine":"Business center","man_made":"yes","name":"M. H enterprise","office":"company","shop":"convenience","source":"Red Cross Field Survey"}},
{"type":"Feature","geometry":{"type":"Point","coordinates":[-13.2211774,8.4896928]},"properties":{"addr:city":"Freetown","addr:housenumber":"41","addr:state":"western urban","addr:street":"guard street","amenity":"fast_food","cuisine":"regional","man_made":"yes","name":"M.H enterprise","office":"company","shop":"convenience","source":"Red Cross Field Survey"}},
{"type":"Feature","geometry":{"type":"Point","coordinates":[-13.224889,8.4879819]},"properties":{"addr:city":"Freetown","addr:housenumber":"32","addr:state":"Western urban","addr:street":"kissi road","amenity":"clothing","shop":"convenience","source":"Red Cross Field Survey"}},
{"type":"Feature","geometry":{"type":"Point","coordinates":[-13.2210803,8.4897752]},"properties":{"addr:city":"Freetown","addr:housenumber":"28","addr:state":"Western urban","addr:street":"Guards St","amenity":"fast_food","cuisine":"regional","man_made":"yes","name":"J K store","shop":"bakery","source":"Red Cross Field Survey"}},
{"type":"Feature","geometry":{"type":"Point","coordinates":[-13.2210374,8.4897539]},"properties":{"addr:city":"Freetown","addr:housenumber":"25","addr:state":"Western urban","addr:street":"Guards St","name":"S J store","shop":"convenience","source":"Red Cross Field Survey"}},
{"type":"Feature","geometry":{"type":"Point","coordinates":[-13.2329464,8.4887193]},"properties":{"addr:city":"Freetown","addr:housenumber":"22","addr:state":"Freetown","addr:street":"Howestreet","name":"How's street","shop":"supermarket","source":"Red Cross Field Survey"}},
{"type":"Feature","geometry":{"type":"Point","coordinates":[-13.2369804,8.4862416]},"properties":{"addr:city":"Freetown","addr:housenumber":"4","addr:state":"Koinadugu","addr:street":"band","amenity":"fast_food","cuisine":"regional","name":"Mohamed Busher","office":"government","shop":"supermarket","source":"Red Cross Field Survey"}},
{"type":"Feature","geometry":{"type":"Point","coordinates":[-13.2365282,8.4887756]},"properties":{"addr:city":"Freetown","addr:housenumber":"7a","addr:state":"Western urban","addr:street":"Walpole Street","man_made":"Yes","name":"Kawa Geba","shop":"convenience","source":"Red Cross Field Survey"}},
{"type":"Feature","geometry":{"type":"Point","coordinates":[-13.2365658,8.4893285]},"properties":{"addr:city":"Freetown","addr:housenumber":"3 lamina sankoh street","addr:state":"Western urban","addr:street":"lamina sankoh street","man_made":"yes","shop":"convenience","source":"Red Cross Field Survey"}},
{"type":"Feature","geometry":{"type":"Point","coordinates":[-13.2356501,8.4852229]},"properties":{"addr:city":"Freetown","addr:housenumber":"8","addr:state":"Western Urban","addr:street":"Pademba Road","name":"The Kiddies","shop":"convenience","source":"Red Cross Field Survey"}},
{"type":"Feature","geometry":{"type":"Point","coordinates":[-13.2356527,8.4852116]},"properties":{"addr:city":"Freetown","addr:housenumber":"8","addr:state":"Western Urban","addr:street":"Pademba Road","name":"Little Lamb Enterprise","shop":"convenience","source":"Red Cross Field Survey"}},
{"type":"Feature","geometry":{"type":"Point","coordinates":[-13.2215416,8.4864432]},"properties":{"addr:city":"Freetown","addr:state":"Freetown","addr:street":"lower path street","amenity":"fast_food","name":"Holland Farmins","shop":"convenience","source":"Red Cross Field Survey"}},
{"type":"Feature","geometry":{"type":"Point","coordinates":[-13.2330644,8.4889156]},"properties":{"addr:city":"Freetown","addr:housenumber":"18","addr:state":"western urban","addr:street":"howel","man_made":"yes","name":"Safideen 24 Inches Screen","shop":"supermarket","source":"Red Cross Field Survey"}},
{"type":"Feature","geometry":{"type":"Point","coordinates":[-13.2323134,8.487897]},"properties":{"addr:city":"Freetown","addr:housenumber":"31","addr:state":"Western urban","addr:street":"Freetown in","name":"Rex enterprises","shop":"supermarket","source":"Red Cross Field Survey"}},
{"type":"Feature","geometry":{"type":"Point","coordinates":[-13.2323027,8.4878015]},"properties":{"addr:city":"Freetown","addr:housenumber":"31","addr:state":"sent raise","addr:street":"House street","amenity":"place_of_worship","man_made":"man made","religion":"christian","shop":"supermarket","source":"Red Cross Field Survey"}},
{"type":"Feature","geometry":{"type":"Point","coordinates":[-13.2234383,8.4864585]},"properties":{"addr:city":"Freetown","addr:housenumber":"8","addr:state":"eastern rular","addr:street":"fourah bah road","amenity":"commercial","name":"commercial","shop":"convenience","source":"Red Cross Field Survey"}},
{"type":"Feature","geometry":{"type":"Point","coordinates":[-13.2243319,8.487457]},"properties":{"addr:city":"Freetown","addr:housenumber":"52","addr:state":"Western urban","addr:street":"kissy","amenity":"office","name":"Masabenrndu","office":"government","shop":"bakery","source":"Red Cross Field Survey"}},
{"type":"Feature","geometry":{"type":"Point","coordinates":[-13.2357037,8.4889793]},"properties":{"addr:city":"Freetown","addr:housenumber":"9","addr:state":"Western Urban","addr:street":"walpole street","man_made":"yes","name":"gibril bureh","shop":"convenience","source":"Red Cross Field Survey"}},
{"type":"Feature","geometry":{"type":"Point","coordinates":[-13.2360631,8.4864157]},"properties":{"addr:city":"Freetown","addr:housenumber":"32","addr:state":"Western urban","addr:street":"Walpole Street","amenity":"commercial","name":"Fatie Bie Enterprise","shop":"convenience","source":"Red Cross Field Survey"}},
{"type":"Feature","geometry":{"type":"Point","coordinates":[-13.2367786,8.4863003]},"properties":{"addr:city":"Freetown","addr:housenumber":"25","addr:state":"western urban","addr:street":"Percival street","amenity":"fast_food","name":"salvonne bakery","shop":"bakery","source":"Red Cross Field Survey"}},
{"type":"Feature","geometry":{"type":"Point","coordinates":[-13.2369912,8.4887246]},"properties":{"addr:city":"Freetown","addr:housenumber":"5","addr:state":"western urban","addr:street":"walpole","man_made":"yes","name":"Garbs & Friends Boutique","shop":"convenience","source":"Red Cross Field Survey"}},
{"type":"Feature","geometry":{"type":"Point","coordinates":[-13.2245867,8.487457]},"properties":{"addr:city":"Freetown","addr:housenumber":"24","addr:street":"Kissy road","amenity":"bar","name":"Branch","shop":"supermarket","source":"Red Cross Field Survey"}},
{"type":"Feature","geometry":{"type":"Point","coordinates":[-13.237708,8.4857789]},"properties":{"addr:city":"Freetown","addr:housenumber":"28","addr:state":"western urban","addr:street":"Bathurst street","amenity":"office","name":"Africell","office":"telecommunication","shop":"convenience","source":"Red Cross Field Survey"}},
{"type":"Feature","geometry":{"type":"Point","coordinates":[-13.2376793,8.4879589]},"properties":{"addr:city":"Freetown","addr:housenumber":"7","addr:state":"Western Area Urban","addr:street":"Percival","man_made":"Yes","name":"Yeane Enterprises","shop":"convenience","source":"Red Cross Field Survey"}},
{"type":"Feature","geometry":{"type":"Point","coordinates":[-13.2373238,8.4881729]},"properties":{"addr:city":"Freetown","addr:housenumber":"26Lightfoot Boston Street","addr:state":"western urban","addr:street":"Pultney Street","amenity":"restaurant","name":"City store","shop":"convenience","source":"Red Cross Field Survey"}},
{"type":"Feature","geometry":{"type":"Point","coordinates":[-13.2377659,8.488113]},"properties":{"addr:city":"Freetown","addr:housenumber":"2","addr:state":"Koinadugu","addr:street":"Adama Avenue","amenity":"restaurant","man_made":"yes","name":"Salon","office":"government","shop":"convenience","source":"Red Cross Field Survey"}},
{"type":"Feature","geometry":{"type":"Point","coordinates":[-13.2292706,8.4878379]},"properties":{"addr:city":"Freetown","addr:housenumber":"18","addr:state":"Western Urban","addr:street":"Kiss I Street","amenity":"fast_food","cuisine":"sandwich","man_made":"Yes","name":"Provision shop","office":"Provision shop","shop":"convenience","source":"Red Cross Field Survey"}},
{"type":"Feature","geometry":{"type":"Point","coordinates":[-13.2291173,8.4879236]},"properties":{"addr:city":"Freetown","addr:housenumber":"43","addr:state":"Western Urban","addr:street":"Kiss I Street","man_made":"Yes","name":"Provision Shop","shop":"supermarket","source":"Red Cross Field Survey"}},
{"type":"Feature","geometry":{"type":"Point","coordinates":[-13.2209365,8.4781814]},"properties":{"shop":"bakery"}},
{"type":"Feature","geometry":{"type":"Point","coordinates":[-13.259841399999999,8.484373099999999]},"properties":{"addr:street":"Murray Town Road","name":"Goodies Supermarket","shop":"supermarket"}},
{"type":"Feature","geometry":{"type":"Point","coordinates":[-12.0559789,8.8893593]},"properties":{"categories":"Business Center","name":"St. Mary's Supermarket","no":"171","shop":"supermarket","type":"Super Market","x_coord":"823825","y_coord":"983905"}},
{"type":"Feature","geometry":{"type":"Point","coordinates":[-12.0564703,8.889756]},"properties":{"address":"Azzolini Highway","categories":"Business Center","name":"ADNANS Supermarket","no":"170","shop":"supermarket","type":"Super Market","x_coord":"823769","y_coord":"983950"}},
{"type":"Feature","geometry":{"type":"Point","coordinates":[-12.0429036,8.8880857]},"properties":{"address":"Central Market","amenity":"marketplace","categories":"Business Center","name":"Sylvernus Market","no":"136","type":"Public Market","x_coord":"825264","y_coord":"983777"}},
{"type":"Feature","geometry":{"type":"Point","coordinates":[-12.0558158,8.8636434]},"properties":{"addr:housenumber":"77","address":"Makama","amenity":"marketplace","categories":"Business Center","name":"Makama Community Market","type":"Public Market"}},
{"type":"Feature","geometry":{"type":"Point","coordinates":[-12.0496084,8.8788703]},"properties":{"address":"Magburaka Road","amenity":"marketplace","categories":"Business Center","name":"Turn Table Magburaka/Agric Road","no":"76","type":"Public Market","x_coord":"824534","y_coord":"982751"}},
{"type":"Feature","geometry":{"type":"Point","coordinates":[-12.0422836,8.8996799]},"properties":{"address":"Sesay Street","amenity":"marketplace","categories":"Business Center","name":"Sesay Street Market","no":"75","type":"Public Market","x_coord":"825322","y_coord":"985061"}},
{"type":"Feature","geometry":{"type":"Point","coordinates":[-13.2754553,8.4530628]},"properties":{"name":"Goodies","shop":"supermarket"}},
{"type":"Feature","geometry":{"type":"Point","coordinates":[-13.2755005,8.4930315]},"properties":{"name":"Wharf","shop":"supermarket"}},
{"type":"Feature","geometry":{"type":"Point","coordinates":[-13.2164021,8.3431269]},"properties":{"name":"Supermarket","name:en":"Supermarket","shop":"supermarket"}},
{"type":"Feature","geometry":{"type":"Point","coordinates":[-10.6483525,7.9930789]},"properties":{"fixme":"existence confirmed, position not known"}},
{"type":"Feature","geometry":{"type":"Point","coordinates":[-10.9177097,7.8407693]},"properties":{"fixme":"Exictence confirmed, position not identified"}},
{"type":"Feature","geometry":{"type":"Point","coordinates":[-13.2596739,8.4842047]},"properties":{"addr:street":"Congo Cross","name":"Goodies Supermarket","shop":"supermarket"}},
{"type":"Feature","geometry":{"type":"Point","coordinates":[-13.2467773,8.4881821]},"properties":{"name":"Red Lion Bakery","shop":"bakery"}},
{"type":"Feature","geometry":{"type":"Point","coordinates":[-12.0702564,8.8872323]},"properties":{"addr:street":"Lunsar-Makeni Highway","name":"Monoprix","name:en":"Monoprix Supermarket","shop":"supermarket"}},
{"type":"Feature","geometry":{"type":"Point","coordinates":[-13.2034216,8.4773505]},"properties":{"name":"Dear","operator":"christian scott","shop":"supermarket"}},
{"type":"Feature","geometry":{"type":"Point","coordinates":[-13.2409187,8.477368]},"properties":{"amenity":"marketplace","name":"Congo Market"}},
{"type":"Feature","geometry":{"type":"Point","coordinates":[-12.0528924,8.8854557]},"properties":{"addr:housenumber":"28","addr:street":"Azzolini Highway","name":"Eve-Andy's","phone":"+23276455181","shop":"convenience"}},
{"type":"Feature","geometry":{"type":"Point","coordinates":[-12.429983,8.1570799]},"properties":{"amenity":"marketplace"}},
{"type":"Feature","geometry":{"type":"Point","coordinates":[-13.2256442,8.4445957]},"properties":{"addr:street":"Kaimachainde","amenity":"marketplace","name":"Marie Enterprise"}},
{"type":"Feature","geometry":{"type":"Point","coordinates":[-13.2410569,8.4524322]},"properties":{"name":"City Supermarket","shop":"supermarket"}},
{"type":"Feature","geometry":{"type":"Point","coordinates":[-12.2958934,7.7656788]},"properties":{"amenity":"marketplace","check_date":"2024-02-02","name":"Plant Site Market"}},
{"type":"Feature","geometry":{"type":"Point","coordinates":[-12.2960515,7.7650951]},"properties":{"check_date":"2024-02-02","name":"Black and White","shop":"convenience"}},
{"type":"Feature","geometry":{"type":"Point","coordinates":[-12.4982052,8.7527498]},"properties":{"addr:city":"Foredugu","addr:street":"Lunsar-Makeni Highway","amenity":"marketplace","building":"yes","name":"foredugumarket"}},
{"type":"Feature","geometry":{"type":"Point","coordinates":[-11.5550578,9.584743]},"properties":{"addr:city":"KABALA","amenity":"marketplace","name":"THUNDER HILL MARKET"}},
{"type":"Feature","geometry":{"type":"Point","coordinates":[-11.5533164,9.5854845]},"properties":{"addr:city":"KABALA","amenity":"marketplace","name":"BIG MARKET"}},
{"type":"Feature","geometry":{"type":"Point","coordinates":[-11.7248416,7.9426729]},"properties":{"shop":"dairy"}},
{"type":"Feature","geometry":{"type":"Point","coordinates":[-13.1944377,8.4621025]},"properties":{"addr:housenumber":"1","name":"Bakery falcon street","shop":"bakery"}},
{"type":"Feature","geometry":{"type":"Point","coordinates":[-11.71843,7.9330133]},"properties":{"brand":"Shop & Go","check_date":"2024-07-30","name":"Shop & Go","shop":"convenience"}},