{"type":"FeatureCollection","features":[
{"type":"Feature","geometry":{"type":"Point","coordinates":[31.0441387,-17.7944244]},"properties":{"name":"Bon Marche","operator":"Bon Marche","shop":"supermarket"}},
{"type":"Feature","geometry":{"type":"Point","coordinates":[31.0379937,-17.8024532]},"properties":{"check_date":"2023-04-17","name":"Food Lovers Market","shop":"supermarket"}},
{"type":"Feature","geometry":{"type":"Point","coordinates":[31.0388031,-17.8031298]},"properties":{"check_date":"2023-04-17","name":"Bon Marché","shop":"supermarket"}},
{"type":"Feature","geometry":{"type":"Point","coordinates":[31.0543182,-17.8181883]},"properties":{"check_date":"2023-05-12","name":"Clasic","shop":"supermarket"}},
{"type":"Feature","geometry":{"type":"Point","coordinates":[25.9867416,-18.6292077]},"properties":{"shop":"supermarket"}},
{"type":"Feature","geometry":{"type":"Point","coordinates":[28.7776451,-16.5262262]},"properties":{"name":"Local Market","shop":"supermarket"}},
{"type":"Feature","geometry":{"type":"Point","coordinates":[28.8022213,-16.525325]},"properties":{"name":"Heights Mart","shop":"supermarket"}},
{"type":"Feature","geometry":{"type":"Point","coordinates":[28.8480548,-16.5176819]},"properties":{"name":"Nyamhunga Shops","shop":"convenience"}},
{"type":"Feature","geometry":{"type":"Point","coordinates":[29.688905,-16.819675]},"properties":{"check_date":"2023-09-22","name":"TM Supermarket","shop":"supermarket"}},
{"type":"Feature","geometry":{"type":"Point","coordinates":[29.8984378,-18.3528245]},"properties":{"name":"Mini Market","shop":"supermarket"}},
{"type":"Feature","geometry":{"type":"Point","coordinates":[27.3437198,-17.6233834]},"properties":{"name":"Binga Supermarket","shop":"supermarket"}},
{"type":"Feature","geometry":{"type":"Point","coordinates":[27.4123664,-17.7617865]},"properties":{"name":"Manjolo Business Center","shop":"supermarket"}},
{"type":"Feature","geometry":{"type":"Point","coordinates":[27.334238,-17.6343616]},"properties":{"is_in":"Binga, Binga District, Matabeleland North, Zimbabwe","shop":"supermarket"}},
{"type":"Feature","geometry":{"type":"Point","coordinates":[27.3341324,-17.6340916]},"properties":{"is_in":"Binga, Binga District, Matabeleland North, Zimbabwe","shop":"supermarket"}},
{"type":"Feature","geometry":{"type":"Point","coordinates":[27.3443067,-17.6232181]},"properties":{"is_in":"Binga District, Matabeleland North, Zimbabwe","name":"Kwik Spar","shop":"supermarket"}},
{"type":"Feature","geometry":{"type":"Point","coordinates":[27.3438492,-17.6234958]},"properties":{"shop":"convenience"}},
{"type":"Feature","geometry":{"type":"Point","coordinates":[26.4922115,-18.3568837]},"properties":{"name":"Spar","shop":"supermarket"}},
{"type":"Feature","geometry":{"type":"Point","coordinates":[26.4931771,-18.3563746]},"properties":{"name":"Local Market","shop":"supermarket"}},
{"type":"Feature","geometry":{"type":"Point","coordinates":[26.5028652,-18.3566416]},"properties":{"name":"TM","shop":"supermarket"}},
{"type":"Feature","geometry":{"type":"Point","coordinates":[29.804524,-18.9273669]},"properties":{"name":"Local Market","shop":"supermarket"}},
{"type":"Feature","geometry":{"type":"Point","coordinates":[26.951321,-18.730962]},"properties":{"shop":"supermarket"}},
{"type":"Feature","geometry":{"type":"Point","coordinates":[28.5505925,-20.2015127]},"properties":{"brand":"Spar","brand:wikidata":"Q610492","brand:wikipedia":"en:Spar (retailer)","name":"Spar","shop":"supermarket"}},
{"type":"Feature","geometry":{"type":"Point","coordinates":[27.2810716,-17.9071528]},"properties":{"name":"Siachilaba Business Center","shop":"supermarket"}},
{"type":"Feature","geometry":{"type":"Point","coordinates":[28.8626233,-16.0430076]},"properties":{"name":"Chirundu Store","shop":"convenience"}},
{"type":"Feature","geometry":{"type":"Point","coordinates":[31.0874682,-17.7615627]},"properties":{"addr:street":"Borrowdale Road","name":"Pick n Pay","opening_hours":"24/7","shop":"supermarket"}},
{"type":"Feature","geometry":{"type":"Point","coordinates":[31.0894316,-17.7588143]},"properties":{"name":"Bon Marche","shop":"supermarket"}},
{"type":"Feature","geometry":{"type":"Point","coordinates":[28.5113996,-20.2173505]},"properties":{"amenity":"marketplace","name":"Mganwini Flea Market"}},
{"type":"Feature","geometry":{"type":"Point","coordinates":[29.6845967,-16.8199069]},"properties":{"amenity":"atm","operator":"POSB"}},
{"type":"Feature","geometry":{"type":"Point","coordinates":[30.0245704,-17.2646028]},"properties":{"name":"Lions Den Butchery","shop":"butcher"}},
{"type":"Feature","geometry":{"type":"Point","coordinates":[30.977632,-17.7648281]},"properties":{"name":"PicknPay","shop":"supermarket"}},
{"type":"Feature","geometry":{"type":"Point","coordinates":[25.819809,-17.9262778]},"properties":{"designation":"store/off license","name":"Seven to Eleven","shop":"convenience"}},
{"type":"Feature","geometry":{"type":"Point","coordinates":[30.9882158,-20.8082757]},"properties":{"name":"Matandamaviri Business Centre","shop":"supermarket"}},
{"type":"Feature","geometry":{"type":"Point","coordinates":[30.8651601,-20.8058355]},"properties":{"name":"Business Centre","shop":"supermarket"}},
{"type":"Feature","geometry":{"type":"Point","coordinates":[31.067273,-17.8389229]},"properties":{"shop":"supermarket"}},
{"type":"Feature","geometry":{"type":"Point","coordinates":[32.8732658,-19.8055014]},"properties":{"amenity":"marketplace"}},
{"type":"Feature","geometry":{"type":"Point","coordinates":[30.3835676,-20.6083752]},"properties":{"shop":"bakery"}},
{"type":"Feature","geometry":{"type":"Point","coordinates":[30.0567308,-20.3151392]},"properties":{"name":"TM","operator":"TM","shop":"supermarket"}},
{"type":"Feature","geometry":{"type":"Point","coordinates":[31.5440385,-18.1883791]},"properties":{"name":"TM Food Giant","shop":"supermarket"}},
{"type":"Feature","geometry":{"type":"Point","coordinates":[31.5434287,-18.1886649]},"properties":{"amenity":"marketplace","denomination":"pentecostal","name":"Bon Marche"}},
{"type":"Feature","geometry":{"type":"Point","coordinates":[31.1195037,-17.7834336]},"properties":{"name":"Supreme Butchery","shop":"butcher"}},
{"type":"Feature","geometry":{"type":"Point","coordinates":[30.8325843,-20.0740033]},"properties":{"name":"Pick'n'Pay","name:en":"PicknPay","shop":"supermarket"}},
{"type":"Feature","geometry":{"type":"Point","coordinates":[31.2194108,-17.8837403]},"properties":{"name":"TM Ruwa","operator":"Thomas Meikles (TM)","shop":"supermarket"}},
{"type":"Feature","geometry":{"type":"Point","coordinates":[30.9311359,-17.7984156]},"properties":{"amenity":"marketplace"}},
{"type":"Feature","geometry":{"type":"Point","coordinates":[28.5140407,-20.1650662]},"properties":{"shop":"supermarket"}},
{"type":"Feature","geometry":{"type":"Point","coordinates":[31.1417861,-17.8839042]},"properties":{"addr:neighborhood":"Jacha","addr:ward":"6","alt_name":"753","amenity":"marketplace","building:material":"cinder_block","name":"Angels Mini Market","source":"survey"}},
{"type":"Feature","geometry":{"type":"Point","coordinates":[32.6682159,-18.9767724]},"properties":{"name":"Spar","shop":"supermarket"}},
{"type":"Feature","geometry":{"type":"Point","coordinates":[32.6693797,-18.9756484]},"properties":{"name":"OK","shop":"supermarket"}},
{"type":"Feature","geometry":{"type":"Point","coordinates":[32.1267504,-18.5337351]},"properties":{"name":"OK","shop":"supermarket"}},
{"type":"Feature","geometry":{"type":"Point","coordinates":[28.5833148,-20.1513674]},"properties":{"brand":"Spar","brand:wikidata":"Q610492","brand:wikipedia":"en:Spar (retailer)","check_date":"2023-05-21","internet_access":"no","name":"Spar","opening_hours":"07:00-21:00","payment:mastercard":"yes","payment:visa":"yes","shop":"supermarket","source":"local knowledge","wheelchair":"yes"}},
{"type":"Feature","geometry":{"type":"Point","coordinates":[28.5831686,-20.1561434]},"properties":{"brand":"Circle K","brand:wikidata":"Q3268010","brand:wikipedia":"en:Circle K","check_date":"2023-05-05","name":"Circle K","shop":"convenience"}},
{"type":"Feature","geometry":{"type":"Point","coordinates":[32.1259975,-18.5344183]},"properties":{"name":"TM","shop":"supermarket"}},
{"type":"Feature","geometry":{"type":"Point","coordinates":[28.5833365,-20.1514725]},"properties":{"brand":"Spar","brand:wikidata":"Q610492","brand:wikipedia":"en:Spar (retailer)","check_date":"2023-05-05","name":"Spar","shop":"supermarket"}},
{"type":"Feature","geometry":{"type":"Point","coordinates":[28.5793289,-20.15775]},"properties":{"name":"Pick & Pay Hyper","shop":"supermarket"}},
{"type":"Feature","geometry":{"type":"Point","coordinates":[28.579165,-20.1510762]},"properties":{"brand":"Circle K","brand:wikidata":"Q3268010","brand:wikipedia":"en:Circle K","check_date":"2023-05-07","name":"Circle K","shop":"convenience"}},
{"type":"Feature","geometry":{"type":"Point","coordinates":[31.0101705,-17.7758656]},"properties":{"name":"Surrey Greencroft","operator":"Surrey","shop":"butcher"}},
{"type":"Feature","geometry":{"type":"Point","coordinates":[31.05136,-17.7627476]},"properties":{"branch":"Arundel","brand":"Pick n Pay","name":"Pick n Pay Arundel","opening_hours":"07:00-20:00","operator":"Pick n Pay","shop":"supermarket"}},
{"type":"Feature","geometry":{"type":"Point","coordinates":[31.0475963,-17.7714213]},"properties":{"name":"Bon Marche Mt. Pleasant","opening_hours":"Mo-Su 08:00-18:00; Apr 10-15 off; Jun 08:00-14:00; Aug off; Dec 25 off","payment:coins":"yes","payment:notes":"yes","payment:visa":"no","payment:visa_debit":"yes","payment:visa_electron":"yes","shop":"supermarket","wheelchair":"limited"}},
{"type":"Feature","geometry":{"type":"Point","coordinates":[31.1406093,-17.871324]},"properties":{"name":"Tuck Shop","shop":"convenience"}},
{"type":"Feature","geometry":{"type":"Point","coordinates":[31.1408854,-17.8720014]},"properties":{"name":"Tuck Shop","shop":"convenience"}},
{"type":"Feature","geometry":{"type":"Point","coordinates":[31.1406144,-17.872297]},"properties":{"name":"Tuck Shop","shop":"convenience"}},
{"type":"Feature","geometry":{"type":"Point","coordinates":[31.1385531,-17.87246]},"properties":{"name":"Tuck Shop","shop":"convenience"}},
{"type":"Feature","geometry":{"type":"Point","coordinates":[31.1502833,-17.8836726]},"properties":{"addr:city":"Epworth","addr:housenumber":"1910","addr:neighbourhood":"Kuwirirana","addr:quarter":"Overspill","addr:ward":"6","building:material":"brick","name":"Tuck Shop","shop":"convenience"}},
{"type":"Feature","geometry":{"type":"Point","coordinates":[28.5928533,-20.1783918]},"properties":{"name":"Bradfield Shopping Centre","shop":"convenience"}},
{"type":"Feature","geometry":{"type":"Point","coordinates":[28.5894902,-20.1758482]},"properties":{"check_date":"2023-05-07","name":"Zonkizizwe Shopping Centre","shop":"supermarket"}},
{"type":"Feature","geometry":{"type":"Point","coordinates":[28.5954693,-20.1942506]},"properties":{"name":"Hillside Shopping Centre","shop":"convenience"}},
{"type":"Feature","geometry":{"type":"Point","coordinates":[32.6262878,-18.9727783]},"properties":{"addr:city":"Mutare","name":"TM Supermarket","opening_hours":"07:00-19:30","operator":"TM/PICK 'n' PAY","shop":"supermarket"}},
{"type":"Feature","geometry":{"type":"Point","coordinates":[27.2810219,-17.9071025]},"properties":{"addr:city":"Siachilaba","addr:street":"Binga Road","name":"Nchechelabula Bottle Store","shop":"convenience"}},
{"type":"Feature","geometry":{"type":"Point","coordinates":[27.2810066,-17.9073802]},"properties":{"addr:city":"Siachilaba","addr:street":"Binga Road","name":"Sakubani Siachilaba Butchery","shop":"butcher"}},
{"type":"Feature","geometry":{"type":"Point","coordinates":[27.2810254,-17.9073252]},"properties":{"addr:city":"Siachilaba","addr:street":"Binga Road","name":"Twalijaya Bottle Shop","shop":"convenience"}},
{"type":"Feature","geometry":{"type":"Point","coordinates":[27.2810226,-17.9072577]},"properties":{"addr:city":"Siachilaba","addr:street":"Binga Road","name":"Twalijaya Trading Store","shop":"supermarket"}},
{"type":"Feature","geometry":{"type":"Point","coordinates":[31.1329617,-17.7170759]},"properties":{"name":"Bon Marche","shop":"supermarket"}},
{"type":"Feature","geometry":{"type":"Point","coordinates":[31.0713053,-17.9937507]},"properties":{"name":"Chikwanha","shop":"supermarket"}},
{"type":"Feature","geometry":{"type":"Point","coordinates":[28.5130764,-20.1116166]},"properties":{"name":"Advance","shop":"supermarket"}},
{"type":"Feature","geometry":{"type":"Point","coordinates":[28.5782521,-20.1504906]},"properties":{"addr:street":"6th Avenue","check_date":"2023-05-07","name":"Metro Peech","shop":"convenience"}},
{"type":"Feature","geometry":{"type":"Point","coordinates":[28.5059635,-20.0997631]},"properties":{"name":"Choppies","shop":"supermarket"}},
{"type":"Feature","geometry":{"type":"Point","coordinates":[28.5648993,-20.139768]},"properties":{"name":"Bazaya Grocery shop","shop":"convenience"}},
{"type":"Feature","geometry":{"type":"Point","coordinates":[28.5715873,-20.1442172]},"properties":{"name":"Meat Wholesale","shop":"butcher"}},
{"type":"Feature","geometry":{"type":"Point","coordinates":[28.5046901,-20.1051093]},"properties":{"name":"Nyaguze","shop":"convenience"}},
{"type":"Feature","geometry":{"type":"Point","coordinates":[28.5136894,-20.1126199]},"properties":{"name":"Cover Supermarket","shop":"supermarket"}},
{"type":"Feature","geometry":{"type":"Point","coordinates":[28.4828359,-20.1638565]},"properties":{"name":"Mlungu Supermarket","shop":"supermarket"}},
{"type":"Feature","geometry":{"type":"Point","coordinates":[30.8347702,-20.0718312]},"properties":{"name":"N Richards wholesalers","name:en":"N Richards wholesalers","shop":"supermarket"}},
{"type":"Feature","geometry":{"type":"Point","coordinates":[31.1018081,-17.8258034]},"properties":{"name":"Food Lovers Market Greendale","opening_hours":"Mo-Sa 08:00-18:30","shop":"supermarket"}},
{"type":"Feature","geometry":{"type":"Point","coordinates":[28.8478723,-16.5171927]},"properties":{"name":"TM","name:en":"TM","shop":"supermarket"}},
{"type":"Feature","geometry":{"type":"Point","coordinates":[31.065182,-17.7765665]},"properties":{"name":"Bridge Spar","name:en":"Bridge Spar","shop":"supermarket"}},
{"type":"Feature","geometry":{"type":"Point","coordinates":[30.9986185,-17.7899027]},"properties":{"check_date":"2023-05-08","name":"OK","name:en":"OK","opening_hours":"Mo-Fr 08:00-21:00","shop":"supermarket"}},
{"type":"Feature","geometry":{"type":"Point","coordinates":[28.4665848,-20.1537981]},"properties":{"name":"Bekezela Supermarket","shop":"supermarket"}},
{"type":"Feature","geometry":{"type":"Point","coordinates":[30.9890448,-17.8929361]},"properties":{"air_conditioning":"yes","check_date":"2024-01-02","currency:USD":"yes","internet_access":"no","name":"TM Supermarket Machipisa","payment:cash":"yes","payment:credit_cards":"yes","payment:debit_cards":"yes","second_hand":"no","shop":"supermarket","stroller":"limited","toilets":"yes","toilets:wheelchair":"yes","wheelchair":"yes"}},
{"type":"Feature","geometry":{"type":"Point","coordinates":[31.0901732,-17.7606308]},"properties":{"addr:city":"Harare","name":"Food Lover's Market","name:en":"Food Lover's Market","opening_hours":"08:00-20:00","shop":"supermarket"}},
{"type":"Feature","geometry":{"type":"Point","coordinates":[32.6617892,-18.0175815]},"properties":{"name":"Nyatate Shopping Centre","name:en":"Nyatate Shopping Centre","shop":"supermarket"}},
{"type":"Feature","geometry":{"type":"Point","coordinates":[28.5044048,-20.1896993]},"properties":{"name":"Sonmart Choppies","name:en":"Sonmart Choppies","shop":"supermarket"}},
{"type":"Feature","geometry":{"type":"Point","coordinates":[31.3574854,-17.322563]},"properties":{"name":"Chiwaridzo shopping centre","shop":"supermarket"}},
{"type":"Feature","geometry":{"type":"Point","coordinates":[32.3401888,-20.673681]},"properties":{"addr:housenumber":"1","addr:postcode":"102","addr:street":"Mutigwe Street","email":"profsimba1020@gmail.com","name":"Manzvire","name:en":"Manzvire","operator":"Kurakaraka","phone":"0782960010","shop":"supermarket"}},
{"type":"Feature","geometry":{"type":"Point","coordinates":[31.0492891,-17.8292034]},"properties":{"addr:street":"Nelson Mandela Avenue","check_date":"2023-07-29","name":"OK","name:en":"OK","shop":"supermarket"}},
{"type":"Feature","geometry":{"type":"Point","coordinates":[31.0395002,-17.8190674]},"properties":{"check_date":"2023-07-29","name":"Spar Montague","name:en":"Spar Montague","shop":"supermarket"}},
{"type":"Feature","geometry":{"type":"Point","coordinates":[30.192104,-17.3604928]},"properties":{"name":"OK Supermarket","name:en":"OK Supermarket","shop":"supermarket"}},
{"type":"Feature","geometry":{"type":"Point","coordinates":[30.192406,-17.3589753]},"properties":{"name":"TM Supermarket","name:en":"TM Supermarket","shop":"supermarket"}},
{"type":"Feature","geometry":{"type":"Point","coordinates":[30.1953971,-17.3774809]},"properties":{"name":"Zapalala supermarket","name:en":"Zapalala supermarket","shop":"supermarket"}},
{"type":"Feature","geometry":{"type":"Point","coordinates":[30.0246744,-17.2717798]},"properties":{"name":"Murereka township","name:en":"Murereka township","shop":"supermarket"}},
{"type":"Feature","geometry":{"type":"Point","coordinates":[30.1885572,-17.388090300000003]},"properties":{"name":"Pfungwadzakanaka shopping center","name:en":"Pfungwadzakanaka shopping center","shop":"convenience"}},
{"type":"Feature","geometry":{"type":"Point","coordinates":[31.0370555,-17.8015845]},"properties":{"addr:city":"Harare","addr:street":"Stamolly Drive","branch":"Avondale","check_date":"2023-07-29","name":"Pick n Pay Avondale","operator":"Pick n Pay","shop":"supermarket"}},
{"type":"Feature","geometry":{"type":"Point","coordinates":[31.0752704,-17.8105074]},"properties":{"branch":"Newlands","name":"TM Supermarket Newlands","operator":"TM","shop":"supermarket"}},
{"type":"Feature","geometry":{"type":"Point","coordinates":[30.8967078,-19.0189628]},"properties":{"name":"Sandcore","shop":"supermarket"}},
{"type":"Feature","geometry":{"type":"Point","coordinates":[30.8956355,-19.018989]},"properties":{"name":"Tekeshe S/Market","shop":"supermarket"}},
{"type":"Feature","geometry":{"type":"Point","coordinates":[30.8968203,-19.0182313]},"properties":{"name":"Pick'n'Pay","shop":"supermarket"}},
{"type":"Feature","geometry":{"type":"Point","coordinates":[30.8924015,-19.0199252]},"properties":{"name":"National Foods Depot","shop":"supermarket"}},
{"type":"Feature","geometry":{"type":"Point","coordinates":[31.0763471,-17.8196552]},"properties":{"addr:housenumber":"1","addr:street":"Inverness Road","internet_access":"wlan","name":"Bon Marchè Eastlea","opening_hours":"Mo-Su 07:00-20:00","operator":"Ok Zimbabwe private limited","phone":"+2634782118-23","shop":"supermarket","website":"http://okzimbabwe.zw"}},
{"type":"Feature","geometry":{"type":"Point","coordinates":[28.5309088,-20.2078277]},"properties":{"check_date":"2023-05-07","opening_hours":"Mo-Su 07:00-20:00","shop":"supermarket"}},
{"type":"Feature","geometry":{"type":"Point","coordinates":[28.583266,-20.1609414]},"properties":{"brand":"Spar","brand:wikidata":"Q610492","brand:wikipedia":"en:Spar (retailer)","check_date":"2023-04-28","name":"Spar","name:en":"Spar Supermarket","opening_hours":"Mo-Su 07:00-22:00","shop":"supermarket"}},
{"type":"Feature","geometry":{"type":"Point","coordinates":[29.9749266,-18.3096543]},"properties":{"name":"Chemukute Rufaro Supermarket","name:en":"Chemukute Rufaro Supermarket","shop":"supermarket"}},
{"type":"Feature","geometry":{"type":"Point","coordinates":[30.6945044,-17.872249]},"properties":{"name":"pick'n pay","name:en":"pick'n pay","shop":"supermarket"}},
{"type":"Feature","geometry":{"type":"Point","coordinates":[28.5955844,-20.1942572]},"properties":{"amenity":"fast_food","cuisine":"pizza;fried_chicken;chips","name":"Chicken Inn Pizza Inn Creamy Inn Hillside"}},
{"type":"Feature","geometry":{"type":"Point","coordinates":[30.9981805,-17.7904028]},"properties":{"check_date":"2023-05-08","name":"Spar","name:en":"Spar","shop":"supermarket"}},
{"type":"Feature","geometry":{"type":"Point","coordinates":[30.9980984,-17.7905776]},"properties":{"check_date":"2023-05-08","name":"Gwata General Dealer","name:en":"Gwata General Dealer","shop":"supermarket"}},
{"type":"Feature","geometry":{"type":"Point","coordinates":[30.9370392,-17.8247928]},"properties":{"name":"O.K. Kuwadzana","name:en":"O.K. Kuwadzana","shop":"supermarket"}},
{"type":"Feature","geometry":{"type":"Point","coordinates":[30.9333454,-17.8821979]},"properties":{"name":"OK","name:en":"OK","shop":"supermarket"}},
{"type":"Feature","geometry":{"type":"Point","coordinates":[28.9973271,-17.586671]},"properties":{"shop":"supermarket"}},
{"type":"Feature","geometry":{"type":"Point","coordinates":[28.6016251,-18.1474751]},"properties":{"name":"Manyoni Business Centre","shop":"supermarket"}},
{"type":"Feature","geometry":{"type":"Point","coordinates":[28.4747788,-20.1607248]},"properties":{"name":"makoni shop","name:en":"makoni shop","shop":"supermarket"}},
{"type":"Feature","geometry":{"type":"Point","coordinates":[30.4415489,-18.0742332]},"properties":{"name":"Selous Supermarket","shop":"supermarket"}},
{"type":"Feature","geometry":{"type":"Point","coordinates":[30.1457763,-18.1315063]},"properties":{"name":"TM","shop":"supermarket"}},
{"type":"Feature","geometry":{"type":"Point","coordinates":[29.8070369,-18.6790009]},"properties":{"name":"Riverside Store","shop":"convenience"}},
{"type":"Feature","geometry":{"type":"Point","coordinates":[29.5754933,-19.6947978]},"properties":{"shop":"convenience"}},
{"type":"Feature","geometry":{"type":"Point","coordinates":[29.365565,-19.776756]},"properties":{"name":"Shangani Store and Butchery","shop":"supermarket"}},
{"type":"Feature","geometry":{"type":"Point","coordinates":[29.3650761,-19.7775578]},"properties":{"shop":"butcher"}},
{"type":"Feature","geometry":{"type":"Point","coordinates":[29.0611806,-19.8503952]},"properties":{"shop":"supermarket"}},
{"type":"Feature","geometry":{"type":"Point","coordinates":[25.8186878,-17.9401072]},"properties":{"name":"Mkhosana Shopping Centre","shop":"supermarket"}},
{"type":"Feature","geometry":{"type":"Point","coordinates":[25.8186844,-17.9399947]},"properties":{"shop":"butcher"}},
{"type":"Feature","geometry":{"type":"Point","coordinates":[25.8172124,-17.9405542]},"properties":{"name":"Dulham Tuck Shop","shop":"convenience"}},
{"type":"Feature","geometry":{"type":"Point","coordinates":[25.8172911,-17.9408092]},"properties":{"name":"Bee Eater Tuck Shop","shop":"convenience"}},
{"type":"Feature","geometry":{"type":"Point","coordinates":[25.8186668,-17.9395943]},"properties":{"name":"Pay Less Superette & Butchery","shop":"supermarket"}},
{"type":"Feature","geometry":{"type":"Point","coordinates":[25.8186391,-17.9393676]},"properties":{"name":"Royal Bakery","shop":"bakery"}},
{"type":"Feature","geometry":{"type":"Point","coordinates":[25.8184499,-17.9396214]},"properties":{"name":"Hebron Tuck Shop","shop":"convenience"}},
{"type":"Feature","geometry":{"type":"Point","coordinates":[25.8374074,-17.9271718]},"properties":{"name":"John Johns Convenience Shop","shop":"convenience"}},
{"type":"Feature","geometry":{"type":"Point","coordinates":[31.10111,-17.7728817]},"properties":{"addr:street":"Lloyd Close","name":"Pemcol Bakery","name:en":"Pemcol Bakery","shop":"bakery"}},
{"type":"Feature","geometry":{"type":"Point","coordinates":[28.5846045,-20.154508]},"properties":{"check_date":"2023-05-05","name":"Pick and Pay","name:en":"Pick and Pay","shop":"supermarket"}},
{"type":"Feature","geometry":{"type":"Point","coordinates":[31.1008082,-17.7730681]},"properties":{"name":"Ballantyne Spar","operator":"Spar","shop":"supermarket"}},
{"type":"Feature","geometry":{"type":"Point","coordinates":[31.0505983,-17.7635476]},"properties":{"name":"Tudely Butchery","operator":"Tudely","shop":"butcher"}},
{"type":"Feature","geometry":{"type":"Point","coordinates":[31.048839,-17.7716381]},"properties":{"name":"Billy's Meats","operator":"Billy's Meats","shop":"butcher"}},
{"type":"Feature","geometry":{"type":"Point","coordinates":[31.0245779,-17.8649436]},"properties":{"addr:street":"Simon Mazorodze Road","name":"Central Butchery","shop":"butcher"}},
{"type":"Feature","geometry":{"type":"Point","coordinates":[25.8190291,-17.9401028]},"properties":{"amenity":"marketplace","name":"Vegetable Market"}},
{"type":"Feature","geometry":{"type":"Point","coordinates":[27.0727641,-17.9427526]},"properties":{"name":"Mbilizi Supermarket","name:en":"Superette","shop":"supermarket"}},
{"type":"Feature","geometry":{"type":"Point","coordinates":[25.8368026,-17.9276463]},"properties":{"entrance":"main","opening_hours":"Mo-Sa 08:00-20:00; Su 08:00-17:00"}},
{"type":"Feature","geometry":{"type":"Point","coordinates":[30.1470104,-18.1315921]},"properties":{"name":"OK","shop":"supermarket"}},
{"type":"Feature","geometry":{"type":"Point","coordinates":[28.5183919,-20.0884338]},"properties":{"name":"TM Cowdray Park","operator":"TM Pick n Pay","shop":"convenience"}},
{"type":"Feature","geometry":{"type":"Point","coordinates":[29.8373457,-19.4956621]},"properties":{"name":"Senga Shops","shop":"supermarket"}},
{"type":"Feature","geometry":{"type":"Point","coordinates":[31.0422737,-17.8331623]},"properties":{"check_date":"2024-01-03","internet_access":"wlan","internet_access:fee":"no","name":"Albion OK Supermarket","payment:cash":"yes","payment:credit_cards":"yes","payment:debit_cards":"yes","shop":"supermarket","wheelchair":"yes"}},
{"type":"Feature","geometry":{"type":"Point","coordinates":[31.6682357,-21.0438202]},"properties":{"name":"Pick n Pay","shop":"supermarket"}},
{"type":"Feature","geometry":{"type":"Point","coordinates":[31.6695689,-21.0449053]},"properties":{"name":"OK","shop":"supermarket"}},
{"type":"Feature","geometry":{"type":"Point","coordinates":[31.6737803,-21.0474517]},"properties":{"name":"Metro-Peech and Browne Wholesalers","shop":"supermarket"}},
{"type":"Feature","geometry":{"type":"Point","coordinates":[31.6722968,-21.0476043]},"properties":{"name":"N&R Bakery","shop":"bakery"}},
{"type":"Feature","geometry":{"type":"Point","coordinates":[31.0619112,-17.8297539]},"properties":{"addr:street":"Robert Mugabe Road","check_date":"2023-07-29","name":"Foodworld","opening_hours":"Mo-Su 08:00-20:00","shop":"supermarket"}},
{"type":"Feature","geometry":{"type":"Point","coordinates":[28.5794932,-20.1524109]},"properties":{"amenity":"marketplace","check_date":"2023-05-07"}},
{"type":"Feature","geometry":{"type":"Point","coordinates":[30.8316658,-20.07458]},"properties":{"name":"Cash & Carry","shop":"supermarket"}},
{"type":"Feature","geometry":{"type":"Point","coordinates":[28.5839059,-20.1540575]},"properties":{"check_date":"2023-05-07","name":"Choppies","shop":"supermarket"}},
{"type":"Feature","geometry":{"type":"Point","coordinates":[28.5794229,-20.1521232]},"properties":{"check_date":"2023-05-07","name":"Baker's Inn","shop":"bakery"}},
{"type":"Feature","geometry":{"type":"Point","coordinates":[28.9370419,-20.2948395]},"properties":{"amenity":"marketplace","name":"Esigodini Vegetable Market"}},
{"type":"Feature","geometry":{"type":"Point","coordinates":[30.8323954,-20.0752843]},"properties":{"name":"Spar","shop":"supermarket"}},
{"type":"Feature","geometry":{"type":"Point","coordinates":[30.8321273,-20.0736175]},"properties":{"name":"Simrac","shop":"supermarket"}},
{"type":"Feature","geometry":{"type":"Point","coordinates":[31.0031991,-17.8993004]},"properties":{"name":"OK","shop":"supermarket"}},
{"type":"Feature","geometry":{"type":"Point","coordinates":[30.1897952,-17.3590409]},"properties":{"name":"Corner Bakery","shop":"bakery"}},
{"type":"Feature","geometry":{"type":"Point","coordinates":[30.9715256,-17.8565661]},"properties":{"addr:housenumber":"1","addr:street":"Kambazuma Drive","name":"Section 3 Shops","opening_hours":"Mo-Su 08:00-20:00","shop":"convenience"}},
{"type":"Feature","geometry":{"type":"Point","coordinates":[30.9621573,-17.8581467]},"properties":{"name":"Kambuzuma Sec5","shop":"convenience"}},
{"type":"Feature","geometry":{"type":"Point","coordinates":[30.9595327,-17.8816701]},"properties":{"addr:street":"High Glen Road","name":"Choppies","shop":"supermarket"}},
{"type":"Feature","geometry":{"type":"Point","coordinates":[30.286568,-18.6741618]},"properties":{"name":"OK","shop":"supermarket"}},
{"type":"Feature","geometry":{"type":"Point","coordinates":[31.0273891,-17.8598819]},"properties":{"check_date":"2023-04-02","currency:USD":"yes","name":"Lobels Bakeries","shop":"bakery"}},
{"type":"Feature","geometry":{"type":"Point","coordinates":[30.913946,-17.8320001]},"properties":{"name":"Kuwadzana 5 Shopping center","shop":"supermarket"}},
{"type":"Feature","geometry":{"type":"Point","coordinates":[30.9294803,-17.864042]},"properties":{"name":"Ok Mufakose","shop":"supermarket"}},
{"type":"Feature","geometry":{"type":"Point","coordinates":[28.5897748,-20.1750964]},"properties":{"check_date":"2023-05-07","name":"Food Lover’s Market","shop":"supermarket"}},
{"type":"Feature","geometry":{"type":"Point","coordinates":[31.5913774,-19.9932978]},"properties":{"name":"Mutema Brothers Supermarket","shop":"supermarket"}},
{"type":"Feature","geometry":{"type":"Point","coordinates":[31.5893812,-19.9950855]},"properties":{"name":"Tongonya Supermarket","shop":"supermarket"}},
{"type":"Feature","geometry":{"type":"Point","coordinates":[31.3363286,-17.310948]},"properties":{"name":"Pick n Pay","name:en":"Pick n Pay","shop":"supermarket"}},
{"type":"Feature","geometry":{"type":"Point","coordinates":[31.2420986,-17.889698]},"properties":{"name":"Choppies Ruwa","shop":"supermarket"}},
{"type":"Feature","geometry":{"type":"Point","coordinates":[31.337207,-17.3112893]},"properties":{"name":"Choppies","shop":"supermarket"}},
{"type":"Feature","geometry":{"type":"Point","coordinates":[30.9224987,-17.8675583]},"properties":{"name":"Samuriwo Shopping Centre","shop":"supermarket"}},
{"type":"Feature","geometry":{"type":"Point","coordinates":[30.6674704,-17.8822278]},"properties":{"addr:postcode":"00263","name":"OK Zimbabwe","shop":"supermarket"}},
{"type":"Feature","geometry":{"type":"Point","coordinates":[30.1975355,-17.3680313]},"properties":{"name":"Surrey Meats","shop":"butcher"}},
{"type":"Feature","geometry":{"type":"Point","coordinates":[30.8582453,-17.7800457]},"properties":{"name":"Rainham abattoir","shop":"butcher"}},
{"type":"Feature","geometry":{"type":"Point","coordinates":[31.5553205,-18.1873247]},"properties":{"name":"N Richards Group","operator":"N Richards","payment:coins":"yes","payment:credit_cards":"yes","payment:visa":"yes","shop":"supermarket"}},
{"type":"Feature","geometry":{"type":"Point","coordinates":[31.5513586,-18.1893302]},"properties":{"addr:city":"Marondera","addr:country":"ZW","addr:street":"4th Street","name":"TM","payment:coins":"yes","payment:credit_cards":"yes","payment:mastercard":"yes","shop":"supermarket"}},
{"type":"Feature","geometry":{"type":"Point","coordinates":[31.5454846,-18.1911023]},"properties":{"addr:street":"2nd Street","name":"OK","opening_hours":"Mo-Su 08:00-20:00","operator":"OK","payment:coins":"yes","payment:mastercard":"yes","payment:notes":"yes","shop":"supermarket"}},
{"type":"Feature","geometry":{"type":"Point","coordinates":[31.5468726,-18.1902111]},"properties":{"addr:city":"Marondera","addr:country":"ZW","addr:street":"2nd Street","name":"S.A.V","opening_hours":"Mo-Sa09:00-21:00","payment:coins":"yes","payment:credit_cards":"yes","payment:debit_cards":"yes","shop":"supermarket"}},
{"type":"Feature","geometry":{"type":"Point","coordinates":[28.5956781,-20.1945347]},"properties":{"name":"Bonsa Spar","shop":"supermarket"}},
{"type":"Feature","geometry":{"type":"Point","coordinates":[28.619598,-20.1783576]},"properties":{"name":"Fazak Hyper","shop":"supermarket"}},
{"type":"Feature","geometry":{"type":"Point","coordinates":[31.0691313,-17.8962391]},"properties":{"name":"Maruta Shopping Center","shop":"supermarket"}},
{"type":"Feature","geometry":{"type":"Point","coordinates":[30.8956036,-19.0173637]},"properties":{"addr:street":"Dklerk street","name":"N Richards Group","opening_hours":"Mo-Fr 08:00-17:00; Sa-Su 08:00-12:00","shop":"supermarket"}},
{"type":"Feature","geometry":{"type":"Point","coordinates":[31.0418888,-17.832685]},"properties":{"brand":"Pick n Pay","brand:wikidata":"Q7190735","brand:wikipedia":"en:Pick n Pay Stores","check_date":"2024-01-03","internet_access":"wlan","internet_access:fee":"no","name":"Pick n Pay","payment:cash":"yes","payment:credit_cards":"yes","payment:debit_cards":"yes","shop":"supermarket","wheelchair":"yes"}},
{"type":"Feature","geometry":{"type":"Point","coordinates":[31.0423289,-17.8327401]},"properties":{"check_date":"2024-01-03","internet_access":"wlan","internet_access:fee":"no","name":"Food World","payment:cash":"yes","payment:credit_cards":"yes","payment:debit_cards":"yes","shop":"supermarket","wheelchair":"yes"}},
{"type":"Feature","geometry":{"type":"Point","coordinates":[31.0440617,-17.8341424]},"properties":{"check_date":"2024-01-03","currency:USD":"yes","internet_access":"wlan","internet_access:fee":"customers","name":"Choppies","opening_hours":"Mo-Fr 08:00-17:00","payment:cash":"yes","payment:credit_cards":"yes","payment:debit_cards":"yes","shop":"supermarket","wheelchair":"yes"}},
{"type":"Feature","geometry":{"type":"Point","coordinates":[31.0445006,-17.8322328]},"properties":{"check_date":"2023-07-29","name":"Food World","opening_hours":"Mo-Fr 08:00-17:00","shop":"supermarket"}},
{"type":"Feature","geometry":{"type":"Point","coordinates":[31.0481617,-17.8313794]},"properties":{"check_date":"2023-07-29","name":"Food World","shop":"supermarket"}},
{"type":"Feature","geometry":{"type":"Point","coordinates":[31.2134518,-17.8323543]},"properties":{"amenity":"marketplace"}},
{"type":"Feature","geometry":{"type":"Point","coordinates":[31.2125227,-17.8320445]},"properties":{"name":"Sipambi No 8 grocery and bottle store","shop":"convenience"}},
{"type":"Feature","geometry":{"type":"Point","coordinates":[31.2131883,-17.8318555]},"properties":{"amenity":"marketplace"}},
{"type":"Feature","geometry":{"type":"Point","coordinates":[31.2107366,-17.8295242]},"properties":{"name":"Tuck shops","shop":"convenience"}},
{"type":"Feature","geometry":{"type":"Point","coordinates":[29.4668136,-18.4427041]},"properties":{"amenity":"marketplace","description":"Formerly Cotton Marketing Board Depot","name":"Sidakeni Cottco Depot","opening_hours":"Mo-Fr 07:00-18:00"}},
{"type":"Feature","geometry":{"type":"Point","coordinates":[31.0734756,-17.9256491]},"properties":{"name":"koala park","shop":"butcher"}},
{"type":"Feature","geometry":{"type":"Point","coordinates":[32.6687241,-18.9773637]},"properties":{"addr:street":"Herbert Chitepo Street","name":"TM Pick n' Pay","shop":"supermarket"}},
{"type":"Feature","geometry":{"type":"Point","coordinates":[31.5368102,-18.2222644]},"properties":{"name":"Cherutombo shops","shop":"butcher"}},
{"type":"Feature","geometry":{"type":"Point","coordinates":[31.0357302,-17.9948897]},"properties":{"name":"Nenzie's","shop":"butcher"}},
{"type":"Feature","geometry":{"type":"Point","coordinates":[28.6092857,-20.1599069]},"properties":{"name":"Ascot Shopping Centre","shop":"supermarket"}},
{"type":"Feature","geometry":{"type":"Point","coordinates":[29.9132187,-18.3386243]},"properties":{"name":"SPAR Super Market","opening_hours":"08:00-20:00","payment:all":"yes","shop":"supermarket"}},
{"type":"Feature","geometry":{"type":"Point","coordinates":[32.7388903,-19.8814288]},"properties":{"name":"Skyline Junction Shops","shop":"convenience"}},
{"type":"Feature","geometry":{"type":"Point","coordinates":[31.0464214,-17.8287679]},"properties":{"check_date":"2024-01-03","internet_access":"wlan","internet_access:fee":"customers","name":"Kwame Mall","payment:cash":"yes","payment:credit_cards":"yes","payment:debit_cards":"yes","shop":"supermarket","wheelchair":"limited"}},
{"type":"Feature","geometry":{"type":"Point","coordinates":[31.0460684,-17.8284421]},"properties":{"check_date":"2024-01-03","internet_access":"no","name":"Shasha Mall","payment:cards":"no","payment:cash":"yes","payment:credit_cards":"no","payment:debit_cards":"no","shop":"supermarket","wheelchair":"limited"}},
{"type":"Feature","geometry":{"type":"Point","coordinates":[30.1434086,-18.1358135]},"properties":{"name":"Zapalala","shop":"supermarket"}},
{"type":"Feature","geometry":{"type":"Point","coordinates":[31.3366019,-17.3109679]},"properties":{"name":"TM Pick n Pay Bindura","shop":"supermarket"}},
{"type":"Feature","geometry":{"type":"Point","coordinates":[30.1209133,-18.1188983]},"properties":{"name":"Gatsi Shopping Centre","shop":"supermarket"}},
{"type":"Feature","geometry":{"type":"Point","coordinates":[30.1359858,-18.1195323]},"properties":{"name":"Western Shopping Centre","shop":"supermarket"}},
{"type":"Feature","geometry":{"type":"Point","coordinates":[28.581439,-20.1519023]},"properties":{"addr:street":"Fort Street","check_date":"2023-05-07","name":"Choppies Sup","opening_hours":"Mo-Su 08:00-20:00","shop":"supermarket"}},
{"type":"Feature","geometry":{"type":"Point","coordinates":[28.5861696,-20.159826]},"properties":{"addr:housenumber":"107","addr:street":"Robert Mugabe Way","check_date":"2023-05-05","name":"Alasco Supermarket","shop":"supermarket"}},
{"type":"Feature","geometry":{"type":"Point","coordinates":[30.1191961,-22.0850956]},"properties":{"amenity":"marketplace","description":"Seasonal Animal Trading Place","name":"Lutumba Business Centre"}},
{"type":"Feature","geometry":{"type":"Point","coordinates":[31.1136283,-22.30641]},"properties":{"name":"Corner 18","shop":"convenience"}},
{"type":"Feature","geometry":{"type":"Point","coordinates":[30.9793274,-17.8333665]},"properties":{"brand":"Choppies","brand:wikidata":"Q5104860","name":"Choppies","shop":"supermarket"}},
{"type":"Feature","geometry":{"type":"Point","coordinates":[30.9722943,-17.8388174]},"properties":{"name":"Unifresh","shop":"convenience"}},
{"type":"Feature","geometry":{"type":"Point","coordinates":[28.5226174,-20.1483488]},"properties":{"amenity":"marketplace","name":"People's Market"}},
{"type":"Feature","geometry":{"type":"Point","coordinates":[32.684347,-18.9801977]},"properties":{"addr:street":"Rekai Tangwena Drive","name":"Maniki Family Shop","opening_hours":"Mo-Su 06:00-20:00","operator":"Maniki","phone":"+263779156952","shop":"supermarket"}},
{"type":"Feature","geometry":{"type":"Point","coordinates":[31.5717905,-18.6261685]},"properties":{"name":"Mega Mart Supermarket","operator":"Chotace","shop":"supermarket"}},
{"type":"Feature","geometry":{"type":"Point","coordinates":[25.8348874,-17.9303245]},"properties":{"brand":"Pick n Pay","brand:wikidata":"Q7190735","brand:wikipedia":"en:Pick n Pay Stores","name":"Pick n Pay","shop":"supermarket"}},
{"type":"Feature","geometry":{"type":"Point","coordinates":[25.8348968,-17.930328]},"properties":{"name":"TM Pick n Pay","shop":"supermarket"}},
{"type":"Feature","geometry":{"type":"Point","coordinates":[28.7963874,-17.1478852]},"properties":{"name":"Peter General Dealer & Bottle Store","shop":"convenience"}},
{"type":"Feature","geometry":{"type":"Point","coordinates":[28.5866659,-20.1536952]},"properties":{"check_date":"2023-05-05","name":"Tilus supermarket","shop":"supermarket"}},
{"type":"Feature","geometry":{"type":"Point","coordinates":[30.9893864,-17.9003962]},"properties":{"name":"Lusaka Shops","shop":"supermarket"}},
{"type":"Feature","geometry":{"type":"Point","coordinates":[28.5801332,-20.1971523]},"properties":{"shop":"supermarket"}},
{"type":"Feature","geometry":{"type":"Point","coordinates":[31.0172358,-17.8582979]},"properties":{"name":"Mc Meats","shop":"butcher"}},
{"type":"Feature","geometry":{"type":"Point","coordinates":[30.2867505,-18.6743011]},"properties":{"name":"OK supermarket","shop":"supermarket"}},
{"type":"Feature","geometry":{"type":"Point","coordinates":[28.6740544,-19.9191926]},"properties":{"name":"Nkenyane Shopping Complex","shop":"convenience"}},
{"type":"Feature","geometry":{"type":"Point","coordinates":[27.7725702,-20.6194417]},"properties":{"name":"Izimnyama Shopping Centre","shop":"convenience"}},
{"type":"Feature","geometry":{"type":"Point","coordinates":[27.8096293,-20.5040291]},"properties":{"name":"Mashonganyika Supermarket","shop":"convenience"}},
{"type":"Feature","geometry":{"type":"Point","coordinates":[27.7724999,-20.6184466]},"properties":{"name":"Greenland Gardens","shop":"supermarket"}},
{"type":"Feature","geometry":{"type":"Point","coordinates":[27.772561,-20.6197737]},"properties":{"name":"Pure White","shop":"convenience"}},
{"type":"Feature","geometry":{"type":"Point","coordinates":[27.4471967,-19.9636015]},"properties":{"name":"Khame Shopping Centre","opening_hours":"Mo-Su 07:30-22:00","shop":"convenience"}},
{"type":"Feature","geometry":{"type":"Point","coordinates":[27.4466665,-19.9631282]},"properties":{"name":"Golden Harmony Supermarket","opening_hours":"Mo-Su 07:00-18:00","shop":"supermarket"}},
{"type":"Feature","geometry":{"type":"Point","coordinates":[30.2021622,-17.379096]},"properties":{"shop":"supermarket"}},
{"type":"Feature","geometry":{"type":"Point","coordinates":[29.8068526,-18.9277474]},"properties":{"addr:street":"1st Ave","name":"Ok Supermarket Kwekwe","opening_hours":"Mo-Su 07:00-19:30","shop":"supermarket"}},
{"type":"Feature","geometry":{"type":"Point","coordinates":[31.0968389,-17.8593887]},"properties":{"addr:street":"Clovely Road","name":"TM PICKnPAY","opening_hours":"Mo-Su 07:30-18:00","shop":"supermarket"}},
{"type":"Feature","geometry":{"type":"Point","coordinates":[29.687075,-16.8185013]},"properties":{"name":"OK Karoi  Supermarket","shop":"supermarket"}},
{"type":"Feature","geometry":{"type":"Point","coordinates":[31.3525881,-17.323722]},"properties":{"addr:street":"Mukuyu Road","name":"Marimira","shop":"convenience"}},
{"type":"Feature","geometry":{"type":"Point","coordinates":[31.3511719,-17.3268899]},"properties":{"name":"Mupandenyama","shop":"convenience"}},
{"type":"Feature","geometry":{"type":"Point","coordinates":[28.4744088,-20.1621015]},"properties":{"name":"Choppies Kholisani Supermarket.","opening_hours":"Mo-Su 09:00-18:00","shop":"supermarket"}},
{"type":"Feature","geometry":{"type":"Point","coordinates":[28.6411544,-20.1959292]},"properties":{"addr:street":"Esigodini Road","name":"Tilus Supermarket Leeside","opening_hours":"Mo-Su 09:00-15:30","shop":"supermarket"}},
{"type":"Feature","geometry":{"type":"Point","coordinates":[28.5794233,-20.1698833]},"properties":{"name":"Mawabeni Meats","opening_hours":"Mo-Fr 08:00-17:00; Sa 08:00-14:00","shop":"butcher"}},
{"type":"Feature","geometry":{"type":"Point","coordinates":[28.5384287,-20.1976128]},"properties":{"addr:postcode":"263","name":"Musarurwa Supermarket","opening_hours":"Mo-Su 08:00-18:00","shop":"supermarket"}},
{"type":"Feature","geometry":{"type":"Point","coordinates":[31.0350685,-17.9946165]},"properties":{"name":"Chigovanyika","shop":"convenience"}},
{"type":"Feature","geometry":{"type":"Point","coordinates":[29.8310427,-19.4558797]},"properties":{"addr:postcode":"0000","addr:street":"Mvuma Road","name":"OKMART","opening_hours":"Mo-Su 08:00-16:00","shop":"supermarket"}},
{"type":"Feature","geometry":{"type":"Point","coordinates":[30.0924073,-20.866213]},"properties":{"name":"Gwaai Business","shop":"convenience"}},
{"type":"Feature","geometry":{"type":"Point","coordinates":[28.9418607,-18.2180211]},"properties":{"shop":"supermarket"}},
{"type":"Feature","geometry":{"type":"Point","coordinates":[30.9679325,-17.8262324]},"properties":{"addr:city":"Harare","addr:housenumber":"1","addr:postcode":"949","addr:street":"168th Street","name":"Magumbe","opening_hours":"Mo-Su 07:00-22:00","shop":"supermarket"}},
{"type":"Feature","geometry":{"type":"Point","coordinates":[29.3470493,-22.0785631]},"properties":{"shop":"convenience"}},
{"type":"Feature","geometry":{"type":"Point","coordinates":[29.4462898,-18.4472688]},"properties":{"addr:housenumber":"301","addr:street":"Columbina Rural Services Centre","description":"Prop. Ndlovu J & S","name":"Mutuke Bazaar","opening_hours":"Mo-Sa 06:00-18:00","phone":"+263774079253","shop":"convenience"}},
{"type":"Feature","geometry":{"type":"Point","coordinates":[29.4447585,-18.4472656]},"properties":{"addr:street":"Muzvezve-Chemagora Road","description":"For groceries, butchery and soft drinks. Prop. Mukucha Gideon","name":"Mukucha Store & Butchery","opening_hours":"Mo-Sa 07:00-17:00","phone":"+263714041408","shop":"convenience"}},
{"type":"Feature","geometry":{"type":"Point","coordinates":[31.1683707,-18.8526489]},"properties":{"name":"Chiramwiwa General Dealer","shop":"convenience"}},
{"type":"Feature","geometry":{"type":"Point","coordinates":[30.9410602,-17.9022924]},"properties":{"name:en":"Texas Chicken GV3","shop":"butcher"}},
{"type":"Feature","geometry":{"type":"Point","coordinates":[30.9493589,-17.9061571]},"properties":{"name:en":"OK Makomva","shop":"supermarket"}},
{"type":"Feature","geometry":{"type":"Point","coordinates":[30.9842891,-17.8781649]},"properties":{"name":"Victoria Foods","shop":"bakery"}},
{"type":"Feature","geometry":{"type":"Point","coordinates":[30.3728764,-20.1138875]},"properties":{"name":"Mhandamahwe Shops","shop":"convenience"}},
{"type":"Feature","geometry":{"type":"Point","coordinates":[25.8388907,-17.9285317]},"properties":{"addr:city":"Victoria Falls","addr:street":"Lawley Road","name":"Tile and Carpet","shop":"supermarket"}},
{"type":"Feature","geometry":{"type":"Point","coordinates":[29.9909914,-22.212819]},"properties":{"name":"Tagarira stores","shop":"supermarket"}},
{"type":"Feature","geometry":{"type":"Point","coordinates":[31.1261522,-17.8394788]},"properties":{"addr:street":"Samora Machel Avenue","shop":"bakery"}},
{"type":"Feature","geometry":{"type":"Point","coordinates":[30.9531049,-17.8670853]},"properties":{"name":"Pick 'n'Pay Aspindale","shop":"supermarket"}},
{"type":"Feature","geometry":{"type":"Point","coordinates":[28.5380455,-20.183859]},"properties":{"addr:street":"Nketa Drive","name":"Chicken Corner","opening_hours":"Mo-Su 08:00-19:00","shop":"supermarket"}},
{"type":"Feature","geometry":{"type":"Point","coordinates":[28.6189174,-20.1459816]},"properties":{"addr:street":"Ludlow Hewit","name":"Choppies Parklands","opening_hours":"Mo-Su 08:00-20:00","shop":"supermarket"}},
{"type":"Feature","geometry":{"type":"Point","coordinates":[31.3302892,-17.4931392]},"properties":{"shop":"supermarket"}},
{"type":"Feature","geometry":{"type":"Point","coordinates":[25.8419285,-18.0189532]},"properties":{"name":"monde shops","shop":"convenience"}},
{"type":"Feature","geometry":{"type":"Point","coordinates":[31.0501322,-17.8310718]},"properties":{"check_date":"2023-05-12","name":"The Tn Baker","shop":"bakery"}},
{"type":"Feature","geometry":{"type":"Point","coordinates":[31.0431536,-17.8294867]},"properties":{"brand":"Shop & Go","check_date":"2024-01-03","internet_access":"no","name":"Accessories store","opening_hours":"Mo-Fr 08:00-17:00","payment:cards":"no","payment:cash":"yes","payment:credit_cards":"no","payment:debit_cards":"no","shop":"convenience","wheelchair":"no"}},
{"type":"Feature","geometry":{"type":"Point","coordinates":[31.0437022,-17.829321]},"properties":{"check_date":"2023-04-05","name":"Texas Meats","shop":"butcher"}},
{"type":"Feature","geometry":{"type":"Point","coordinates":[31.0141166,-17.953055]},"properties":{"check_date":"2023-04-09","internet_access":"no","name":"Cake ingredients and spices","opening_hours":"09:00-17:00","phone":"+263 77 406 5970","shop":"bakery","wheelchair":"no"}},
{"type":"Feature","geometry":{"type":"Point","coordinates":[31.0140895,-17.9530582]},"properties":{"brand":"Shop & Go","check_date":"2023-04-09","internet_access":"no","name":"Groceries Shop","opening_hours":"09:00-17:00","shop":"convenience","wheelchair":"no"}},
{"type":"Feature","geometry":{"type":"Point","coordinates":[31.014216,-17.9530183]},"properties":{"brand":"Shop & Go","check_date":"2023-04-09","internet_access":"no","name":"Chiketa Wholesale and Retail","opening_hours":"Mo-Fr 09:00-17:00","shop":"convenience","wheelchair":"no"}},
{"type":"Feature","geometry":{"type":"Point","coordinates":[31.0142045,-17.9528017]},"properties":{"air_conditioning":"no","brand":"Shop & Go","check_date":"2023-04-09","internet_access":"no","name":"Chimhau Investments Cultural stuffs store","opening_hours":"Mo-Fr 09:00-16:00","payment:cash":"yes","shop":"convenience","wheelchair":"no"}},
{"type":"Feature","geometry":{"type":"Point","coordinates":[31.013685,-17.9530788]},"properties":{"brand":"Shop & Go","check_date":"2023-04-09","internet_access":"no","name":"Southlands Groceries Store","opening_hours":"Mo-Fr 09:00-17:00","shop":"convenience","wheelchair":"no"}},
{"type":"Feature","geometry":{"type":"Point","coordinates":[31.013691,-17.953133]},"properties":{"brand":"Shop & Go","check_date":"2023-04-09","internet_access":"no","name":"JT Trading","opening_hours":"Mo-Fr 09:00-17:00","shop":"convenience","wheelchair":"no"}},
{"type":"Feature","geometry":{"type":"Point","coordinates":[31.0136544,-17.9533807]},"properties":{"brand":"Shop & Go","check_date":"2023-04-12","name":"Shop & Go","opening_hours":"Mo-Fr 08:00-17:00","shop":"convenience"}},
{"type":"Feature","geometry":{"type":"Point","coordinates":[31.0133071,-17.9533445]},"properties":{"brand":"Shop & Go","check_date":"2023-04-12","internet_access":"no","name":"Shop & Go","opening_hours":"Mo-Fr 09:00-17:00","shop":"convenience","wheelchair":"no"}},
{"type":"Feature","geometry":{"type":"Point","coordinates":[29.2108409,-16.9846578]},"properties":{"name":"Mazere Supermarket","operator":"Mazere","payment:cash":"yes","payment:credit_cards":"yes","payment:debit_cards":"yes","payment:notes":"yes","phone":"+263718877340","shop":"supermarket"}},
{"type":"Feature","geometry":{"type":"Point","coordinates":[31.0347251,-17.7996606]},"properties":{"brand":"Shop & Go","check_date":"2023-04-17","name":"Square Deal","shop":"convenience"}},
{"type":"Feature","geometry":{"type":"Point","coordinates":[31.0345539,-17.799782]},"properties":{"brand":"Shop & Go","check_date":"2023-04-17","name":"Falaahi Sweetmart Cash and Carry","shop":"convenience"}},
{"type":"Feature","geometry":{"type":"Point","coordinates":[31.0345975,-17.8001892]},"properties":{"brand":"Shop & Go","check_date":"2023-04-17","name":"Spar Express","shop":"convenience"}},
{"type":"Feature","geometry":{"type":"Point","coordinates":[31.0342082,-17.8005591]},"properties":{"check_date":"2023-04-17","name":"Beirut Halaal Butchery","shop":"butcher"}},
{"type":"Feature","geometry":{"type":"Point","coordinates":[31.0368414,-17.803354]},"properties":{"brand":"Shop & Go","check_date":"2023-07-29","name":"John McMinn Optometrists","shop":"convenience"}},
{"type":"Feature","geometry":{"type":"Point","coordinates":[29.9795876,-19.6665185]},"properties":{"check_date":"2023-12-24","currency:USD":"yes","description":"The store is opposite residential areas and near a road now a fast food","internet_access":"no","internet_access:fee":"yes","name":"Mama Pee Supermarket","opening_hours":"PH,Mo-Su 08:00-18:00","operator":"Mary Muhunya","organic":"yes","payment:cards":"no","payment:cash":"yes","payment:credit_cards":"yes","payment:debit_cards":"no","second_hand":"no","shop":"convenience","stroller":"limited","wheelchair":"yes"}},
{"type":"Feature","geometry":{"type":"Point","coordinates":[29.9796664,-19.6661761]},"properties":{"air_conditioning":"no","building:levels":"1","check_date":"2023-12-24","currency:USD":"yes","description":"The shop now sells hardware and is near the road","internet_access":"yes","internet_access:fee":"yes","name":"Ndambakuwa Store","opening_hours":"PH,Mo-Sa 08:00-18:00","operator":"Mr Muzion","organic":"no","payment:cash":"yes","second_hand":"yes","shop":"convenience","stroller":"no"}},
{"type":"Feature","geometry":{"type":"Point","coordinates":[29.9796652,-19.6661117]},"properties":{"addr:door":"Stand number 346","air_conditioning":"no","building:levels":"1","check_date":"2023-12-24","currency:USD":"yes","description":"The mini-shop is near a road and less famous","internet_access":"yes","internet_access:fee":"yes","name":"Nyamatanga Mini - Shop","opening_hours":"PH,Mo-Sa 08:00-18:00","operator":"Mai Manyamatanga","organic":"no","payment:cards":"no","payment:cash":"yes","payment:credit_cards":"no","payment:debit_cards":"no","second_hand":"yes","shop":"convenience","stroller":"no","wheelchair":"yes"}},
{"type":"Feature","geometry":{"type":"Point","coordinates":[29.9796635,-19.6660677]},"properties":{"addr:door":"Stand 347","addr:housenumber":"107sebanga","addr:street":"Mambohwa","air_conditioning":"no","building:levels":"1","check_date":"2023-12-24","currency:USD":"yes","description":"The mini shop is now functional","internet_access":"no","name":"Sangula Mini-shop","opening_hours":"Mo-Fr off","organic":"no","payment:cards":"no","payment:cash":"yes","payment:credit_cards":"no","payment:debit_cards":"no","second_hand":"no","shop":"convenience","stroller":"no","wheelchair":"yes"}},
{"type":"Feature","geometry":{"type":"Point","coordinates":[30.9987712,-17.7896962]},"properties":{"check_date":"2023-05-08","name":"Texas meats","opening_hours":"Mo-Fr 08:00-20:00","shop":"butcher"}},
{"type":"Feature","geometry":{"type":"Point","coordinates":[30.0011855,-19.6685213]},"properties":{"air_conditioning":"yes","branch":"Shurugwi","brand":"Pote","building:levels":"1","check_date":"2023-12-24","currency:USD":"yes","diet:chicken":"yes","diet:dairy":"yes","diet:fish":"yes","diet:healthy":"yes","diet:local":"yes","diet:raw":"yes","internet_access":"yes","internet_access:fee":"customers","name":"Pote supermarket","opening_hours":"06:00-19:00","organic":"yes","payment:cash":"yes","payment:credit_cards":"yes","second_hand":"no","shop":"supermarket","stroller":"limited","wheelchair":"yes"}},
{"type":"Feature","geometry":{"type":"Point","coordinates":[30.0011747,-19.6687247]},"properties":{"air_conditioning":"no","building:levels":"1","check_date":"2023-05-10","currency:USD":"yes","description":"The butcher is near the robots and there are outside people selling phone accessories and doing money transfers","internet_access":"no","name":"Chrome Street Butchery","payment:cards":"no","payment:cash":"yes","payment:credit_cards":"no","payment:debit_cards":"no","second_hand":"no","shop":"butcher","stroller":"no","wheelchair":"yes"}},
{"type":"Feature","geometry":{"type":"Point","coordinates":[30.0004276,-19.6673285]},"properties":{"air_conditioning":"yes","building:levels":"1","check_date":"2023-05-10","currency:USD":"yes","internet_access":"yes","internet_access:fee":"yes","name":"FTH Mini Mart Trade Center","organic":"no","payment:cash":"yes","payment:credit_cards":"yes","second_hand":"yes","shop":"convenience","start_date":"2022-01-01","stroller":"yes","wheelchair":"yes"}},
{"type":"Feature","geometry":{"type":"Point","coordinates":[30.0011416,-19.6679108]},"properties":{"air_conditioning":"no","check_date":"2023-05-10","currency:USD":"yes","description":"The store comprises of a butcher, accessories and grocery store","internet_access":"no","name":"Mazarire Store","opening_hours":"Mo-Sa 06:00-19:00","organic":"yes","payment:cash":"yes","second_hand":"yes","shop":"convenience","stroller":"no","wheelchair":"yes"}},
{"type":"Feature","geometry":{"type":"Point","coordinates":[30.0012496,-19.6694338]},"properties":{"amenity":"marketplace","building":"commercial","check_date":"2023-05-11","description":"The flea market sell appliance accessories, food and clothes","internet_access":"no","name":"Africa flea market","opening_hours":"Mo-Fr 06:00-18:00","payment:credit_cards":"yes","wheelchair":"yes"}},
{"type":"Feature","geometry":{"type":"Point","coordinates":[30.0012639,-19.6697835]},"properties":{"amenity":"marketplace","building":"yes","check_date":"2023-05-11","description":"The complex comprises of groceries, shoes, clothes and uniforms.","internet_access":"no","name":"Makurira Complex","opening_hours":"Mo-Fr 06:00-18:00","payment:credit_cards":"yes","wheelchair":"yes"}},
{"type":"Feature","geometry":{"type":"Point","coordinates":[30.0009501,-19.6699841]},"properties":{"air_conditioning":"no","branch":"Shurugwi","building:levels":"1","check_date":"2023-05-11","currency:USD":"yes","description":"The building sells various of goods","diet:chicken":"yes","diet:healthy":"yes","diet:local":"yes","diet:organic":"yes","internet_access":"no","name":"Shamah Supermarket","opening_hours":"Mo-Fr 06:00-18:00","organic":"yes","payment:cash":"yes","payment:credit_cards":"yes","shop":"supermarket","stroller":"yes","wheelchair":"yes"}},
{"type":"Feature","geometry":{"type":"Point","coordinates":[30.0010146,-19.6704781]},"properties":{"branch":"Shurugwi","building:levels":"1","check_date":"2023-05-11","currency:USD":"yes","diet:healthy":"yes","diet:local":"yes","diet:non-vegetarian":"yes","diet:raw":"yes","diet:vegetarian":"yes","internet_access":"wlan","internet_access:fee":"yes","name":"PH Supermarket","opening_hours":"Mo-Fr 06:00-18:00","organic":"yes","payment:cash":"yes","payment:credit_cards":"yes","second_hand":"no","shop":"supermarket","stroller":"yes","wheelchair":"yes"}},
{"type":"Feature","geometry":{"type":"Point","coordinates":[28.5841414,-20.15302]},"properties":{"check_date":"2023-05-21","name":"TM PicknPay","shop":"supermarket"}},
{"type":"Feature","geometry":{"type":"Point","coordinates":[28.5833542,-20.1561966]},"properties":{"check_date":"2023-05-21","name":"OK","shop":"supermarket"}},
{"type":"Feature","geometry":{"type":"Point","coordinates":[31.2995917,-16.3465383]},"properties":{"addr:constituency":"Muzarabani North","addr:district":"Muzarabani","addr:ward":"Hoya","amenity":"marketplace","capacity:shop":"35;30","name":"Patience kademaunga flea market","source":"ARP Caritas Zimbabwe 2023"}},
{"type":"Feature","geometry":{"type":"Point","coordinates":[31.20298,-16.167625]},"properties":{"addr:constituency":"Muzarabani North","addr:district":"Muzarabani","addr:ward":"Chadereka","amenity":"marketplace","capacity:shop":"13","name":"Chadereka Business Centre","source":"ARP Caritas Zimbabwe 2023"}},
{"type":"Feature","geometry":{"type":"Point","coordinates":[31.299385,-16.3467967]},"properties":{"addr:constituency":"Muzarabani North","addr:district":"Muzarabani","addr:ward":"Hoya","amenity":"marketplace","capacity:shop":"15","name":"Vegetable market","source":"ARP Caritas Zimbabwe 2023"}},
{"type":"Feature","geometry":{"type":"Point","coordinates":[31.2980717,-16.345975]},"properties":{"addr:constituency":"Muzarabani North","addr:district":"Muzarabani","addr:ward":"Hoya","amenity":"marketplace","capacity:shop":"2","name":"Cottco hoya depot","source":"ARP Caritas Zimbabwe 2023"}},
{"type":"Feature","geometry":{"type":"Point","coordinates":[31.3000217,-16.3476456]},"properties":{"addr:constituency":"Muzarabani North","addr:district":"Muzarabani","addr:ward":"Hoya","amenity":"marketplace","capacity:shop":"3","name":"Cargill cottonmarket","source":"ARP Caritas Zimbabwe 2023"}},
{"type":"Feature","geometry":{"type":"Point","coordinates":[31.2996883,-16.3465833]},"properties":{"addr:constituency":"Muzarabani North","addr:district":"Muzarabani","addr:ward":"Hoya","amenity":"marketplace","capacity:shop":"35","name":"Mai masanzu flea market","source":"ARP Caritas Zimbabwe 2023"}},
{"type":"Feature","geometry":{"type":"Point","coordinates":[31.29944,-16.346795]},"properties":{"addr:constituency":"Muzarabani North","addr:district":"Muzarabani","addr:ward":"Hoya","amenity":"marketplace","capacity:shop":"10","name":"Hoya business centre","source":"ARP Caritas Zimbabwe 2023"}},
{"type":"Feature","geometry":{"type":"Point","coordinates":[30.5246922,-21.1961314]},"properties":{"addr:city":"Masvingo","addr:street":"Dine","amenity":"events_venue","currency:RTGS":"yes","currency:USD":"yes","currency:ZAR":"yes","mobile":"+263 775 813 693","name":"Dine Shops -Masare","operator":"Masare","payment:cash":"yes","shop":"convenience"}},
{"type":"Feature","geometry":{"type":"Point","coordinates":[30.7571822,-20.9467767]},"properties":{"name":"Turn P","shop":"convenience"}},
{"type":"Feature","geometry":{"type":"Point","coordinates":[32.3937834,-18.9624343]},"properties":{"name":"Masamvu Supermarket","opening_hours":"Mo-Fr 08:00-18:00","operator":"Masamvu Trading","payment:cash":"yes","shop":"supermarket"}},
{"type":"Feature","geometry":{"type":"Point","coordinates":[32.3911252,-18.9620907]},"properties":{"name":"Berejena Store","opening_hours":"Mo-Sa 08:00-18:00","payment:cash":"yes","shop":"supermarket"}},
{"type":"Feature","geometry":{"type":"Point","coordinates":[29.2725953,-18.4709663]},"properties":{"addr:street":"Chidoma Business center","description":"A retail shop and property of C&J Ndhlovu","name":"C&J Ndhlovu","opening_hours":"Mo-Sa 06:00-20:00","phone":"0777164951 / 0776320433","shop":"supermarket"}},
{"type":"Feature","geometry":{"type":"Point","coordinates":[30.0008761,-19.6712186]},"properties":{"branch":"Shurugwi","check_date":"2023-12-24","currency:USD":"yes","internet_access":"no","name":"Vital Supermarket","opening_hours":"06:00-18:00","payment:cards":"yes","payment:cash":"yes","payment:credit_cards":"yes","payment:debit_cards":"yes","payment:mobile_phone":"yes","second_hand":"no","shop":"supermarket","source":"survey","stroller":"no","toilets":"yes","toilets:wheelchair":"no","wheelchair":"no"}},
{"type":"Feature","geometry":{"type":"Point","coordinates":[29.9988318,-19.6723737]},"properties":{"amenity":"marketplace","check_date":"2023-12-24","internet_access":"no","name":"Mumvuri","opening_hours":"Mo-Fr 06:00-19:00","source":"survey","wheelchair":"no"}},
{"type":"Feature","geometry":{"type":"Point","coordinates":[29.9987735,-19.6726918]},"properties":{"check_date":"2023-12-24","currency:USD":"yes","internet_access":"no","name":"Nyale bakery","opening_hours":"Mo-Fr 07:00-18:00","payment:cards":"no","payment:cash":"yes","payment:credit_cards":"no","payment:debit_cards":"no","second_hand":"no","shop":"bakery","source":"survey","stroller":"no","toilets":"yes","toilets:wheelchair":"limited","wheelchair":"no"}},
{"type":"Feature","geometry":{"type":"Point","coordinates":[29.9989916,-19.6728156]},"properties":{"amenity":"marketplace","building":"commercial","check_date":"2023-12-24","internet_access":"no","name":"Council marketplace","opening_hours":"Mo-Fr 07:00-18:00","payment:cards":"no","payment:cash":"yes","payment:credit_cards":"no","payment:debit_cards":"no","source":"survey","wheelchair":"no"}},
{"type":"Feature","geometry":{"type":"Point","coordinates":[29.9996639,-19.6730549]},"properties":{"air_conditioning":"yes","branch":"Shurugwi","check_date":"2023-12-24","currency:USD":"yes","internet_access":"wlan","internet_access:fee":"customers","name":"Metropeech","opening_hours":"Mo-Fr 08:00-18:00","organic":"yes","payment:cards":"yes","payment:cash":"yes","payment:coins":"yes","payment:credit_cards":"yes","payment:debit_cards":"yes","payment:mastercard":"yes","payment:mobile_phone":"yes","payment:visa":"yes","second_hand":"no","shop":"supermarket","source":"survey","stroller":"limited","toilets":"yes","toilets:wheelchair":"limited","wheelchair":"no"}},
{"type":"Feature","geometry":{"type":"Point","coordinates":[29.8823046,-19.4987495]},"properties":{"check_date":"2023-12-25","name":"Mavengere","shop":"farm"}},
{"type":"Feature","geometry":{"type":"Point","coordinates":[31.4291717,-16.191095]},"properties":{"addr:constituency":"Muzarabani North","addr:district":"Muzarabani","addr:province":"Mashonaland Central","addr:ward":"Maungaunga","amenity":"marketplace","capacity:shop":"8","name":"Chionde Business Centre","source":"ARP Caritas Zimbabwe 2023"}},
{"type":"Feature","geometry":{"type":"Point","coordinates":[30.9933183,-16.20598]},"properties":{"addr:constituency":"Muzarabani North","addr:district":"Muzarabani","addr:province":"Mashonaland Central","addr:ward":"Kapembere","amenity":"marketplace","capacity:shop":"3","name":"Mufudzi","source":"ARP Caritas Zimbabwe 2023"}},
{"type":"Feature","geometry":{"type":"Point","coordinates":[31.1623119,-16.3140374]},"properties":{"addr:constituency":"Muzarabani North","addr:district":"Muzarabani","addr:province":"Mashonaland Central","addr:ward":"Machaya","amenity":"marketplace","capacity:shop":"6","name":"Chibaya","source":"ARP Caritas Zimbabwe 2023"}},
{"type":"Feature","geometry":{"type":"Point","coordinates":[30.881875,-16.396955]},"properties":{"addr:constituency":"Muzarabani North","addr:district":"Muzarabani","addr:province":"Mashonaland Central","addr:ward":"Hwata","amenity":"marketplace","capacity:shop":"0","name":"Rujeko market garden","source":"ARP Caritas Zimbabwe 2023"}},
{"type":"Feature","geometry":{"type":"Point","coordinates":[30.9944733,-16.3929583]},"properties":{"addr:constituency":"Muzarabani North","addr:district":"Muzarabani","addr:province":"Mashonaland Central","addr:ward":"Muringazuva","amenity":"marketplace","capacity:shop":"2","name":"Muringazuva bus terminus vegetable market","source":"ARP Caritas Zimbabwe 2023"}},
{"type":"Feature","geometry":{"type":"Point","coordinates":[30.9579967,-16.323555]},"properties":{"addr:constituency":"Muzarabani North","addr:district":"Muzarabani","addr:province":"Mashonaland Central","addr:ward":"Gutsa","amenity":"marketplace","capacity:shop":"3","name":"Hwata Business Centre","source":"ARP Caritas Zimbabwe 2023"}},
{"type":"Feature","geometry":{"type":"Point","coordinates":[30.9944833,-16.3929317]},"properties":{"addr:constituency":"Muzarabani North","addr:district":"Muzarabani","addr:province":"Mashonaland Central","addr:ward":"Muringazuva","amenity":"marketplace","capacity:shop":"55","name":"Muzarabani Growth Point","source":"ARP Caritas Zimbabwe 2023"}},
{"type":"Feature","geometry":{"type":"Point","coordinates":[31.0509562,-17.8325116]},"properties":{"addr:postcode":"123","air_conditioning":"yes","check_date":"2024-01-03","currency:USD":"yes","internet_access":"wlan","internet_access:fee":"customers","name":"PnP","payment:cash":"yes","payment:credit_cards":"yes","payment:debit_cards":"yes","second_hand":"no","shop":"supermarket","stroller":"limited","toilets":"yes","toilets:wheelchair":"yes","wheelchair":"yes"}},
{"type":"Feature","geometry":{"type":"Point","coordinates":[30.6227895,-21.3642541]},"properties":{"name":"Mwenezana Estate","shop":"supermarket"}},
{"type":"Feature","geometry":{"type":"Point","coordinates":[29.2171001,-18.4489122]},"properties":{"addr:street":"Chidoma business center","name":"J&C NDHLOVU Supermarket","opening_hours":"Mo-Sa 06:00-20:00","phone":"0776320433/0777164951","shop":"supermarket"}},
{"type":"Feature","geometry":{"type":"Point","coordinates":[31.0405494,-17.8580766]},"properties":{"name":"OK Supermarket","shop":"supermarket"}},
{"type":"Feature","geometry":{"type":"Point","coordinates":[27.5527079,-18.7683619]},"properties":{"name":"Cross Jotsolo","shop":"convenience"}},
{"type":"Feature","geometry":{"type":"Point","coordinates":[31.127516,-17.8474318]},"properties":{"addr:city":"Harare","addr:housenumber":"247","addr:street":"Williams Way","name":"Caterwise","opening_hours":"Mo-Sa 08:00-16:30","shop":"supermarket"}},
{"type":"Feature","geometry":{"type":"Point","coordinates":[31.0169564,-17.8812602]},"properties":{"addr:city":"Harare","addr:postcode":"00000","addr:street":"Anston Road","name":"OK Zimbabwe","opening_hours":"Mo-Su 08:00-20:00","operator":"OK Zimbabwe","payment:cards":"yes","payment:cash":"yes","payment:contactless":"yes","shop":"supermarket"}},
{"type":"Feature","geometry":{"type":"Point","coordinates":[31.8153526,-19.9853052]},"properties":{"name":"Mandadzaka","shop":"convenience"}},
{"type":"Feature","geometry":{"type":"Point","coordinates":[31.111765,-17.7670227]},"properties":{"name":"Kava","shop":"supermarket"}},
{"type":"Feature","geometry":{"type":"Point","coordinates":[30.1950787,-17.3716559]},"properties":{"name":"FRESH VEGETABLES MARKET","shop":"supermarket"}},
{"type":"Feature","geometry":{"type":"LineString","coordinates":[[25.8367477,-17.9275263],[25.8368026,-17.9276463],[25.8369013,-17.927862],[25.8371106,-17.9277754],[25.836957,-17.9274396],[25.8367477,-17.9275263]]},"properties":{"brand":"Circle K","brand:wikidata":"Q3268010","brand:wikipedia":"en:Circle K","building":"yes","name":"Circle K","shop":"convenience"}},
{"type":"Feature","geometry":{"type":"LineString","coordinates":[[31.0540081,-17.8311143],[31.0540186,-17.8311555],[31.0540367,-17.831227],[31.0538228,-17.8312761],[31.0538651,-17.8314433],[31.053594,-17.8315055],[31.0535232,-17.8312256],[31.0540081,-17.8311143]]},"properties":{"addr:city":"Harare","addr:street":"Robert Mugabe Road","addr:suburb":"CBD","building":"commercial","check_date":"2023-07-29","name":"OK Supermarket","operator":"OK","shop":"supermarket"}},
{"type":"Feature","geometry":{"type":"LineString","coordinates":[[30.9240964,-17.8991575],[30.9242057,-17.8992783],[30.9240603,-17.8993975],[30.9240854,-17.8994251],[30.9239812,-17.8995105],[30.9238469,-17.8993621],[30.9240964,-17.8991575]]},"properties":{"building":"yes","name":"TN","opening_hours":"Mo-Su 07:00-20:00","shop":"supermarket"}},
{"type":"Feature","geometry":{"type":"LineString","coordinates":[[30.9240797,-17.9002639],[30.9242375,-17.9001285],[30.9243071,-17.900202],[30.9241493,-17.9003374],[30.9240797,-17.9002639]]},"properties":{"building":"yes","name":"jawona","opening_hours":"Mo-Fr 07:00-20:00","shop":"supermarket"}},
{"type":"Feature","geometry":{"type":"LineString","coordinates":[[30.9240395,-17.8999108],[30.9241296,-17.9000065],[30.9239727,-17.9001401],[30.9238827,-17.9000444],[30.9240395,-17.8999108]]},"properties":{"building":"yes","name":"ndikwidzei","opening_hours":"Mo-Fr 07:00-20:00","shop":"convenience"}},
{"type":"Feature","geometry":{"type":"LineString","coordinates":[[30.9245634,-17.8997188],[30.9245864,-17.8997443],[30.9244037,-17.8998997],[30.9243835,-17.8998769],[30.9245634,-17.8997188]]},"properties":{"amenity":"marketplace","building":"yes","name":"vegetable markert"}},
{"type":"Feature","geometry":{"type":"LineString","coordinates":[[29.8132993,-16.9695378],[29.8133559,-16.9695107],[29.8134627,-16.9697091],[29.8135664,-16.9699045],[29.813425,-16.9699616],[29.8133308,-16.9697662],[29.8133685,-16.9697602],[29.8133276,-16.9696941],[29.8133685,-16.96967],[29.8132993,-16.9695378]]},"properties":{"name":"Mulichi Store","shop":"convenience"}},
{"type":"Feature","geometry":{"type":"LineString","coordinates":[[31.0384667,-17.8587866],[31.0384116,-17.8587819],[31.0384227,-17.858664],[31.0382182,-17.8586467],[31.0382332,-17.8584865],[31.0381062,-17.8584757],[31.0381363,-17.8581546],[31.0380392,-17.8581455],[31.0381036,-17.8575711],[31.0381492,-17.8569941],[31.038337,-17.8556819],[31.0384657,-17.8556972],[31.038742,-17.856098],[31.0398658,-17.8567823],[31.0401019,-17.8569737],[31.0402548,-17.8572367],[31.040232,-17.8575486],[31.0410865,-17.857638],[31.0409925,-17.8585272],[31.0400469,-17.8584377],[31.0400583,-17.8583483],[31.0391726,-17.8582832],[31.0391676,-17.8584072],[31.0387852,-17.8586729],[31.0386863,-17.8586675],[31.0386699,-17.8588091],[31.0384667,-17.8587866]]},"properties":{"amenity":"marketplace","name":"Mbare Market"}},
{"type":"Feature","geometry":{"type":"LineString","coordinates":[[31.0008717,-17.6084495],[31.0010545,-17.6084824],[31.0010736,-17.6083857],[31.0008908,-17.6083529],[31.0008717,-17.6084495]]},"properties":{"building":"yes","name":"Christon Bank Supermarket","shop":"convenience"}},
{"type":"Feature","geometry":{"type":"LineString","coordinates":[[28.8979887,-20.6899854],[28.8978941,-20.6903054],[28.8981997,-20.6903462],[28.8982725,-20.6900331],[28.8979887,-20.6899854]]},"properties":{"shop":"convenience"}},
{"type":"Feature","geometry":{"type":"LineString","coordinates":[[29.3857236,-20.787798],[29.3857397,-20.7882744],[29.3863244,-20.7882142],[29.3863244,-20.7877428],[29.3857236,-20.787798]]},"properties":{"shop":"convenience"}},
{"type":"Feature","geometry":{"type":"LineString","coordinates":[[29.0810519,-20.5109145],[29.0813792,-20.511432],[29.0821087,-20.5111256],[29.081862,-20.5105402],[29.0810519,-20.5109145]]},"properties":{"shop":"convenience"}},
{"type":"Feature","geometry":{"type":"LineString","coordinates":[[30.1214638,-20.9475],[30.1215278,-20.9478108],[30.1220909,-20.9477072],[30.1220568,-20.9474123],[30.1214638,-20.9475]]},"properties":{"shop":"convenience"}},
{"type":"Feature","geometry":{"type":"LineString","coordinates":[[27.3036543,-20.2037433],[27.303358,-20.2039573],[27.3036543,-20.2043149],[27.3039409,-20.2040948],[27.3036543,-20.2037433]]},"properties":{"shop":"convenience"}},
{"type":"Feature","geometry":{"type":"LineString","coordinates":[[27.4804712,-20.1003635],[27.4805463,-20.100696],[27.4812169,-20.1005852],[27.4811632,-20.1002577],[27.4804712,-20.1003635]]},"properties":{"shop":"convenience"}},
{"type":"Feature","geometry":{"type":"LineString","coordinates":[[27.381764,-19.9564932],[27.3815188,-19.9570136],[27.3823887,-19.9573481],[27.3825785,-19.9568129],[27.381764,-19.9564932]]},"properties":{"shop":"convenience"}},
{"type":"Feature","geometry":{"type":"LineString","coordinates":[[27.8336523,-20.3824468],[27.8334043,-20.3829118],[27.8341208,-20.3832411],[27.8343206,-20.3827955],[27.8336523,-20.3824468]]},"properties":{"building":"yes","shop":"convenience"}},
{"type":"Feature","geometry":{"type":"LineString","coordinates":[[27.9544724,-20.2191747],[27.9545644,-20.2194416],[27.9548612,-20.2193536],[27.9547944,-20.2190884],[27.9544724,-20.2191747]]},"properties":{"building":"yes","shop":"convenience"}},
{"type":"Feature","geometry":{"type":"LineString","coordinates":[[32.5930154,-20.4289228],[32.5929138,-20.4290058],[32.5929817,-20.4290788],[32.5930833,-20.4289958],[32.5930154,-20.4289228]]},"properties":{"building":"yes","shop":"convenience"}},
{"type":"Feature","geometry":{"type":"LineString","coordinates":[[32.6078313,-20.3287709],[32.6079483,-20.3290146],[32.6080865,-20.3289563],[32.6079695,-20.3287125],[32.6078313,-20.3287709]]},"properties":{"building":"yes","shop":"convenience"}},
{"type":"Feature","geometry":{"type":"LineString","coordinates":[[32.6072246,-20.0276704],[32.6071924,-20.028245],[32.6077878,-20.0282298],[32.6077985,-20.0276754],[32.6072246,-20.0276704]]},"properties":{"building":"yes","shop":"convenience"}},
{"type":"Feature","geometry":{"type":"LineString","coordinates":[[30.923618,-17.8072553],[30.9236458,-17.8072091],[30.9237705,-17.8072771],[30.9237428,-17.8073233],[30.923618,-17.8072553]]},"properties":{"amenity":"marketplace","building":"yes"}},
{"type":"Feature","geometry":{"type":"LineString","coordinates":[[31.8231325,-21.1869591],[31.8226522,-21.1873323],[31.8229797,-21.187658],[31.8234382,-21.1872712],[31.8231325,-21.1869591]]},"properties":{"building":"yes","shop":"convenience"}},
{"type":"Feature","geometry":{"type":"LineString","coordinates":[[28.0994243,-21.3056838],[28.1000105,-21.3062644],[28.1007906,-21.3055322],[28.1002571,-21.3049969],[28.0994243,-21.3056838]]},"properties":{"shop":"convenience"}},
{"type":"Feature","geometry":{"type":"LineString","coordinates":[[28.2126323,-21.0118638],[28.2132277,-21.011989],[28.2133831,-21.0115431],[28.2127662,-21.0113979],[28.2126323,-21.0118638]]},"properties":{"shop":"convenience"}},
{"type":"Feature","geometry":{"type":"LineString","coordinates":[[28.3586812,-21.4916424],[28.358885,-21.4919568],[28.3592981,-21.4917023],[28.3590942,-21.4914128],[28.3586812,-21.4916424]]},"properties":{"building":"yes","shop":"convenience"}},
{"type":"Feature","geometry":{"type":"LineString","coordinates":[[28.4285912,-21.2984255],[28.4286604,-21.2988529],[28.4290994,-21.2987829],[28.4290124,-21.2983611],[28.4285912,-21.2984255]]},"properties":{"building":"yes","shop":"convenience"}},
{"type":"Feature","geometry":{"type":"LineString","coordinates":[[28.7629129,-21.0734323],[28.7628152,-21.0735052],[28.7628998,-21.0736086],[28.7629943,-21.0735204],[28.7629129,-21.0734323]]},"properties":{"building":"yes","shop":"convenience"}},
{"type":"Feature","geometry":{"type":"LineString","coordinates":[[28.7633493,-21.0740006],[28.763219,-21.0740431],[28.7632678,-21.0741434],[28.7633981,-21.0740948],[28.7633493,-21.0740006]]},"properties":{"building":"yes","shop":"convenience"}},
{"type":"Feature","geometry":{"type":"LineString","coordinates":[[28.9244844,-21.1257674],[28.9243986,-21.1259975],[28.9247795,-21.1261026],[28.9248707,-21.1258774],[28.9244844,-21.1257674]]},"properties":{"building":"yes","shop":"convenience"}},
{"type":"Feature","geometry":{"type":"LineString","coordinates":[[28.9266409,-21.1253721],[28.9266463,-21.1255922],[28.9271398,-21.1255922],[28.9271291,-21.125362],[28.9266409,-21.1253721]]},"properties":{"shop":"convenience"}},
{"type":"Feature","geometry":{"type":"LineString","coordinates":[[28.9262654,-21.126573],[28.926362,-21.1267431],[28.9266248,-21.126633],[28.9265336,-21.1264579],[28.9262654,-21.126573]]},"properties":{"shop":"convenience"}},
{"type":"Feature","geometry":{"type":"LineString","coordinates":[[29.0386491,-20.9900359],[29.0385311,-20.9902262],[29.038853,-20.9904265],[29.0389764,-20.9902262],[29.0386491,-20.9900359]]},"properties":{"shop":"convenience"}},
{"type":"Feature","geometry":{"type":"LineString","coordinates":[[29.172137,-21.3839455],[29.1721304,-21.38437],[29.1725123,-21.384395],[29.1725343,-21.3839516],[29.172137,-21.3839455]]},"properties":{"shop":"convenience"}},
{"type":"Feature","geometry":{"type":"LineString","coordinates":[[29.3703175,-21.5901553],[29.3703303,-21.5902405],[29.3703637,-21.5902362],[29.3703686,-21.5902686],[29.3705905,-21.5902399],[29.3706532,-21.5902318],[29.3706483,-21.5901992],[29.3706732,-21.590196],[29.3706816,-21.590252],[29.3707147,-21.5902478],[29.3706936,-21.5901067],[29.3703175,-21.5901553]]},"properties":{"building":"yes","shop":"convenience"}},
{"type":"Feature","geometry":{"type":"LineString","coordinates":[[29.2796915,-21.801643],[29.2796653,-21.8018935],[29.2799911,-21.8019575],[29.28004,-21.8016975],[29.2796915,-21.801643]]},"properties":{"shop":"convenience"}},
{"type":"Feature","geometry":{"type":"LineString","coordinates":[[28.8301433,-21.2972035],[28.830079,-21.2976933],[28.8305564,-21.2977532],[28.8306101,-21.2972434],[28.8301433,-21.2972035]]},"properties":{"shop":"convenience"}},
{"type":"Feature","geometry":{"type":"LineString","coordinates":[[28.6817385,-21.3168505],[28.6816956,-21.3170804],[28.6820228,-21.3171504],[28.6820764,-21.3169255],[28.6817385,-21.3168505]]},"properties":{"shop":"convenience"}},
{"type":"Feature","geometry":{"type":"LineString","coordinates":[[28.8089715,-21.2647052],[28.8090914,-21.2650069],[28.8093431,-21.2649454],[28.8092472,-21.2646103],[28.8089715,-21.2647052]]},"properties":{"shop":"convenience"}},
{"type":"Feature","geometry":{"type":"LineString","coordinates":[[28.7062601,-21.5590332],[28.7061314,-21.5593375],[28.7064371,-21.5595121],[28.706576600000003,-21.5599412],[28.7070058,-21.5598065],[28.7066839,-21.5592277],[28.7062601,-21.5590332]]},"properties":{"shop":"convenience"}},
{"type":"Feature","geometry":{"type":"LineString","coordinates":[[28.78198,-21.4075544],[28.7819718,-21.4076141],[28.78201,-21.4076186],[28.7820181,-21.407559],[28.78198,-21.4075544]]},"properties":{"building":"yes","shop":"convenience"}},
{"type":"Feature","geometry":{"type":"LineString","coordinates":[[28.8985189,-21.4039784],[28.8985242,-21.4042256],[28.899088,-21.4042755],[28.8990826,-21.4039909],[28.8985189,-21.4039784]]},"properties":{"shop":"convenience"}},
{"type":"Feature","geometry":{"type":"LineString","coordinates":[[31.0392729,-17.8188203],[31.0393038,-17.8189427],[31.0393373,-17.818935],[31.0393955,-17.8191658],[31.0395791,-17.8191238],[31.0395234,-17.8189031],[31.0394663,-17.8189161],[31.0394329,-17.8187837],[31.0392729,-17.8188203]]},"properties":{"building":"yes","check_date":"2023-07-29","name":"Spar Montague","operator":"Spar","shop":"supermarket"}},
{"type":"Feature","geometry":{"type":"LineString","coordinates":[[30.4366835,-22.1870429],[30.4367445,-22.1872441],[30.4370405,-22.1871672],[30.4370217,-22.187105],[30.4372609,-22.1870429],[30.4372187,-22.1869038],[30.4366835,-22.1870429]]},"properties":{"building":"yes","name":"Lukange Convenience Store","shop":"convenience"}},
{"type":"Feature","geometry":{"type":"LineString","coordinates":[[31.1891075,-21.9373704],[31.1891295,-21.9375298],[31.189255,-21.9375148],[31.189233,-21.9373554],[31.1891075,-21.9373704]]},"properties":{"building":"yes","shop":"convenience"}},
{"type":"Feature","geometry":{"type":"LineString","coordinates":[[31.3414228,-21.9259527],[31.3415501,-21.9260827],[31.3416402,-21.9260069],[31.3415129,-21.9258769],[31.3414228,-21.9259527]]},"properties":{"building":"yes","shop":"convenience"}},
{"type":"Feature","geometry":{"type":"LineString","coordinates":[[31.1991644,-22.177946],[31.1987729,-22.1782792],[31.1992593,-22.1787186],[31.1996231,-22.1783598],[31.1991644,-22.177946]]},"properties":{"building":"yes","shop":"convenience"}},
{"type":"Feature","geometry":{"type":"LineString","coordinates":[[31.40573,-22.2167169],[31.4055154,-22.2163643],[31.4057729,-22.2162451],[31.4059928,-22.2165778],[31.40573,-22.2167169]]},"properties":{"shop":"convenience"}},
{"type":"Feature","geometry":{"type":"LineString","coordinates":[[31.3608028,-22.2352514],[31.3606204,-22.2354004],[31.3608081,-22.235604],[31.3610066,-22.23546],[31.3608028,-22.2352514]]},"properties":{"shop":"convenience"}},
{"type":"Feature","geometry":{"type":"LineString","coordinates":[[27.5347994,-19.8028927],[27.5348092,-19.8032451],[27.5350665,-19.8032145],[27.5351577,-19.8029939],[27.5351479,-19.8028652],[27.5347994,-19.8028927]]},"properties":{"shop":"convenience"}},
{"type":"Feature","geometry":{"type":"LineString","coordinates":[[27.7540945,-19.7123116],[27.7541596,-19.7124527],[27.7543485,-19.712373],[27.7542801,-19.712235],[27.7540945,-19.7123116]]},"properties":{"building":"yes","shop":"convenience"}},
{"type":"Feature","geometry":{"type":"LineString","coordinates":[[30.2328685,-19.6592913],[30.2327934,-19.6595792],[30.2337,-19.659804],[30.2338233,-19.6594176],[30.2334193,-19.6593591],[30.2328685,-19.6592913]]},"properties":{"shop":"convenience"}},
{"type":"Feature","geometry":{"type":"LineString","coordinates":[[30.5395095,-19.5051584],[30.5397455,-19.5054011],[30.54018,-19.5050725],[30.5399601,-19.50485],[30.5395095,-19.5051584]]},"properties":{"building":"no","shop":"convenience"}},
{"type":"Feature","geometry":{"type":"LineString","coordinates":[[30.4784902,-19.4726631],[30.4779002,-19.4732194],[30.4788121,-19.4740994],[30.4794183,-19.4735229],[30.4784902,-19.4726631]]},"properties":{"shop":"convenience"}},
{"type":"Feature","geometry":{"type":"LineString","coordinates":[[30.4867236,-19.6618143],[30.4866945,-19.662157],[30.4874222,-19.6625339],[30.4874513,-19.6622803],[30.4868837,-19.6617663],[30.4867236,-19.6618143]]},"properties":{"shop":"convenience"}},
{"type":"Feature","geometry":{"type":"LineString","coordinates":[[30.6734734,-19.8053514],[30.6741774,-19.8062362],[30.6745612,-19.8060708],[30.6738704,-19.8051091],[30.6734734,-19.8053514]]},"properties":{"shop":"convenience"}},
{"type":"Feature","geometry":{"type":"LineString","coordinates":[[30.6851042,-19.768439],[30.6850989,-19.7689085],[30.6854154,-19.7689287],[30.6854368,-19.7684592],[30.6851042,-19.768439]]},"properties":{"shop":"convenience"}},
{"type":"Feature","geometry":{"type":"LineString","coordinates":[[30.2954217,-19.8891147],[30.2954128,-19.8896797],[30.295943,-19.8896714],[30.295943,-19.8891064],[30.2954217,-19.8891147]]},"properties":{"shop":"convenience"}},
{"type":"Feature","geometry":{"type":"LineString","coordinates":[[30.2888175,-19.7714149],[30.2888228,-19.7716453],[30.2889503,-19.7716435],[30.2889416,-19.7714112],[30.2888175,-19.7714149]]},"properties":{"building":"yes","shop":"convenience"}},
{"type":"Feature","geometry":{"type":"LineString","coordinates":[[30.2716041,-19.9398043],[30.2718781,-19.9403691],[30.2723464,-19.9402279],[30.272099,-19.9397046],[30.2716041,-19.9398043]]},"properties":{"landuse":"commercial","shop":"convenience"}},
{"type":"Feature","geometry":{"type":"LineString","coordinates":[[30.3008165,-19.938874],[30.3007017,-19.9394637],[30.3011081,-19.9395136],[30.3012495,-19.9389653],[30.3010569,-19.9389247],[30.3008165,-19.938874]]},"properties":{"building":"yes","shop":"convenience"}},
{"type":"Feature","geometry":{"type":"LineString","coordinates":[[30.2561162,-19.7412053],[30.2561631,-19.741673],[30.2561631,-19.7417503],[30.2571237,-19.7417572],[30.2571164,-19.7413873],[30.2561162,-19.7412053]]},"properties":{"landuse":"commercial","shop":"convenience"}},
{"type":"Feature","geometry":{"type":"LineString","coordinates":[[31.4639945,-19.5915306],[31.4641052,-19.59238],[31.4645244,-19.5923502],[31.464455,-19.5916902],[31.4644374,-19.5915232],[31.4639945,-19.5915306]]},"properties":{"shop":"convenience"}},
{"type":"Feature","geometry":{"type":"LineString","coordinates":[[30.9363558,-19.7956507],[30.9362932,-19.7958941],[30.9364167,-19.7959222],[30.9364793,-19.7956788],[30.9363558,-19.7956507]]},"properties":{"building":"yes","shop":"convenience"}},
{"type":"Feature","geometry":{"type":"LineString","coordinates":[[31.3312773,-19.4572059],[31.3310895,-19.4573729],[31.3312719,-19.4575398],[31.3314704,-19.4573779],[31.3312773,-19.4572059]]},"properties":{"building":"yes","name":"Mufunduru","shop":"convenience"}},
{"type":"Feature","geometry":{"type":"LineString","coordinates":[[31.6611426,-19.4849678],[31.6611417,-19.4851258],[31.6612736,-19.4851264],[31.6612742,-19.4850053],[31.6612577,-19.4850053],[31.6612579,-19.4849683],[31.6611426,-19.4849678]]},"properties":{"building":"yes","shop":"convenience"}},
{"type":"Feature","geometry":{"type":"LineString","coordinates":[[31.9958191,-19.5797144],[31.9959157,-19.5799873],[31.9964521,-19.5798458],[31.996377,-19.579588],[31.9958191,-19.5797144]]},"properties":{"building":"yes","shop":"convenience"}},
{"type":"Feature","geometry":{"type":"LineString","coordinates":[[32.0587652,-19.5666992],[32.0587867,-19.5668812],[32.0590013,-19.5668508],[32.0590013,-19.5666739],[32.0587652,-19.5666992]]},"properties":{"building":"yes","shop":"convenience"}},
{"type":"Feature","geometry":{"type":"LineString","coordinates":[[32.2327914,-19.4937512],[32.2326998,-19.4938016],[32.2326351,-19.4938372],[32.232736,-19.4939845],[32.2328924,-19.4938955],[32.2327914,-19.4937512]]},"properties":{"shop":"convenience"}},
{"type":"Feature","geometry":{"type":"LineString","coordinates":[[32.2333711,-19.4932293],[32.233205,-19.4931034],[32.2333906,-19.4929468],[32.2335339,-19.4930635],[32.2333711,-19.4932293]]},"properties":{"shop":"convenience"}},
{"type":"Feature","geometry":{"type":"LineString","coordinates":[[32.2339931,-19.4928517],[32.2338043,-19.4929775],[32.2339378,-19.4931587],[32.2341169,-19.4930236],[32.2339931,-19.4928517]]},"properties":{"shop":"convenience"}},
{"type":"Feature","geometry":{"type":"LineString","coordinates":[[32.2720859,-19.53477],[32.2719725,-19.5350813],[32.2724982,-19.5352482],[32.2725894,-19.5349448],[32.2722648,-19.5347145],[32.2720859,-19.53477]]},"properties":{"shop":"convenience"}},
{"type":"Feature","geometry":{"type":"LineString","coordinates":[[32.6742963,-19.5539567],[32.6740178,-19.5536173],[32.674013,-19.553468],[32.6740818,-19.5534276],[32.6745961,-19.5535032],[32.6745987,-19.5536943],[32.6742963,-19.5539567]]},"properties":{"shop":"convenience"}},
{"type":"Feature","geometry":{"type":"LineString","coordinates":[[32.2749929,-19.6252067],[32.2749576,-19.6255563],[32.2756067,-19.6256192],[32.2756556,-19.6252816],[32.2749929,-19.6252067]]},"properties":{"shop":"convenience"}},
{"type":"Feature","geometry":{"type":"LineString","coordinates":[[32.2742237,-19.626093],[32.2742325,-19.626376],[32.2745942,-19.6264088],[32.2746213,-19.6261013],[32.2742237,-19.626093]]},"properties":{"shop":"convenience"}},
{"type":"Feature","geometry":{"type":"LineString","coordinates":[[32.6120636,-19.5708993],[32.6116927,-19.5710961],[32.6118056,-19.5713162],[32.6121906,-19.571115],[32.6120636,-19.5708993]]},"properties":{"shop":"convenience"}},
{"type":"Feature","geometry":{"type":"LineString","coordinates":[[32.6891856,-19.4981237],[32.6891102,-19.4982676],[32.6892781,-19.4983457],[32.6892636,-19.4983735],[32.6893016,-19.4983912],[32.6893722,-19.4982564],[32.6893472,-19.4982448],[32.689367,-19.4982068],[32.6893343,-19.4981916],[32.6893253,-19.4982087],[32.6892709,-19.4981833],[32.6892792,-19.4981673],[32.6891856,-19.4981237]]},"properties":{"shop":"convenience"}},
{"type":"Feature","geometry":{"type":"LineString","coordinates":[[31.0677118,-17.8349389],[31.0677647,-17.8349506],[31.067778,-17.8348958],[31.0688824,-17.8351398],[31.0687195,-17.8358084],[31.0675622,-17.8355527],[31.0677118,-17.8349389]]},"properties":{"building":"yes","name":"OK Mart","operator":"OK","shop":"supermarket"}},
{"type":"Feature","geometry":{"type":"LineString","coordinates":[[31.0337181,-17.770178],[31.0340675,-17.7702505],[31.0340488,-17.7703323],[31.0336994,-17.7702597],[31.0337181,-17.770178]]},"properties":{"building":"yes","name":"SPAR","shop":"supermarket"}},
{"type":"Feature","geometry":{"type":"LineString","coordinates":[[30.8316046,-20.0941961],[30.8316429,-20.0945898],[30.831926,-20.0945655],[30.831915,-20.0944533],[30.8317604,-20.0944666],[30.8317475,-20.0943348],[30.8318103,-20.0943294],[30.8318142,-20.0943696],[30.8319107,-20.0943613],[30.8318922,-20.0941714],[30.8316046,-20.0941961]]},"properties":{"building":"yes","shop":"convenience"}},
{"type":"Feature","geometry":{"type":"LineString","coordinates":[[31.1182061,-17.783262],[31.1184977,-17.7831602],[31.1187196,-17.7837671],[31.1184268,-17.7838645],[31.1182061,-17.783262]]},"properties":{"addr:city":"Harare","addr:housenumber":"192","addr:street":"Enterprise Road","name":"Bon Marche Chisipite","opening_hours":"08:00-20:00","operator":"OK Zimbabwe","shop":"supermarket"}},
{"type":"Feature","geometry":{"type":"LineString","coordinates":[[28.5052179,-20.1205022],[28.5054807,-20.1202232],[28.5056458,-20.1203603],[28.505383,-20.1206393],[28.5052179,-20.1205022]]},"properties":{"building":"yes","name":"Maplanka","shop":"convenience"}},
{"type":"Feature","geometry":{"type":"LineString","coordinates":[[31.485798,-20.4370486],[31.4857024,-20.4371365],[31.4858404,-20.4372509],[31.4859325,-20.437168],[31.485798,-20.4370486]]},"properties":{"building":"yes","shop":"convenience"}},
{"type":"Feature","geometry":{"type":"LineString","coordinates":[[31.6711672,-21.0440323],[31.6727222,-21.0438284],[31.6728027,-21.0445158],[31.6712675,-21.0447825],[31.6711672,-21.0440323]]},"properties":{"amenity":"marketplace","name":"Flea Market"}},
{"type":"Feature","geometry":{"type":"LineString","coordinates":[[31.1548622,-17.9052003],[31.1548375,-17.905302],[31.1550726,-17.9053537],[31.1550973,-17.905252],[31.1548622,-17.9052003]]},"properties":{"addr:city":"Epworth","addr:district":"Chinamano Extension","addr:housenumber":"7159","addr:place":"Chinamano Extension","addr:subdistrict":"Maseko","addr:ward":"5","building":"supermarket","building:material":"brick","shop":"supermarket","source":"survey","source:date":"20150331"}},
{"type":"Feature","geometry":{"type":"LineString","coordinates":[[31.1705147,-17.9049103],[31.1706247,-17.9049563],[31.1705992,-17.9050239],[31.1704865,-17.9049831],[31.1705147,-17.9049103]]},"properties":{"addr:city":"Epworth","addr:housenumber":"1790","addr:subdistrict":"Magada Stopover","addr:ward":"4","building":"residential","building:material":"brick","name":"Makanya Tuck Shop","shop":"convenience","source":"survey","source:date":"20150331"}},
{"type":"Feature","geometry":{"type":"LineString","coordinates":[[31.1502282,-17.9186006],[31.1502511,-17.918599],[31.1502539,-17.9186341],[31.150231,-17.9186357],[31.1502282,-17.9186006]]},"properties":{"addr:city":"Epworth","addr:district":"Domboramwari","addr:housenumber":"3348","addr:place":"Domboramwari","addr:subdistrict":"Sasha Shops","addr:ward":"3","building":"yes","building:material":"brick","name":"Tuck Shop","shop":"convenience","source":"survey","source:date":"20150417"}},
{"type":"Feature","geometry":{"type":"LineString","coordinates":[[31.1502252,-17.9170884],[31.1502582,-17.9170881],[31.1502588,-17.917154],[31.1502258,-17.9171543],[31.1502252,-17.9170884]]},"properties":{"addr:city":"Epworth","addr:district":"Domboramwari","addr:housenumber":"3327B","addr:place":"Domboramwari","addr:subdistrict":"Sasha Shops","addr:ward":"3","building":"yes","building:material":"brick","name":"Tuck Shop","shop":"convenience","source":"survey","source:date":"20150417"}},
{"type":"Feature","geometry":{"type":"LineString","coordinates":[[31.1488338,-17.9175559],[31.1489416,-17.9175457],[31.1489519,-17.9176442],[31.148903,-17.9176488],[31.1488996,-17.9176165],[31.1488408,-17.9176221],[31.1488338,-17.9175559]]},"properties":{"addr:city":"Epworth","addr:district":"Domboramwari","addr:housenumber":"3345","addr:place":"Domboramwari","addr:ward":"3","building":"yes","building:material":"brick","name":"Tuck Shop","shop":"convenience","source":"survey","source:date":"20150417"}},
{"type":"Feature","geometry":{"type":"LineString","coordinates":[[31.1498636,-17.9177499],[31.1498277,-17.9177555],[31.1498238,-17.9177333],[31.1497957,-17.9177377],[31.1497824,-17.9176608],[31.1498464,-17.9176508],[31.1498636,-17.9177499]]},"properties":{"addr:city":"Epworth","addr:district":"Domboramwari","addr:housenumber":"3335","addr:place":"Domboramwari","addr:subdistrict":"Sasha Shops","addr:ward":"3","building":"yes","building:material":"brick","name":"Kode's Tuck Shop","shop":"convenience","source":"survey","source:date":"20150417"}},
{"type":"Feature","geometry":{"type":"LineString","coordinates":[[31.1468488,-17.9171129],[31.1469174,-17.9171122],[31.146918200000003,-17.9171766],[31.1468495,-17.9171773],[31.1468488,-17.9171129]]},"properties":{"addr:city":"Epworth","addr:district":"Domboramwari","addr:housenumber":"3540","addr:place":"Domboramwari","addr:ward":"3","building":"yes","building:material":"brick","name":"Jolo's Tuck Shop","shop":"convenience","source":"survey","source:date":"20150422"}},
{"type":"Feature","geometry":{"type":"LineString","coordinates":[[31.1472743,-17.8810056],[31.1473529,-17.8810366],[31.1473337,-17.8810808],[31.147255,-17.8810498],[31.1472743,-17.8810056]]},"properties":{"addr:city":"Epworth","addr:housenumber":"124R","addr:neighbourhood":"near Jacha River","addr:quarter":"Overspill","addr:ward":"6","building":"yes","building:material":"Blocks","name":"Taitamin mart","shop":"convenience","source":"survey"}},
{"type":"Feature","geometry":{"type":"LineString","coordinates":[[31.1495767,-17.88355],[31.1496107,-17.8835596],[31.1495875,-17.883634],[31.1495535,-17.8836244],[31.1495767,-17.88355]]},"properties":{"addr:city":"Epworth","addr:housenumber":"1988","addr:neighbourhood":"Kuwirirana","addr:quarter":"Overspill","addr:ward":"6","building":"yes","building:material":"brick","name":"Shindi Tuck Shop","shop":"convenience"}},
{"type":"Feature","geometry":{"type":"LineString","coordinates":[[31.149429,-17.8842316],[31.1495023,-17.8842959],[31.1494638,-17.8843356],[31.1493905,-17.8842714],[31.149429,-17.8842316]]},"properties":{"addr:city":"Epworth","addr:housenumber":"1969","addr:neighbourhood":"Kuwirirana","addr:quarter":"Overspill","addr:ward":"6","building":"yes","building:material":"brick","name":"Sande Tuck Shop","shop":"convenience"}},
{"type":"Feature","geometry":{"type":"LineString","coordinates":[[31.1493072,-17.8846059],[31.149336,-17.8846356],[31.1492786,-17.8846858],[31.1492499,-17.884656],[31.1493072,-17.8846059]]},"properties":{"addr:city":"Epworth","addr:housenumber":"1965","addr:neighbourhood":"Kuwirirana","addr:quarter":"Overspill","addr:ward":"6","building":"yes","building:material":"brick","name":"Razor Tuck Shop + Saloon","shop":"convenience"}},
{"type":"Feature","geometry":{"type":"LineString","coordinates":[[31.1448861,-17.8863863],[31.1449419,-17.886355],[31.1449833,-17.8864216],[31.1449823,-17.8864222],[31.1450017,-17.8864509],[31.144976,-17.8864666],[31.1449559,-17.886437],[31.1449275,-17.886453],[31.1448861,-17.8863863]]},"properties":{"addr:city":"Epworth","addr:housenumber":"2402","addr:neighbourhood":"near dam","addr:quarter":"Overspill","addr:ward":"5","building":"commercial","building:material":"brick","name":"SM Blessing Mini Mart","shop":"convenience","source":"survey"}},
{"type":"Feature","geometry":{"type":"LineString","coordinates":[[30.9292741,-17.801582],[30.9289562,-17.8018039],[30.9288429,-17.8018433],[30.9286949,-17.8019055],[30.9285011,-17.8019677],[30.9284075,-17.8019697],[30.9285185,-17.8013664],[30.928954,-17.8013768],[30.9291739,-17.8013499],[30.9293525,-17.8014349],[30.9294308,-17.8015385],[30.9292741,-17.801582]]},"properties":{"amenity":"marketplace"}},
{"type":"Feature","geometry":{"type":"LineString","coordinates":[[31.15574,-17.8939244],[31.1553538,-17.8942741],[31.1552814,-17.8942179],[31.155099,-17.8943456],[31.154921,-17.8942801],[31.154761,-17.894057],[31.1544163,-17.8937125],[31.1548227,-17.8934394],[31.1548978,-17.893493],[31.1549664,-17.893517],[31.1550426,-17.8935083],[31.15574,-17.8939244]]},"properties":{"amenity":"marketplace","name":"Solani Market"}},
{"type":"Feature","geometry":{"type":"LineString","coordinates":[[31.1261231,-17.8771852],[31.1258012,-17.8774405],[31.1253238,-17.8775987],[31.124782,-17.8775426],[31.1233582,-17.87704],[31.123119,-17.876935],[31.1235256,-17.8764528],[31.1238361,-17.8761301],[31.1240823,-17.8763226],[31.1244784,-17.8759744],[31.1248356,-17.8763428],[31.1250502,-17.8762101],[31.1261231,-17.8771852]]},"properties":{"amenity":"marketplace","name":"Chiremba Shopping Area","name:en":"Chiremba Shops"}},
{"type":"Feature","geometry":{"type":"LineString","coordinates":[[31.1457084,-17.905771],[31.1457032,-17.9058391],[31.1457689,-17.9058436],[31.1457711,-17.9058155],[31.1457943,-17.9058171],[31.1457872,-17.9059118],[31.1455927,-17.9058986],[31.1456029,-17.9057638],[31.1457084,-17.905771]]},"properties":{"addr:city":"Epworth","addr:district":"Domboramwari","addr:housenumber":"3025A","addr:place":"Domboramwari","building":"commercial","name":"Sunrise Butchery & General Dealer","shop":"butcher","source:date":"20150420"}},
{"type":"Feature","geometry":{"type":"LineString","coordinates":[[31.133736,-17.8450997],[31.1332367,-17.8459955],[31.1336784,-17.8462331],[31.133784,-17.8461052],[31.1339761,-17.8461874],[31.1344082,-17.8454288],[31.133736,-17.8450997]]},"properties":{"addr:city":"Harare","addr:street":"Mutare Road","building":"yes","name":"Pick n Pay","operator":"TM Stores","shop":"supermarket"}},
{"type":"Feature","geometry":{"type":"LineString","coordinates":[[31.1206017,-17.8399587],[31.1205097,-17.8402518],[31.1211892,-17.8404169],[31.1212423,-17.8401339],[31.1206017,-17.8399587]]},"properties":{"building":"yes","check_date":"2023-07-29","name":"Metro Peech & Browne","shop":"supermarket"}},
{"type":"Feature","geometry":{"type":"LineString","coordinates":[[31.1559805,-17.8832374],[31.1566941,-17.8828572],[31.1569809,-17.8833214],[31.1562555,-17.8837105],[31.1559805,-17.8832374]]},"properties":{"addr:city":"Epworth","addr:housenumber":"Overspill","amenity":"marketplace","name":"Overspill Flea Market"}},
{"type":"Feature","geometry":{"type":"LineString","coordinates":[[29.6850337,-16.8199371],[29.6851475,-16.8199905],[29.6852609,-16.819769],[29.6854118,-16.8198398],[29.6853431,-16.819974],[29.6854135,-16.8200071],[29.6854587,-16.8199188],[29.6855432,-16.8199584],[29.685279,-16.8204746],[29.6850582,-16.8203711],[29.6850291,-16.8204281],[29.6848835,-16.8203598],[29.6849127,-16.8203028],[29.6848593,-16.8202778],[29.6850337,-16.8199371]]},"properties":{"building":"yes","shop":"supermarket"}},